TOWN_CODE_11,CITY_NAME,S_NAME,CITY_NAME_from_master,S_NAME_from_master,town_name_show,都道府県名,市区町村名,大字・町名,字・丁目名,町丁目名,市区町村コード,町丁字コード,地域階層レベル,総数,0～4歳,5～9歳,10～14歳,15～19歳,20～24歳,25～29歳,30～34歳,35～39歳,40～44歳,45～49歳,50～54歳,55～59歳,60～64歳,65～69歳,70～74歳,75～79歳,80～84歳,85～89歳,90～94歳,95～99歳,100歳以上,0～4歳_医療需要者数,5～9歳_医療需要者数,10～14歳_医療需要者数,15～19歳_医療需要者数,20～24歳_医療需要者数,25～29歳_医療需要者数,30～34歳_医療需要者数,35～39歳_医療需要者数,40～44歳_医療需要者数,45～49歳_医療需要者数,50～54歳_医療需要者数,55～59歳_医療需要者数,60～64歳_医療需要者数,65～69歳_医療需要者数,70～74歳_医療需要者数,75～79歳_医療需要者数,80～84歳_医療需要者数,85～89歳_医療需要者数,90～94歳_医療需要者数,95～99歳_医療需要者数,100歳以上_医療需要者数,医療需要者数合計,いび漢方クリニック,おおのクリニック,たしろクリニック,のだ医院,ふじい内科クリニック,まつながファミリークリニック,むらせファミリークリニック,ゆり形成内科整形おおの,クリニック ラポール,クリニックIB(アイビー),下野内科,今村医院,医療法人社団橘会 新生病院,国枝医院,大久保医院,小林医院,小森内科クリニック,岐阜県厚生農業協同組合連合会 岐阜・西濃医療センター 揖斐厚生病院,揖斐川町久瀬診療所,揖斐川町春日診療所,田中医院,神田外科医院,谷汲中央診療所,野原クリニック,高田医院,黒川胃腸科外科クリニック,LON,LAT,dist_km,total_patients,town,town_norm,match_type
21401039004,揖斐川町,春日六合,揖斐川町,春日六合,揖斐川町春日六合,岐阜県,揖斐川町,春日六合,,揖斐川町春日六合,21401.0,39004.0,4.0,51.0,2.0,0.0,0.0,3.0,0.0,0.0,1.0,2.0,1.0,3.0,3.0,4.0,6.0,5.0,7.0,6.0,4.0,2.0,2.0,0.0,0.0,0.0,0.0,0.0,0.0,0.0,0.0,0.0,0.0,0.0,0.0,0.0,0.0,0.0,0.0,1.0,1.0,0.0,0.0,0.0,0.0,0.0,2.0,0.0,0.0,0.0,0.0,0.0,0.0,0.0,0.0,0.0,0.0,0.0,0.0,0.0,0.0,0.0,0.0,0.0,0.0,0.0,0.0,0.0,0.0,0.0,0.0,0.0,0.0,136.48805668172713,35.472695297483924,0.5337144477473301,0.0,揖斐川町春日六合,揖斐川町春日六合,code_in_car30
21401039003,揖斐川町,春日六合,揖斐川町,春日六合,揖斐川町春日六合,岐阜県,揖斐川町,春日六合,,揖斐川町春日六合,21401.0,39003.0,4.0,129.0,1.0,0.0,3.0,9.0,5.0,2.0,4.0,1.0,5.0,7.0,9.0,10.0,5.0,18.0,13.0,13.0,10.0,9.0,5.0,0.0,0.0,0.0,0.0,0.0,0.0,0.0,0.0,0.0,0.0,0.0,0.0,0.0,1.0,0.0,1.0,1.0,1.0,1.0,1.0,1.0,0.0,0.0,7.0,0.0,0.0,0.0,0.0,411.0,0.0,0.0,0.0,0.0,0.0,0.0,0.0,0.0,0.0,0.0,0.0,0.0,0.0,0.0,328.0,0.0,0.0,0.0,0.0,0.0,0.0,136.49525599625775,35.47064339056909,0.7376052898849553,739.0,揖斐川町春日六合,揖斐川町春日六合,code_in_car30
21401040000,揖斐川町,春日香六,揖斐川町,春日香六,揖斐川町春日香六,,,,,,,,,,,,,,,,,,,,,,,,,,,,,,,,,,,,,,,,,,,,,,,,,,,,,0.0,0.0,0.0,0.0,265.0,0.0,0.0,0.0,0.0,0.0,0.0,0.0,0.0,0.0,0.0,262.0,0.0,0.0,0.0,0.0,0.0,0.0,0.0,0.0,0.0,0.0,136.46637040383843,35.473413704434584,2.038763733037252,527.0,揖斐川町春日香六,揖斐川町春日香六,code_in_car30
21401039006,揖斐川町,春日六合,揖斐川町,春日六合,揖斐川町春日六合,岐阜県,揖斐川町,春日六合,,揖斐川町春日六合,21401.0,39006.0,4.0,0.0,0.0,0.0,0.0,0.0,0.0,0.0,0.0,0.0,0.0,0.0,0.0,0.0,0.0,0.0,0.0,0.0,0.0,0.0,0.0,0.0,0.0,0.0,0.0,0.0,0.0,0.0,0.0,0.0,0.0,0.0,0.0,0.0,0.0,0.0,0.0,0.0,0.0,0.0,0.0,0.0,0.0,0.0,0.0,0.0,0.0,0.0,0.0,0.0,0.0,0.0,0.0,0.0,0.0,0.0,0.0,0.0,0.0,0.0,0.0,0.0,0.0,0.0,0.0,0.0,0.0,0.0,0.0,0.0,0.0,136.5002879832477,35.45132807870905,2.1600841640468156,0.0,揖斐川町春日六合,揖斐川町春日六合,code_in_car30
21401039007,揖斐川町,春日六合,揖斐川町,春日六合,揖斐川町春日六合,岐阜県,揖斐川町,春日六合,,揖斐川町春日六合,21401.0,39007.0,4.0,0.0,0.0,0.0,0.0,0.0,0.0,0.0,0.0,0.0,0.0,0.0,0.0,0.0,0.0,0.0,0.0,0.0,0.0,0.0,0.0,0.0,0.0,0.0,0.0,0.0,0.0,0.0,0.0,0.0,0.0,0.0,0.0,0.0,0.0,0.0,0.0,0.0,0.0,0.0,0.0,0.0,0.0,0.0,0.0,0.0,0.0,0.0,0.0,0.0,0.0,0.0,0.0,0.0,0.0,0.0,0.0,0.0,0.0,0.0,0.0,0.0,0.0,0.0,0.0,0.0,0.0,0.0,0.0,0.0,0.0,136.4825207071472,35.44794250611809,2.2707499303026153,0.0,揖斐川町春日六合,揖斐川町春日六合,code_in_car30
21401041000,揖斐川町,春日小宮神,揖斐川町,春日小宮神,揖斐川町春日小宮神,,,,,,,,,,,,,,,,,,,,,,,,,,,,,,,,,,,,,,,,,,,,,,,,,,,,,0.0,0.0,0.0,0.0,0.0,0.0,0.0,0.0,0.0,0.0,0.0,0.0,0.0,0.0,0.0,0.0,0.0,0.0,0.0,0.0,0.0,0.0,0.0,0.0,0.0,0.0,136.46137770846778,35.46687317516521,2.3992901567519747,0.0,揖斐川町春日小宮神,揖斐川町春日小宮神,code_in_car30
21401039002,揖斐川町,春日六合,揖斐川町,春日六合,揖斐川町春日六合,岐阜県,揖斐川町,春日六合,,揖斐川町春日六合,21401.0,39002.0,4.0,40.0,2.0,3.0,1.0,2.0,2.0,2.0,1.0,1.0,2.0,4.0,2.0,1.0,4.0,4.0,1.0,2.0,2.0,4.0,0.0,0.0,0.0,0.0,0.0,0.0,0.0,0.0,0.0,0.0,0.0,0.0,0.0,0.0,0.0,0.0,0.0,0.0,0.0,0.0,0.0,0.0,0.0,0.0,0.0,0.0,0.0,0.0,0.0,50.0,0.0,0.0,0.0,0.0,0.0,0.0,0.0,0.0,0.0,0.0,0.0,0.0,0.0,0.0,365.0,0.0,0.0,0.0,0.0,0.0,0.0,136.50006271148033,35.48760359143842,2.4547114133889805,415.0,揖斐川町春日六合,揖斐川町春日六合,code_in_car30
21401039001,揖斐川町,春日六合,揖斐川町,春日六合,揖斐川町春日六合,岐阜県,揖斐川町,春日六合,,揖斐川町春日六合,21401.0,39001.0,4.0,55.0,4.0,3.0,0.0,5.0,2.0,1.0,1.0,3.0,3.0,6.0,3.0,5.0,2.0,3.0,5.0,6.0,2.0,0.0,0.0,1.0,0.0,0.0,0.0,0.0,0.0,0.0,0.0,0.0,0.0,0.0,0.0,0.0,0.0,0.0,0.0,0.0,1.0,0.0,0.0,0.0,0.0,0.0,1.0,0.0,0.0,0.0,0.0,0.0,0.0,66.0,0.0,0.0,0.0,0.0,0.0,0.0,0.0,0.0,265.0,0.0,0.0,0.0,33.0,0.0,0.0,0.0,0.0,0.0,0.0,136.51793482978272,35.47368298370688,2.800123321359432,364.0,揖斐川町春日六合,揖斐川町春日六合,code_in_car30
21401024000,揖斐川町,瑞岩寺,揖斐川町,瑞岩寺,揖斐川町瑞岩寺,,,,,,,,,,,,,,,,,,,,,,,,,,,,,,,,,,,,,,,,,,,,,,,,,,,,,0.0,0.0,0.0,0.0,266.0,0.0,0.0,0.0,0.0,0.0,0.0,0.0,0.0,0.0,0.0,28.0,0.0,0.0,0.0,0.0,0.0,0.0,0.0,0.0,0.0,0.0,136.5180905505467,35.460394246408256,2.8638488407670746,294.0,揖斐川町瑞岩寺,揖斐川町瑞岩寺,code_in_car30
21401039005,揖斐川町,春日六合,揖斐川町,春日六合,揖斐川町春日六合,岐阜県,揖斐川町,春日六合,,揖斐川町春日六合,21401.0,39005.0,4.0,0.0,0.0,0.0,0.0,0.0,0.0,0.0,0.0,0.0,0.0,0.0,0.0,0.0,0.0,0.0,0.0,0.0,0.0,0.0,0.0,0.0,0.0,0.0,0.0,0.0,0.0,0.0,0.0,0.0,0.0,0.0,0.0,0.0,0.0,0.0,0.0,0.0,0.0,0.0,0.0,0.0,0.0,0.0,0.0,0.0,0.0,0.0,0.0,0.0,0.0,0.0,0.0,0.0,0.0,0.0,0.0,0.0,0.0,0.0,0.0,0.0,0.0,0.0,0.0,0.0,0.0,0.0,0.0,0.0,0.0,136.47749349589228,35.49427810933429,3.0792625519696912,0.0,揖斐川町春日六合,揖斐川町春日六合,code_in_car30
21401043000,揖斐川町,春日中山,揖斐川町,春日中山,揖斐川町春日中山,,,,,,,,,,,,,,,,,,,,,,,,,,,,,,,,,,,,,,,,,,,,,,,,,,,,,0.0,0.0,0.0,0.0,0.0,0.0,0.0,0.0,0.0,0.0,0.0,0.0,0.0,0.0,0.0,0.0,0.0,0.0,0.0,0.0,0.0,0.0,0.0,0.0,0.0,0.0,136.4453852147268,35.4546788129712,4.1165929331500495,0.0,揖斐川町春日中山,揖斐川町春日中山,code_in_car30
21401022000,揖斐川町,白樫,揖斐川町,白樫,揖斐川町白樫,,,,,,,,,,,,,,,,,,,,,,,,,,,,,,,,,,,,,,,,,,,,,,,,,,,,,0.0,0.0,0.0,443.0,305.0,0.0,0.0,0.0,0.0,0.0,0.0,0.0,0.0,0.0,0.0,142.0,0.0,0.0,0.0,0.0,0.0,0.0,0.0,0.0,0.0,0.0,136.53020379069892,35.481357549438464,4.11771449074273,890.0,揖斐川町白樫,揖斐川町白樫,code_in_car30
21401023000,揖斐川町,市場,揖斐川町,市場,揖斐川町市場,,,,,,,,,,,,,,,,,,,,,,,,,,,,,,,,,,,,,,,,,,,,,,,,,,,,,0.0,0.0,0.0,357.0,940.0,0.0,0.0,0.0,0.0,0.0,0.0,0.0,96.0,0.0,0.0,1514.0,0.0,0.0,0.0,110.0,0.0,0.0,0.0,399.0,0.0,0.0,136.53610818886324,35.47421046329793,4.426979281549588,3416.0,揖斐川町市場,揖斐川町市場,code_in_car30
21404015000,池田町,舟子,池田町,舟子,池田町舟子,,,,,,,,,,,,,,,,,,,,,,,,,,,,,,,,,,,,,,,,,,,,,,,,,,,,,0.0,0.0,0.0,0.0,487.0,0.0,78.0,0.0,0.0,0.0,0.0,0.0,0.0,0.0,0.0,0.0,0.0,0.0,0.0,0.0,0.0,0.0,0.0,0.0,0.0,0.0,136.53962624181986,35.46780180231322,4.6897800581848985,565.0,池田町舟子,池田町舟子,code_in_car30
21401021000,揖斐川町,上野,揖斐川町,上野,揖斐川町上野,,,,,,,,,,,,,,,,,,,,,,,,,,,,,,,,,,,,,,,,,,,,,,,,,,,,,0.0,0.0,120.0,489.0,868.0,0.0,0.0,0.0,0.0,0.0,0.0,0.0,218.0,0.0,0.0,93.0,0.0,0.0,0.0,0.0,0.0,95.0,0.0,184.0,0.0,0.0,136.5240967217223,35.499848946299814,4.83715466000358,2067.0,揖斐川町上野,揖斐川町上野,code_in_car30
21404013000,池田町,段,池田町,段,池田町段,,,,,,,,,,,,,,,,,,,,,,,,,,,,,,,,,,,,,,,,,,,,,,,,,,,,,0.0,0.0,0.0,0.0,40.0,0.0,0.0,0.0,0.0,0.0,0.0,0.0,64.0,0.0,0.0,476.0,0.0,0.0,0.0,0.0,0.0,0.0,0.0,0.0,0.0,0.0,136.5456951281188,35.46338871404058,5.263465793774969,580.0,池田町段,池田町段,code_in_car30
21404014000,池田町,般若畑,池田町,般若畑,池田町般若畑,,,,,,,,,,,,,,,,,,,,,,,,,,,,,,,,,,,,,,,,,,,,,,,,,,,,,0.0,0.0,0.0,0.0,956.0,0.0,0.0,0.0,0.0,0.0,0.0,0.0,116.0,0.0,0.0,178.0,0.0,0.0,0.0,0.0,0.0,0.0,0.0,0.0,0.0,0.0,136.54562423076874,35.458256967541345,5.341957935735912,1250.0,池田町般若畑,池田町般若畑,code_in_car30
21401042000,揖斐川町,春日川合,揖斐川町,春日川合,揖斐川町春日川合,,,,,,,,,,,,,,,,,,,,,,,,,,,,,,,,,,,,,,,,,,,,,,,,,,,,,0.0,97.0,0.0,0.0,0.0,0.0,0.0,0.0,0.0,0.0,0.0,0.0,0.0,0.0,0.0,99.0,0.0,0.0,0.0,540.0,0.0,97.0,0.0,0.0,0.0,0.0,136.4484947482992,35.43168078491725,5.377859723696807,833.0,揖斐川町春日川合,揖斐川町春日川合,code_in_car30
21401025000,揖斐川町,黒田,揖斐川町,黒田,揖斐川町黒田,,,,,,,,,,,,,,,,,,,,,,,,,,,,,,,,,,,,,,,,,,,,,,,,,,,,,0.0,0.0,0.0,0.0,1148.0,0.0,0.0,0.0,0.0,0.0,0.0,0.0,0.0,0.0,0.0,1320.0,0.0,0.0,0.0,0.0,0.0,0.0,0.0,0.0,0.0,0.0,136.5490708665649,35.47348533650667,5.579583377911828,2468.0,揖斐川町黒田,揖斐川町黒田,code_in_car30
21401020000,揖斐川町,小島,揖斐川町,小島,揖斐川町小島,,,,,,,,,,,,,,,,,,,,,,,,,,,,,,,,,,,,,,,,,,,,,,,,,,,,,0.0,0.0,0.0,0.0,165.0,0.0,0.0,0.0,0.0,0.0,0.0,0.0,0.0,0.0,0.0,168.0,0.0,0.0,168.0,0.0,0.0,0.0,0.0,119.0,0.0,0.0,136.5476467191072,35.48324619623047,5.67812054279695,620.0,揖斐川町小島,揖斐川町小島,code_in_car30
21401044000,揖斐川町,春日美束,揖斐川町,春日美束,揖斐川町春日美束,,,,,,,,,,,,,,,,,,,,,,,,,,,,,,,,,,,,,,,,,,,,,,,,,,,,,0.0,0.0,0.0,0.0,0.0,0.0,0.0,0.0,0.0,0.0,0.0,0.0,0.0,0.0,0.0,0.0,0.0,0.0,0.0,0.0,0.0,0.0,0.0,0.0,0.0,0.0,136.43325403819912,35.49638157271555,5.870292837558222,0.0,揖斐川町春日美束,揖斐川町春日美束,code_in_car30
21401026000,揖斐川町,新宮,揖斐川町,新宮,揖斐川町新宮,,,,,,,,,,,,,,,,,,,,,,,,,,,,,,,,,,,,,,,,,,,,,,,,,,,,,0.0,0.0,0.0,1377.0,74.0,0.0,0.0,0.0,0.0,0.0,0.0,0.0,0.0,0.0,0.0,538.0,0.0,0.0,0.0,0.0,0.0,0.0,0.0,0.0,0.0,0.0,136.5518540631339,35.478321950466615,5.911494593805538,1989.0,揖斐川町新宮,揖斐川町新宮,code_in_car30
21404011000,池田町,願成寺,池田町,願成寺,池田町願成寺,,,,,,,,,,,,,,,,,,,,,,,,,,,,,,,,,,,,,,,,,,,,,,,,,,,,,0.0,0.0,0.0,0.0,1098.0,0.0,0.0,0.0,0.0,0.0,0.0,0.0,0.0,0.0,0.0,172.0,0.0,0.0,0.0,0.0,0.0,0.0,0.0,0.0,0.0,0.0,136.54849364390265,35.44793113311561,5.925217082851474,1270.0,池田町願成寺,池田町願成寺,code_in_car30
21404016000,池田町,宮地,池田町,宮地,池田町宮地,,,,,,,,,,,,,,,,,,,,,,,,,,,,,,,,,,,,,,,,,,,,,,,,,,,,,0.0,0.0,0.0,87.0,1205.0,0.0,0.0,0.0,0.0,0.0,0.0,0.0,404.0,0.0,0.0,145.0,0.0,0.0,0.0,0.0,0.0,0.0,0.0,0.0,0.0,0.0,136.55325967102058,35.457520817353085,6.036147808531743,1841.0,池田町宮地,池田町宮地,code_in_car30
21401027000,揖斐川町,岡,揖斐川町,岡,揖斐川町岡,,,,,,,,,,,,,,,,,,,,,,,,,,,,,,,,,,,,,,,,,,,,,,,,,,,,,0.0,0.0,0.0,93.0,162.0,0.0,53.0,0.0,0.0,0.0,0.0,0.0,0.0,0.0,0.0,0.0,0.0,0.0,0.0,0.0,0.0,0.0,0.0,0.0,0.0,0.0,136.55593837443644,35.47406848644642,6.204828141316794,308.0,揖斐川町岡,揖斐川町岡,code_in_car30
21401052000,揖斐川町,三倉,揖斐川町,三倉,揖斐川町三倉,,,,,,,,,,,,,,,,,,,,,,,,,,,,,,,,,,,,,,,,,,,,,,,,,,,,,0.0,0.0,0.0,0.0,0.0,0.0,0.0,0.0,0.0,0.0,0.0,0.0,0.0,0.0,0.0,0.0,0.0,0.0,0.0,0.0,0.0,0.0,0.0,0.0,0.0,0.0,136.51610477024795,35.5195364161127,6.286205463717619,0.0,揖斐川町三倉,揖斐川町三倉,code_in_car30
21404033000,池田町,藤代,池田町,藤代,池田町藤代,,,,,,,,,,,,,,,,,,,,,,,,,,,,,,,,,,,,,,,,,,,,,,,,,,,,,0.0,0.0,0.0,0.0,641.0,0.0,76.0,0.0,0.0,0.0,0.0,0.0,273.0,0.0,0.0,0.0,0.0,0.0,0.0,0.0,0.0,0.0,0.0,0.0,0.0,99.0,136.54428123712503,35.433863865770874,6.360757731408591,1089.0,池田町藤代,池田町藤代,code_in_car30
21401005000,揖斐川町,房島,揖斐川町,房島,揖斐川町房島,,,,,,,,,,,,,,,,,,,,,,,,,,,,,,,,,,,,,,,,,,,,,,,,,,,,,0.0,0.0,0.0,1601.0,297.0,0.0,0.0,0.0,0.0,0.0,0.0,0.0,0.0,0.0,0.0,258.0,0.0,0.0,0.0,283.0,0.0,0.0,0.0,0.0,0.0,0.0,136.55257882036517,35.49098462744341,6.3993705157490925,2439.0,揖斐川町房島,揖斐川町房島,code_in_car30
21401051000,揖斐川町,外津汲,揖斐川町,外津汲,揖斐川町外津汲,,,,,,,,,,,,,,,,,,,,,,,,,,,,,,,,,,,,,,,,,,,,,,,,,,,,,0.0,0.0,0.0,0.0,0.0,0.0,0.0,0.0,0.0,0.0,0.0,0.0,0.0,0.0,0.0,0.0,0.0,0.0,0.0,0.0,0.0,0.0,0.0,0.0,0.0,0.0,136.49688948163907,35.52559577527417,6.467713418793173,0.0,揖斐川町外津汲,揖斐川町外津汲,code_in_car30
21404032000,池田町,小寺,池田町,小寺,池田町小寺,,,,,,,,,,,,,,,,,,,,,,,,,,,,,,,,,,,,,,,,,,,,,,,,,,,,,0.0,0.0,0.0,0.0,324.0,0.0,0.0,0.0,0.0,0.0,0.0,0.0,0.0,0.0,0.0,0.0,0.0,0.0,0.0,0.0,0.0,0.0,0.0,0.0,0.0,0.0,136.55028865076483,35.439178384414774,6.495649929446395,324.0,池田町小寺,池田町小寺,code_in_car30
21404012000,池田町,小牛,池田町,小牛,池田町小牛,,,,,,,,,,,,,,,,,,,,,,,,,,,,,,,,,,,,,,,,,,,,,,,,,,,,,0.0,0.0,0.0,0.0,1203.0,0.0,0.0,0.0,0.0,0.0,0.0,0.0,55.0,0.0,0.0,160.0,0.0,0.0,0.0,0.0,0.0,0.0,0.0,0.0,0.0,0.0,136.5570842454783,35.4526801328583,6.495685620032057,1418.0,池田町小牛,池田町小牛,code_in_car30
21404023000,池田町,沓井,池田町,沓井,池田町沓井,,,,,,,,,,,,,,,,,,,,,,,,,,,,,,,,,,,,,,,,,,,,,,,,,,,,,0.0,78.0,0.0,1098.0,1874.0,0.0,321.0,54.0,51.0,0.0,0.0,60.0,57.0,0.0,63.0,290.0,0.0,0.0,0.0,0.0,0.0,148.0,0.0,0.0,0.0,0.0,136.56022253676517,35.46867400568561,6.5555376576272755,4094.0,池田町沓井,池田町沓井,code_in_car30
21401013002,揖斐川町,上岡島,揖斐川町,上岡島,揖斐川町上岡島,岐阜県,揖斐川町,上岡島,,揖斐川町上岡島,21401.0,13002.0,4.0,81.0,5.0,5.0,3.0,3.0,1.0,4.0,7.0,1.0,8.0,2.0,5.0,8.0,5.0,9.0,7.0,3.0,1.0,0.0,2.0,2.0,0.0,0.0,0.0,0.0,0.0,0.0,0.0,0.0,0.0,0.0,0.0,0.0,0.0,0.0,1.0,1.0,0.0,0.0,0.0,0.0,0.0,0.0,2.0,0.0,0.0,0.0,273.0,58.0,0.0,38.0,0.0,0.0,0.0,0.0,0.0,39.0,0.0,0.0,0.0,0.0,0.0,0.0,0.0,0.0,0.0,0.0,0.0,0.0,0.0,136.56225303274977,35.47901525674263,6.850860272054141,408.0,揖斐川町上岡島,揖斐川町上岡島,code_in_car30
21401019000,揖斐川町,上東野,揖斐川町,上東野,揖斐川町上東野,,,,,,,,,,,,,,,,,,,,,,,,,,,,,,,,,,,,,,,,,,,,,,,,,,,,,0.0,0.0,0.0,662.0,0.0,0.0,0.0,0.0,0.0,0.0,0.0,0.0,0.0,0.0,0.0,52.0,0.0,0.0,0.0,0.0,0.0,0.0,0.0,0.0,0.0,0.0,136.5616321344348,35.48184120174897,6.8595713469526345,714.0,揖斐川町上東野,揖斐川町上東野,code_in_car30
21404022000,池田町,田中,池田町,田中,池田町田中,,,,,,,,,,,,,,,,,,,,,,,,,,,,,,,,,,,,,,,,,,,,,,,,,,,,,0.0,0.0,0.0,0.0,286.0,0.0,0.0,0.0,0.0,0.0,0.0,0.0,0.0,0.0,0.0,0.0,0.0,0.0,0.0,0.0,0.0,0.0,0.0,0.0,0.0,0.0,136.56385274469972,35.45899082794895,6.955035788818253,286.0,池田町田中,池田町田中,code_in_car30
21401028000,揖斐川町,和田,揖斐川町,和田,揖斐川町和田,,,,,,,,,,,,,,,,,,,,,,,,,,,,,,,,,,,,,,,,,,,,,,,,,,,,,0.0,0.0,0.0,136.0,0.0,0.0,0.0,0.0,0.0,0.0,0.0,0.0,0.0,0.0,0.0,136.0,0.0,0.0,0.0,0.0,0.0,0.0,0.0,161.0,0.0,0.0,136.56409722586085,35.47545869057872,6.956554532809704,433.0,揖斐川町和田,揖斐川町和田,code_in_car30
21404031000,池田町,草深,池田町,草深,池田町草深,,,,,,,,,,,,,,,,,,,,,,,,,,,,,,,,,,,,,,,,,,,,,,,,,,,,,0.0,0.0,0.0,0.0,499.0,0.0,0.0,0.0,0.0,0.0,0.0,92.0,331.0,0.0,0.0,0.0,0.0,0.0,0.0,98.0,0.0,0.0,0.0,0.0,0.0,0.0,136.56047452500587,35.44358755832042,7.112563278911209,1020.0,池田町草深,池田町草深,code_in_car30
21401001000,揖斐川町,北方,揖斐川町,北方,揖斐川町北方,,,,,,,,,,,,,,,,,,,,,,,,,,,,,,,,,,,,,,,,,,,,,,,,,,,,,0.0,0.0,0.0,2142.0,0.0,0.0,0.0,0.0,1086.0,153.0,0.0,0.0,0.0,0.0,0.0,0.0,0.0,113.0,0.0,0.0,0.0,0.0,0.0,177.0,0.0,0.0,136.54501906896812,35.51368814010517,7.260986930447251,3671.0,揖斐川町北方,揖斐川町北方,code_in_car30
21404021000,池田町,粕ケ原,池田町,粕ケ原,池田町粕ケ原,,,,,,,,,,,,,,,,,,,,,,,,,,,,,,,,,,,,,,,,,,,,,,,,,,,,,0.0,0.0,0.0,124.0,986.0,125.0,68.0,804.0,0.0,0.0,0.0,0.0,564.0,0.0,0.0,67.0,0.0,0.0,0.0,0.0,0.0,52.0,0.0,82.0,96.0,0.0,136.5677613953637,35.46219735613626,7.265702267027038,2968.0,池田町粕ケ原,池田町粕ケ原,code_in_car30
21404034000,池田町,山洞,池田町,山洞,池田町山洞,,,,,,,,,,,,,,,,,,,,,,,,,,,,,,,,,,,,,,,,,,,,,,,,,,,,,0.0,0.0,0.0,0.0,397.0,0.0,0.0,0.0,0.0,0.0,0.0,94.0,455.0,0.0,0.0,0.0,0.0,0.0,0.0,0.0,0.0,0.0,0.0,0.0,0.0,0.0,136.55914950829427,35.43738159564232,7.296176744891997,946.0,池田町山洞,池田町山洞,code_in_car30
21401013001,揖斐川町,上岡島,揖斐川町,上岡島,揖斐川町上岡島,岐阜県,揖斐川町,上岡島,,揖斐川町上岡島,21401.0,13001.0,4.0,64.0,0.0,6.0,2.0,2.0,5.0,0.0,0.0,3.0,3.0,6.0,7.0,2.0,1.0,4.0,9.0,8.0,3.0,2.0,1.0,0.0,0.0,0.0,0.0,0.0,0.0,0.0,0.0,0.0,0.0,0.0,0.0,0.0,0.0,0.0,0.0,1.0,1.0,0.0,0.0,0.0,0.0,0.0,2.0,0.0,0.0,0.0,176.0,0.0,0.0,0.0,0.0,0.0,26.0,0.0,0.0,0.0,0.0,0.0,0.0,0.0,0.0,0.0,0.0,0.0,0.0,0.0,51.0,0.0,0.0,136.5674698740775,35.480821714030434,7.352542431236065,253.0,揖斐川町上岡島,揖斐川町上岡島,code_in_car30
21404037000,池田町,本郷,池田町,本郷,池田町本郷,,,,,,,,,,,,,,,,,,,,,,,,,,,,,,,,,,,,,,,,,,,,,,,,,,,,,0.0,54.0,0.0,605.0,7635.0,0.0,606.0,69.0,0.0,54.0,0.0,105.0,1505.0,0.0,0.0,302.0,0.0,0.0,0.0,77.0,0.0,0.0,0.0,0.0,0.0,384.0,136.56822129912604,35.44863531913936,7.58882543227255,11396.0,池田町本郷,池田町本郷,code_in_car30
21404052000,池田町,片山,池田町,片山,池田町片山,,,,,,,,,,,,,,,,,,,,,,,,,,,,,,,,,,,,,,,,,,,,,,,,,,,,,0.0,0.0,0.0,197.0,2430.0,93.0,259.0,0.0,0.0,0.0,0.0,223.0,1336.0,0.0,0.0,488.0,0.0,0.0,0.0,0.0,0.0,0.0,0.0,0.0,0.0,91.0,136.54952151951906,35.420877027630056,7.652355892164767,5117.0,池田町片山,池田町片山,code_in_car30
21401012000,揖斐川町,下岡島,揖斐川町,下岡島,揖斐川町下岡島,,,,,,,,,,,,,,,,,,,,,,,,,,,,,,,,,,,,,,,,,,,,,,,,,,,,,0.0,0.0,0.0,0.0,0.0,0.0,0.0,0.0,0.0,0.0,0.0,0.0,0.0,0.0,0.0,0.0,0.0,0.0,0.0,0.0,0.0,0.0,0.0,0.0,0.0,0.0,136.57268509446138,35.47852215522462,7.773406082851963,0.0,揖斐川町下岡島,揖斐川町下岡島,code_in_car30
21361009000,垂井町,梅谷,垂井町,梅谷,垂井町梅谷,,,,,,,,,,,,,,,,,,,,,,,,,,,,,,,,,,,,,,,,,,,,,,,,,,,,,0.0,0.0,0.0,0.0,0.0,0.0,0.0,0.0,0.0,0.0,0.0,0.0,0.0,0.0,0.0,0.0,0.0,0.0,0.0,0.0,0.0,0.0,0.0,0.0,0.0,0.0,136.53365769532803,35.40730180620489,7.913966704452309,0.0,垂井町梅谷,垂井町梅谷,code_in_car30
21401002000,揖斐川町,極楽寺,揖斐川町,極楽寺,揖斐川町極楽寺,,,,,,,,,,,,,,,,,,,,,,,,,,,,,,,,,,,,,,,,,,,,,,,,,,,,,0.0,0.0,0.0,385.0,73.0,0.0,0.0,0.0,0.0,0.0,0.0,0.0,0.0,0.0,0.0,0.0,0.0,0.0,0.0,0.0,0.0,0.0,0.0,0.0,0.0,0.0,136.5700729394865,35.492108816945375,7.9176572246291865,458.0,揖斐川町極楽寺,揖斐川町極楽寺,code_in_car30
21404035000,池田町,青柳,池田町,青柳,池田町青柳,,,,,,,,,,,,,,,,,,,,,,,,,,,,,,,,,,,,,,,,,,,,,,,,,,,,,0.0,75.0,0.0,141.0,901.0,0.0,111.0,0.0,0.0,0.0,0.0,138.0,258.0,0.0,0.0,361.0,0.0,0.0,0.0,49.0,0.0,0.0,0.0,0.0,0.0,0.0,136.56920581640833,35.43954302088259,8.015988829375326,2034.0,池田町青柳,池田町青柳,code_in_car30
21404047000,池田町,萩原,池田町,萩原,池田町萩原,,,,,,,,,,,,,,,,,,,,,,,,,,,,,,,,,,,,,,,,,,,,,,,,,,,,,0.0,0.0,0.0,0.0,948.0,0.0,303.0,0.0,0.0,0.0,0.0,0.0,1405.0,0.0,0.0,51.0,0.0,0.0,0.0,0.0,0.0,0.0,0.0,0.0,0.0,45.0,136.5744499970509,35.45275685102199,8.022867235663751,2752.0,池田町萩原,池田町萩原,code_in_car30
21401006000,揖斐川町,三輪,揖斐川町,三輪,揖斐川町三輪,,,,,,,,,,,,,,,,,,,,,,,,,,,,,,,,,,,,,,,,,,,,,,,,,,,,,485.0,0.0,178.0,3458.0,309.0,0.0,175.0,0.0,0.0,367.0,0.0,0.0,0.0,0.0,0.0,689.0,0.0,0.0,0.0,83.0,0.0,0.0,175.0,841.0,0.0,0.0,136.57378780112538,35.4863832427931,8.04944249308239,6760.0,揖斐川町三輪,揖斐川町三輪,code_in_car30
21404038000,池田町,田畑,池田町,田畑,池田町田畑,,,,,,,,,,,,,,,,,,,,,,,,,,,,,,,,,,,,,,,,,,,,,,,,,,,,,0.0,0.0,88.0,197.0,1652.0,0.0,259.0,0.0,0.0,0.0,0.0,0.0,469.0,0.0,0.0,299.0,0.0,0.0,0.0,0.0,0.0,0.0,0.0,55.0,0.0,0.0,136.5656952081321,35.43188863975447,8.109661878972826,3019.0,池田町田畑,池田町田畑,code_in_car30
21401018000,揖斐川町,脛永,揖斐川町,脛永,揖斐川町脛永,,,,,,,,,,,,,,,,,,,,,,,,,,,,,,,,,,,,,,,,,,,,,,,,,,,,,0.0,0.0,0.0,1103.0,932.0,0.0,0.0,0.0,0.0,0.0,0.0,0.0,908.0,0.0,0.0,0.0,0.0,0.0,0.0,0.0,0.0,0.0,0.0,274.0,0.0,0.0,136.57775626108108,35.468844493860146,8.143519159953867,3217.0,揖斐川町脛永,揖斐川町脛永,code_in_car30
21404048000,池田町,六之井,池田町,六之井,池田町六之井,,,,,,,,,,,,,,,,,,,,,,,,,,,,,,,,,,,,,,,,,,,,,,,,,,,,,0.0,0.0,0.0,230.0,2640.0,0.0,1903.0,0.0,0.0,0.0,0.0,438.0,1912.0,0.0,0.0,280.0,0.0,0.0,0.0,0.0,0.0,0.0,0.0,0.0,58.0,212.0,136.5736225077565,35.441082568668975,8.322344143802768,7673.0,池田町六之井,池田町六之井,code_in_car30
21401011000,揖斐川町,上ミ野,揖斐川町,上ミ野,揖斐川町上ミ野,,,,,,,,,,,,,,,,,,,,,,,,,,,,,,,,,,,,,,,,,,,,,,,,,,,,,0.0,0.0,0.0,0.0,0.0,0.0,0.0,0.0,0.0,98.0,0.0,0.0,0.0,0.0,0.0,0.0,0.0,0.0,0.0,0.0,0.0,0.0,0.0,0.0,0.0,0.0,136.57968028222518,35.478957218626434,8.406972968615419,98.0,揖斐川町上ミ野,揖斐川町上ミ野,code_in_car30
21401004000,揖斐川町,若松,揖斐川町,若松,揖斐川町若松,,,,,,,,,,,,,,,,,,,,,,,,,,,,,,,,,,,,,,,,,,,,,,,,,,,,,0.0,0.0,0.0,714.0,64.0,0.0,0.0,0.0,0.0,0.0,0.0,0.0,0.0,0.0,0.0,0.0,0.0,0.0,0.0,0.0,0.0,0.0,117.0,117.0,0.0,0.0,136.5645787084904,35.51083815162319,8.430133619340127,1012.0,揖斐川町若松,揖斐川町若松,code_in_car30
21401003000,揖斐川町,上南方,揖斐川町,上南方,揖斐川町上南方,,,,,,,,,,,,,,,,,,,,,,,,,,,,,,,,,,,,,,,,,,,,,,,,,,,,,0.0,0.0,0.0,2755.0,133.0,0.0,0.0,0.0,80.0,0.0,0.0,0.0,531.0,0.0,0.0,55.0,0.0,0.0,0.0,0.0,0.0,0.0,0.0,225.0,0.0,0.0,136.57174408297914,35.50218321340659,8.499686325722433,3779.0,揖斐川町上南方,揖斐川町上南方,code_in_car30
21401007000,揖斐川町,大光寺,揖斐川町,大光寺,揖斐川町大光寺,,,,,,,,,,,,,,,,,,,,,,,,,,,,,,,,,,,,,,,,,,,,,,,,,,,,,0.0,0.0,0.0,0.0,0.0,0.0,0.0,0.0,0.0,0.0,0.0,0.0,0.0,0.0,0.0,59.0,0.0,0.0,0.0,0.0,0.0,0.0,0.0,321.0,0.0,0.0,136.57860231517122,35.49314200138638,8.68435132375482,380.0,揖斐川町大光寺,揖斐川町大光寺,code_in_car30
21404036000,池田町,池野,池田町,池野,池田町池野,,,,,,,,,,,,,,,,,,,,,,,,,,,,,,,,,,,,,,,,,,,,,,,,,,,,,0.0,0.0,0.0,0.0,1379.0,0.0,1212.0,0.0,0.0,0.0,0.0,824.0,3547.0,0.0,0.0,0.0,0.0,0.0,0.0,0.0,0.0,0.0,0.0,0.0,0.0,77.0,136.57621495946506,35.43749156768068,8.689597548127644,7039.0,池田町池野,池田町池野,code_in_car30
21401045000,揖斐川町,乙原,揖斐川町,乙原,揖斐川町乙原,,,,,,,,,,,,,,,,,,,,,,,,,,,,,,,,,,,,,,,,,,,,,,,,,,,,,0.0,0.0,0.0,108.0,0.0,0.0,0.0,0.0,0.0,0.0,0.0,0.0,0.0,0.0,0.0,0.0,0.0,0.0,0.0,0.0,0.0,0.0,0.0,0.0,0.0,0.0,136.53067148933948,35.53948280078252,8.853820333001774,108.0,揖斐川町乙原,揖斐川町乙原,code_in_car30
21404041000,池田町,上田,池田町,上田,池田町上田,,,,,,,,,,,,,,,,,,,,,,,,,,,,,,,,,,,,,,,,,,,,,,,,,,,,,0.0,95.0,0.0,129.0,876.0,0.0,148.0,0.0,0.0,0.0,0.0,0.0,468.0,0.0,0.0,0.0,0.0,0.0,0.0,0.0,0.0,0.0,0.0,0.0,0.0,0.0,136.58363940844595,35.45182776785869,8.8586569218281,1716.0,池田町上田,池田町上田,code_in_car30
21401049000,揖斐川町,日坂,揖斐川町,日坂,揖斐川町日坂,,,,,,,,,,,,,,,,,,,,,,,,,,,,,,,,,,,,,,,,,,,,,,,,,,,,,0.0,0.0,0.0,0.0,0.0,0.0,0.0,0.0,0.0,0.0,0.0,0.0,0.0,0.0,0.0,0.0,0.0,0.0,0.0,0.0,0.0,0.0,0.0,0.0,0.0,0.0,136.44796765860556,35.542904124040234,9.087719821435321,0.0,揖斐川町日坂,揖斐川町日坂,code_in_car30
21404042000,池田町,下東野,池田町,下東野,池田町下東野,,,,,,,,,,,,,,,,,,,,,,,,,,,,,,,,,,,,,,,,,,,,,,,,,,,,,0.0,0.0,319.0,0.0,916.0,0.0,209.0,0.0,0.0,0.0,0.0,0.0,551.0,0.0,0.0,105.0,48.0,0.0,0.0,0.0,0.0,0.0,43.0,44.0,0.0,52.0,136.58368651254705,35.443320032339116,9.10131087753313,2287.0,池田町下東野,池田町下東野,code_in_car30
21401050000,揖斐川町,西津汲,揖斐川町,西津汲,揖斐川町西津汲,,,,,,,,,,,,,,,,,,,,,,,,,,,,,,,,,,,,,,,,,,,,,,,,,,,,,0.0,0.0,0.0,0.0,0.0,0.0,0.0,0.0,0.0,0.0,0.0,0.0,0.0,0.0,0.0,0.0,0.0,0.0,109.0,0.0,0.0,0.0,0.0,0.0,0.0,0.0,136.4865803974761,35.55069664540808,9.20743011587481,109.0,揖斐川町西津汲,揖斐川町西津汲,code_in_car30
21401014000,揖斐川町,長良,揖斐川町,長良,揖斐川町長良,,,,,,,,,,,,,,,,,,,,,,,,,,,,,,,,,,,,,,,,,,,,,,,,,,,,,0.0,0.0,0.0,0.0,0.0,0.0,0.0,0.0,288.0,44.0,0.0,0.0,0.0,0.0,0.0,0.0,0.0,0.0,0.0,0.0,0.0,0.0,0.0,92.0,0.0,0.0,136.58935747758707,35.47501054635828,9.227058482703622,424.0,揖斐川町長良,揖斐川町長良,code_in_car30
21401010000,揖斐川町,志津山,揖斐川町,志津山,揖斐川町志津山,,,,,,,,,,,,,,,,,,,,,,,,,,,,,,,,,,,,,,,,,,,,,,,,,,,,,0.0,0.0,0.0,0.0,125.0,0.0,0.0,0.0,294.0,0.0,0.0,0.0,0.0,0.0,0.0,0.0,0.0,0.0,0.0,0.0,0.0,0.0,247.0,87.0,0.0,0.0,136.5882475602366,35.48349324714163,9.255996566157622,753.0,揖斐川町志津山,揖斐川町志津山,code_in_car30
21401017000,揖斐川町,島,揖斐川町,島,揖斐川町島,,,,,,,,,,,,,,,,,,,,,,,,,,,,,,,,,,,,,,,,,,,,,,,,,,,,,0.0,0.0,0.0,0.0,83.0,0.0,0.0,0.0,0.0,209.0,0.0,0.0,0.0,0.0,0.0,0.0,0.0,0.0,0.0,0.0,0.0,0.0,0.0,317.0,0.0,0.0,136.59022739580791,35.46729454041339,9.272574465964304,609.0,揖斐川町島,揖斐川町島,code_in_car30
21401036000,揖斐川町,谷汲有鳥,揖斐川町,谷汲有鳥,揖斐川町谷汲有鳥,,,,,,,,,,,,,,,,,,,,,,,,,,,,,,,,,,,,,,,,,,,,,,,,,,,,,0.0,0.0,0.0,0.0,0.0,0.0,0.0,0.0,0.0,0.0,0.0,0.0,0.0,0.0,0.0,0.0,0.0,0.0,0.0,0.0,0.0,0.0,0.0,0.0,0.0,0.0,136.563223677314,35.524560631985906,9.288103393471427,0.0,揖斐川町谷汲有鳥,揖斐川町谷汲有鳥,code_in_car30
21401008000,揖斐川町,小谷,揖斐川町,小谷,揖斐川町小谷,,,,,,,,,,,,,,,,,,,,,,,,,,,,,,,,,,,,,,,,,,,,,,,,,,,,,0.0,0.0,0.0,0.0,0.0,0.0,0.0,0.0,0.0,0.0,0.0,0.0,0.0,0.0,0.0,0.0,0.0,0.0,0.0,0.0,0.0,0.0,0.0,0.0,0.0,0.0,136.58494580271775,35.49548033640397,9.312023636684545,0.0,揖斐川町小谷,揖斐川町小谷,code_in_car30
21404044000,池田町,杉野,池田町,杉野,池田町杉野,,,,,,,,,,,,,,,,,,,,,,,,,,,,,,,,,,,,,,,,,,,,,,,,,,,,,0.0,0.0,0.0,0.0,271.0,0.0,57.0,0.0,0.0,0.0,0.0,0.0,134.0,0.0,0.0,0.0,0.0,0.0,0.0,0.0,0.0,0.0,0.0,0.0,0.0,0.0,136.5901506194724,35.458702677501016,9.322125151846015,462.0,池田町杉野,池田町杉野,code_in_car30
21404046000,池田町,砂畑,池田町,砂畑,池田町砂畑,,,,,,,,,,,,,,,,,,,,,,,,,,,,,,,,,,,,,,,,,,,,,,,,,,,,,0.0,0.0,0.0,0.0,0.0,0.0,0.0,0.0,0.0,0.0,0.0,0.0,0.0,0.0,0.0,0.0,0.0,0.0,0.0,0.0,0.0,0.0,0.0,0.0,0.0,0.0,136.58902653408236,35.452328330969536,9.326540992235028,0.0,池田町砂畑,池田町砂畑,code_in_car30
21404051000,池田町,八幡,池田町,八幡,池田町八幡,,,,,,,,,,,,,,,,,,,,,,,,,,,,,,,,,,,,,,,,,,,,,,,,,,,,,0.0,0.0,0.0,108.0,1682.0,0.0,441.0,0.0,0.0,51.0,41.0,0.0,1875.0,0.0,0.0,0.0,0.0,0.0,0.0,0.0,0.0,0.0,0.0,100.0,107.0,838.0,136.57792739817646,35.42630407913814,9.380053415105705,5243.0,池田町八幡,池田町八幡,code_in_car30
21401009000,揖斐川町,小野,揖斐川町,小野,揖斐川町小野,,,,,,,,,,,,,,,,,,,,,,,,,,,,,,,,,,,,,,,,,,,,,,,,,,,,,0.0,0.0,0.0,0.0,0.0,0.0,0.0,0.0,0.0,0.0,0.0,0.0,0.0,0.0,0.0,0.0,0.0,0.0,0.0,0.0,0.0,0.0,0.0,0.0,0.0,0.0,136.589631225431,35.49022942771242,9.545636807459127,0.0,揖斐川町小野,揖斐川町小野,code_in_car30
21202194000,大垣市,青墓町,大垣市,青墓町,大垣市青墓町,岐阜県,大垣市,青墓町,,大垣市青墓町,21202.0,194000.0,4.0,0.0,0.0,0.0,0.0,0.0,0.0,0.0,0.0,0.0,0.0,0.0,0.0,0.0,0.0,0.0,0.0,0.0,0.0,0.0,0.0,0.0,0.0,0.0,0.0,0.0,0.0,0.0,0.0,0.0,0.0,0.0,0.0,0.0,0.0,0.0,0.0,0.0,0.0,0.0,0.0,0.0,0.0,0.0,0.0,0.0,0.0,0.0,0.0,0.0,0.0,0.0,0.0,0.0,0.0,0.0,0.0,0.0,0.0,0.0,0.0,0.0,0.0,0.0,0.0,0.0,0.0,0.0,0.0,0.0,0.0,136.55799143687423,35.403226363044205,9.597210175004744,0.0,大垣市青墓町,大垣市青墓町,code_in_car30
21361015000,垂井町,平尾,垂井町,平尾,垂井町平尾,,,,,,,,,,,,,,,,,,,,,,,,,,,,,,,,,,,,,,,,,,,,,,,,,,,,,0.0,0.0,0.0,0.0,0.0,0.0,0.0,0.0,0.0,0.0,0.0,0.0,40.0,0.0,0.0,0.0,0.0,0.0,0.0,0.0,0.0,0.0,0.0,0.0,0.0,0.0,136.54174618861177,35.391423691414374,9.806433281454941,40.0,垂井町平尾,垂井町平尾,code_in_car30
21404043000,池田町,白鳥,池田町,白鳥,池田町白鳥,,,,,,,,,,,,,,,,,,,,,,,,,,,,,,,,,,,,,,,,,,,,,,,,,,,,,0.0,0.0,0.0,208.0,804.0,0.0,170.0,0.0,0.0,0.0,0.0,0.0,71.0,0.0,0.0,0.0,0.0,0.0,0.0,0.0,0.0,0.0,0.0,0.0,0.0,0.0,136.59389540293037,35.44898671093533,9.833105130595712,1253.0,池田町白鳥,池田町白鳥,code_in_car30
21381022003,神戸町,大字北一色,神戸町,大字北一色,神戸町大字北一色,岐阜県,神戸町,大字北一色,,神戸町大字北一色,21381.0,22003.0,4.0,37.0,1.0,1.0,2.0,6.0,2.0,0.0,0.0,3.0,5.0,2.0,0.0,2.0,2.0,3.0,1.0,4.0,1.0,2.0,0.0,0.0,0.0,0.0,0.0,0.0,0.0,0.0,0.0,0.0,0.0,0.0,0.0,0.0,0.0,0.0,0.0,0.0,0.0,0.0,0.0,0.0,0.0,0.0,0.0,0.0,0.0,0.0,0.0,0.0,0.0,0.0,0.0,0.0,0.0,0.0,0.0,0.0,0.0,0.0,0.0,0.0,0.0,0.0,0.0,0.0,0.0,0.0,0.0,0.0,0.0,136.5895942217712,35.43669403773294,9.8482428786729,0.0,神戸町大字北一色,神戸町北一色,code_in_car30
21401016000,揖斐川町,福島,揖斐川町,福島,揖斐川町福島,,,,,,,,,,,,,,,,,,,,,,,,,,,,,,,,,,,,,,,,,,,,,,,,,,,,,0.0,0.0,0.0,227.0,0.0,0.0,0.0,0.0,0.0,0.0,0.0,0.0,0.0,0.0,0.0,0.0,0.0,0.0,0.0,0.0,0.0,0.0,0.0,0.0,0.0,0.0,136.5971296602027,35.463323080909,9.910727675298778,227.0,揖斐川町福島,揖斐川町福島,code_in_car30
21381022004,神戸町,大字北一色第一中島,神戸町,大字北一色第一中島,神戸町大字北一色第一中島,岐阜県,神戸町,大字北一色,第一中島,神戸町大字北一色第一中島,21381.0,22004.0,4.0,174.0,0.0,4.0,9.0,7.0,8.0,5.0,2.0,6.0,11.0,20.0,4.0,3.0,12.0,25.0,19.0,22.0,13.0,3.0,1.0,0.0,0.0,0.0,0.0,0.0,0.0,0.0,0.0,0.0,0.0,0.0,1.0,0.0,0.0,1.0,2.0,2.0,2.0,2.0,0.0,0.0,0.0,0.0,10.0,0.0,0.0,0.0,0.0,0.0,0.0,0.0,0.0,0.0,0.0,0.0,0.0,44.0,0.0,0.0,0.0,0.0,0.0,0.0,0.0,0.0,0.0,0.0,0.0,0.0,41.0,136.5895436756455,35.434937699753924,9.914574321350305,85.0,神戸町大字北一色第一中島,神戸町北一色第一中島,code_in_car30
21381019001,神戸町,大字横井中島,神戸町,大字横井中島,神戸町大字横井中島,岐阜県,神戸町,大字横井,中島,神戸町大字横井中島,21381.0,19001.0,4.0,152.0,1.0,0.0,4.0,8.0,7.0,1.0,2.0,4.0,7.0,13.0,13.0,12.0,2.0,7.0,31.0,23.0,11.0,5.0,1.0,0.0,0.0,0.0,0.0,0.0,0.0,0.0,0.0,0.0,0.0,0.0,1.0,1.0,1.0,0.0,1.0,3.0,3.0,1.0,1.0,0.0,0.0,0.0,12.0,0.0,0.0,0.0,0.0,0.0,0.0,0.0,0.0,0.0,0.0,0.0,0.0,0.0,0.0,0.0,0.0,0.0,0.0,0.0,0.0,0.0,0.0,0.0,0.0,0.0,104.0,136.5910604672464,35.43815446379089,9.917235151625649,104.0,神戸町大字横井中島,神戸町横井中島,code_in_car30
21401046000,揖斐川町,東津汲,揖斐川町,東津汲,揖斐川町東津汲,,,,,,,,,,,,,,,,,,,,,,,,,,,,,,,,,,,,,,,,,,,,,,,,,,,,,0.0,0.0,0.0,0.0,0.0,0.0,0.0,0.0,0.0,0.0,0.0,0.0,0.0,0.0,0.0,0.0,0.0,0.0,0.0,0.0,0.0,0.0,0.0,0.0,0.0,0.0,136.5157453232344,35.55606268104024,10.123522315873945,0.0,揖斐川町東津汲,揖斐川町東津汲,code_in_car30
21401015000,揖斐川町,清水,揖斐川町,清水,揖斐川町清水,,,,,,,,,,,,,,,,,,,,,,,,,,,,,,,,,,,,,,,,,,,,,,,,,,,,,0.0,0.0,0.0,475.0,175.0,0.0,0.0,0.0,91.0,0.0,0.0,0.0,0.0,0.0,0.0,66.0,0.0,0.0,0.0,70.0,0.0,0.0,195.0,1418.0,0.0,0.0,136.5999989489561,35.46926405866448,10.158273966079461,2490.0,揖斐川町清水,揖斐川町清水,code_in_car30
21202194005,大垣市,青墓町五丁目,大垣市,青墓町五丁目,大垣市青墓町五丁目,岐阜県,大垣市,青墓町,五丁目,大垣市青墓町五丁目,21202.0,194005.0,4.0,90.0,2.0,1.0,3.0,4.0,2.0,3.0,1.0,4.0,3.0,7.0,4.0,9.0,12.0,10.0,3.0,6.0,5.0,6.0,5.0,0.0,0.0,0.0,0.0,0.0,0.0,0.0,0.0,0.0,0.0,0.0,0.0,0.0,1.0,1.0,1.0,0.0,1.0,1.0,1.0,1.0,0.0,0.0,7.0,0.0,0.0,0.0,0.0,0.0,0.0,0.0,0.0,0.0,0.0,0.0,0.0,0.0,0.0,0.0,0.0,0.0,0.0,0.0,0.0,0.0,0.0,0.0,0.0,0.0,0.0,136.55796699173467,35.39645685963132,10.172242241907359,0.0,大垣市青墓町五丁目,大垣市青墓町五丁目,code_in_car30
21381022002,神戸町,大字北一色,神戸町,大字北一色,神戸町大字北一色,岐阜県,神戸町,大字北一色,,神戸町大字北一色,21381.0,22002.0,4.0,921.0,14.0,25.0,31.0,43.0,35.0,20.0,29.0,34.0,54.0,67.0,58.0,42.0,50.0,71.0,78.0,61.0,51.0,40.0,36.0,10.0,4.0,1.0,1.0,1.0,1.0,1.0,1.0,1.0,1.0,2.0,3.0,3.0,2.0,3.0,6.0,7.0,7.0,6.0,5.0,4.0,1.0,0.0,57.0,0.0,0.0,0.0,0.0,318.0,347.0,0.0,0.0,0.0,0.0,0.0,0.0,157.0,0.0,0.0,115.0,0.0,0.0,0.0,0.0,0.0,0.0,0.0,0.0,49.0,493.0,136.59109168923104,35.43058179146236,10.231895433604729,1479.0,神戸町大字北一色,神戸町北一色,code_in_car30
21381022005,神戸町,大字北一色北島,神戸町,大字北一色北島,神戸町大字北一色北島,岐阜県,神戸町,大字北一色,北島,神戸町大字北一色北島,21381.0,22005.0,4.0,71.0,20.0,3.0,0.0,1.0,4.0,14.0,16.0,8.0,0.0,3.0,0.0,1.0,1.0,0.0,0.0,0.0,0.0,0.0,0.0,0.0,0.0,1.0,0.0,0.0,0.0,0.0,0.0,1.0,0.0,0.0,0.0,0.0,0.0,0.0,0.0,0.0,0.0,0.0,0.0,0.0,0.0,0.0,2.0,0.0,0.0,0.0,0.0,0.0,0.0,0.0,0.0,0.0,0.0,0.0,0.0,0.0,0.0,0.0,0.0,0.0,0.0,0.0,0.0,0.0,0.0,0.0,0.0,0.0,0.0,136.59251998667168,35.43310332382014,10.240969353657693,0.0,神戸町大字北一色北島,神戸町北一色北島,code_in_car30
21381022001,神戸町,大字北一色峰之井,神戸町,大字北一色峰之井,神戸町大字北一色峰之井,岐阜県,神戸町,大字北一色,峰之井,神戸町大字北一色峰之井,21381.0,22001.0,4.0,522.0,8.0,9.0,19.0,29.0,19.0,8.0,11.0,16.0,33.0,40.0,28.0,30.0,36.0,58.0,96.0,47.0,29.0,3.0,3.0,0.0,0.0,0.0,0.0,1.0,1.0,0.0,0.0,0.0,1.0,1.0,2.0,1.0,2.0,2.0,5.0,9.0,5.0,3.0,0.0,0.0,0.0,0.0,33.0,0.0,0.0,0.0,0.0,36.0,0.0,140.0,0.0,0.0,0.0,0.0,0.0,0.0,0.0,0.0,0.0,0.0,0.0,0.0,0.0,0.0,0.0,0.0,0.0,0.0,175.0,136.5944686836067,35.43535850261392,10.313867169225453,351.0,神戸町大字北一色峰之井,神戸町北一色峰之井,code_in_car30
21404053000,池田町,市橋,池田町,市橋,池田町市橋,,,,,,,,,,,,,,,,,,,,,,,,,,,,,,,,,,,,,,,,,,,,,,,,,,,,,0.0,0.0,66.0,0.0,205.0,192.0,55.0,0.0,0.0,0.0,0.0,0.0,398.0,0.0,0.0,0.0,0.0,0.0,0.0,0.0,0.0,0.0,0.0,0.0,0.0,0.0,136.57825560629087,35.41144237067672,10.319946114999174,916.0,池田町市橋,池田町市橋,code_in_car30
21381019002,神戸町,大字横井,神戸町,大字横井,神戸町大字横井,岐阜県,神戸町,大字横井,,神戸町大字横井,21381.0,19002.0,4.0,634.0,17.0,23.0,26.0,39.0,21.0,20.0,37.0,37.0,37.0,38.0,47.0,46.0,47.0,55.0,57.0,38.0,29.0,15.0,5.0,0.0,0.0,1.0,1.0,1.0,1.0,0.0,1.0,1.0,1.0,1.0,1.0,2.0,3.0,3.0,4.0,5.0,4.0,3.0,2.0,1.0,0.0,0.0,36.0,0.0,0.0,0.0,0.0,592.0,255.0,133.0,0.0,0.0,0.0,0.0,0.0,102.0,0.0,0.0,0.0,0.0,0.0,0.0,0.0,0.0,0.0,0.0,0.0,64.0,209.0,136.59989367336138,35.44124509126316,10.57324875538847,1355.0,神戸町大字横井,神戸町横井,code_in_car30
21403016000,大野町,大字松山,大野町,大字松山,大野町大字松山,,,,,,,,,,,,,,,,,,,,,,,,,,,,,,,,,,,,,,,,,,,,,,,,,,,,,0.0,0.0,0.0,0.0,0.0,0.0,0.0,133.0,0.0,0.0,0.0,0.0,0.0,0.0,42.0,0.0,40.0,0.0,0.0,0.0,0.0,0.0,0.0,0.0,0.0,0.0,136.60405543335432,35.47710822972656,10.573691606658484,215.0,大野町大字松山,大野町松山,code_in_car30
21202194004,大垣市,青墓町四丁目,大垣市,青墓町四丁目,大垣市青墓町四丁目,岐阜県,大垣市,青墓町,四丁目,大垣市青墓町四丁目,21202.0,194004.0,4.0,0.0,0.0,0.0,0.0,0.0,0.0,0.0,0.0,0.0,0.0,0.0,0.0,0.0,0.0,0.0,0.0,0.0,0.0,0.0,0.0,0.0,0.0,0.0,0.0,0.0,0.0,0.0,0.0,0.0,0.0,0.0,0.0,0.0,0.0,0.0,0.0,0.0,0.0,0.0,0.0,0.0,0.0,0.0,0.0,0.0,0.0,0.0,0.0,0.0,0.0,0.0,0.0,0.0,0.0,0.0,0.0,0.0,0.0,0.0,0.0,0.0,0.0,0.0,0.0,0.0,0.0,0.0,0.0,0.0,0.0,136.55954880800658,35.39182285534841,10.666341694899979,0.0,大垣市青墓町四丁目,大垣市青墓町四丁目,code_in_car30
21403015000,大野町,大字牛洞,大野町,大字牛洞,大野町大字牛洞,,,,,,,,,,,,,,,,,,,,,,,,,,,,,,,,,,,,,,,,,,,,,,,,,,,,,38.0,0.0,0.0,47.0,0.0,0.0,0.0,0.0,0.0,0.0,0.0,0.0,99.0,0.0,0.0,0.0,0.0,0.0,0.0,0.0,0.0,0.0,0.0,140.0,0.0,0.0,136.60385200332328,35.48490263571469,10.673851709867948,324.0,大野町大字牛洞,大野町牛洞,code_in_car30
21381012005,神戸町,大字末守,神戸町,大字末守,神戸町大字末守,岐阜県,神戸町,大字末守,,神戸町大字末守,21381.0,12005.0,4.0,822.0,30.0,39.0,34.0,75.0,26.0,24.0,24.0,46.0,52.0,64.0,34.0,42.0,42.0,50.0,75.0,77.0,59.0,23.0,3.0,3.0,0.0,1.0,2.0,1.0,2.0,1.0,1.0,1.0,2.0,2.0,3.0,1.0,2.0,3.0,4.0,7.0,9.0,7.0,3.0,0.0,0.0,0.0,52.0,0.0,0.0,0.0,0.0,220.0,353.0,34.0,0.0,0.0,0.0,0.0,0.0,0.0,0.0,0.0,0.0,0.0,0.0,0.0,210.0,0.0,0.0,0.0,0.0,32.0,346.0,136.59279578451714,35.42281974846279,10.747994230405327,1195.0,神戸町大字末守,神戸町末守,code_in_car30
21403019000,大野町,大字公郷,大野町,大字公郷,大野町大字公郷,,,,,,,,,,,,,,,,,,,,,,,,,,,,,,,,,,,,,,,,,,,,,,,,,,,,,0.0,57.0,595.0,128.0,404.0,0.0,0.0,0.0,0.0,0.0,0.0,0.0,139.0,0.0,0.0,0.0,0.0,0.0,0.0,59.0,0.0,0.0,0.0,64.0,0.0,0.0,136.6055677143576,35.453882376590556,10.775777323537346,1446.0,大野町大字公郷,大野町公郷,code_in_car30
21381021000,神戸町,大字田,神戸町,大字田,神戸町大字田,,,,,,,,,,,,,,,,,,,,,,,,,,,,,,,,,,,,,,,,,,,,,,,,,,,,,0.0,0.0,0.0,0.0,190.0,66.0,0.0,0.0,0.0,0.0,0.0,0.0,0.0,0.0,0.0,0.0,0.0,0.0,0.0,0.0,0.0,0.0,0.0,0.0,27.0,51.0,136.59964359499207,35.43401064954198,10.805504526447002,334.0,神戸町大字田,神戸町田,code_in_car30
21401037000,揖斐川町,谷汲木曽屋,揖斐川町,谷汲木曽屋,揖斐川町谷汲木曽屋,,,,,,,,,,,,,,,,,,,,,,,,,,,,,,,,,,,,,,,,,,,,,,,,,,,,,0.0,0.0,0.0,0.0,0.0,0.0,0.0,0.0,0.0,0.0,0.0,0.0,0.0,0.0,0.0,0.0,0.0,0.0,0.0,0.0,0.0,0.0,0.0,0.0,0.0,0.0,136.56712382637724,35.54063749008913,10.81316655569979,0.0,揖斐川町谷汲木曽屋,揖斐川町谷汲木曽屋,code_in_car30
21202194003,大垣市,青墓町三丁目,大垣市,青墓町三丁目,大垣市青墓町三丁目,岐阜県,大垣市,青墓町,三丁目,大垣市青墓町三丁目,21202.0,194003.0,4.0,316.0,6.0,3.0,8.0,14.0,15.0,3.0,14.0,15.0,13.0,16.0,18.0,25.0,27.0,38.0,31.0,40.0,17.0,9.0,4.0,0.0,0.0,0.0,0.0,0.0,0.0,0.0,0.0,0.0,1.0,0.0,1.0,1.0,1.0,2.0,3.0,3.0,4.0,2.0,1.0,0.0,0.0,0.0,19.0,0.0,0.0,0.0,0.0,0.0,0.0,0.0,0.0,0.0,0.0,0.0,0.0,0.0,0.0,0.0,0.0,0.0,0.0,0.0,0.0,0.0,0.0,0.0,0.0,0.0,0.0,136.5633047281478,35.39228541191485,10.837009994171877,0.0,大垣市青墓町三丁目,大垣市青墓町三丁目,code_in_car30
21381013003,神戸町,大字西保新西保,神戸町,大字西保新西保,神戸町大字西保新西保,岐阜県,神戸町,大字西保,新西保,神戸町大字西保新西保,21381.0,13003.0,4.0,176.0,3.0,6.0,8.0,6.0,6.0,2.0,6.0,0.0,14.0,19.0,9.0,6.0,12.0,8.0,20.0,30.0,9.0,11.0,1.0,0.0,0.0,0.0,0.0,0.0,0.0,0.0,0.0,0.0,0.0,0.0,1.0,0.0,0.0,1.0,1.0,2.0,3.0,1.0,1.0,0.0,0.0,0.0,10.0,0.0,0.0,0.0,0.0,0.0,62.0,0.0,0.0,0.0,0.0,0.0,0.0,0.0,0.0,0.0,40.0,0.0,0.0,0.0,0.0,0.0,0.0,0.0,0.0,0.0,28.0,136.58607533884089,35.411445366751494,10.890556722785144,130.0,神戸町大字西保新西保,神戸町西保新西保,code_in_car30
21401029000,揖斐川町,谷汲深坂,揖斐川町,谷汲深坂,揖斐川町谷汲深坂,,,,,,,,,,,,,,,,,,,,,,,,,,,,,,,,,,,,,,,,,,,,,,,,,,,,,0.0,0.0,0.0,67.0,0.0,198.0,0.0,0.0,0.0,0.0,0.0,0.0,0.0,0.0,0.0,75.0,0.0,0.0,0.0,75.0,0.0,0.0,203.0,124.0,0.0,0.0,136.60166668267897,35.502692212192805,11.008284841600831,742.0,揖斐川町谷汲深坂,揖斐川町谷汲深坂,code_in_car30
21202194002,大垣市,青墓町二丁目,大垣市,青墓町二丁目,大垣市青墓町二丁目,岐阜県,大垣市,青墓町,二丁目,大垣市青墓町二丁目,21202.0,194002.0,4.0,119.0,3.0,2.0,5.0,11.0,5.0,5.0,4.0,4.0,6.0,11.0,9.0,4.0,7.0,15.0,11.0,7.0,6.0,4.0,0.0,0.0,0.0,0.0,0.0,0.0,0.0,0.0,0.0,0.0,0.0,0.0,0.0,0.0,0.0,0.0,1.0,1.0,1.0,1.0,0.0,0.0,0.0,0.0,4.0,0.0,0.0,0.0,0.0,0.0,0.0,0.0,0.0,0.0,0.0,0.0,0.0,0.0,0.0,0.0,0.0,0.0,0.0,0.0,0.0,0.0,0.0,0.0,0.0,0.0,0.0,136.55970475704527,35.38659502378507,11.141373759391492,0.0,大垣市青墓町二丁目,大垣市青墓町二丁目,code_in_car30
21202189000,大垣市,南市橋町,大垣市,南市橋町,大垣市南市橋町,,,,,,,,,,,,,,,,,,,,,,,,,,,,,,,,,,,,,,,,,,,,,,,,,,,,,0.0,0.0,0.0,0.0,0.0,0.0,0.0,0.0,0.0,0.0,0.0,0.0,0.0,0.0,0.0,0.0,0.0,0.0,0.0,74.0,0.0,0.0,0.0,0.0,0.0,0.0,136.58235134069702,35.40320740599962,11.183031167414375,74.0,大垣市南市橋町,大垣市南市橋町,code_in_car30
21401031000,揖斐川町,谷汲名礼,揖斐川町,谷汲名礼,揖斐川町谷汲名礼,,,,,,,,,,,,,,,,,,,,,,,,,,,,,,,,,,,,,,,,,,,,,,,,,,,,,0.0,59.0,0.0,51.0,51.0,0.0,0.0,0.0,0.0,0.0,0.0,0.0,0.0,0.0,0.0,0.0,0.0,0.0,0.0,0.0,0.0,0.0,1051.0,0.0,0.0,0.0,136.58930779856232,35.52532997132846,11.187476136748446,1212.0,揖斐川町谷汲名礼,揖斐川町谷汲名礼,code_in_car30
21381012004,神戸町,大字末守清水町,神戸町,大字末守清水町,神戸町大字末守清水町,岐阜県,神戸町,大字末守,清水町,神戸町大字末守清水町,21381.0,12004.0,4.0,162.0,0.0,1.0,4.0,11.0,7.0,6.0,2.0,2.0,9.0,16.0,14.0,15.0,8.0,3.0,15.0,25.0,15.0,5.0,3.0,1.0,0.0,0.0,0.0,0.0,0.0,0.0,0.0,0.0,0.0,0.0,1.0,1.0,1.0,1.0,0.0,1.0,3.0,2.0,1.0,0.0,0.0,0.0,11.0,0.0,0.0,0.0,0.0,0.0,0.0,0.0,0.0,0.0,0.0,0.0,0.0,0.0,0.0,0.0,0.0,0.0,0.0,0.0,0.0,0.0,0.0,0.0,0.0,0.0,0.0,136.60021943332535,35.42551799297495,11.217742000538419,0.0,神戸町大字末守清水町,神戸町末守清水町,code_in_car30
21403017000,大野町,大字瀬古,大野町,大字瀬古,大野町大字瀬古,,,,,,,,,,,,,,,,,,,,,,,,,,,,,,,,,,,,,,,,,,,,,,,,,,,,,0.0,206.0,221.0,0.0,158.0,0.0,0.0,0.0,0.0,0.0,0.0,0.0,0.0,0.0,536.0,0.0,119.0,0.0,0.0,0.0,0.0,0.0,0.0,145.0,0.0,0.0,136.61225994464627,35.47128904124803,11.27367073558678,1385.0,大野町大字瀬古,大野町瀬古,code_in_car30
21381010000,神戸町,大字更屋敷,神戸町,大字更屋敷,神戸町大字更屋敷,,,,,,,,,,,,,,,,,,,,,,,,,,,,,,,,,,,,,,,,,,,,,,,,,,,,,0.0,0.0,0.0,0.0,0.0,657.0,0.0,0.0,0.0,0.0,0.0,0.0,0.0,0.0,0.0,0.0,0.0,0.0,0.0,0.0,0.0,0.0,0.0,65.0,84.0,0.0,136.59619007004275,35.41707307526448,11.326161355244357,806.0,神戸町大字更屋敷,神戸町更屋敷,code_in_car30
21381012002,神戸町,大字末守幸町,神戸町,大字末守幸町,神戸町大字末守幸町,岐阜県,神戸町,大字末守,幸町,神戸町大字末守幸町,21381.0,12002.0,4.0,221.0,3.0,8.0,9.0,6.0,12.0,5.0,6.0,7.0,13.0,18.0,28.0,7.0,12.0,20.0,24.0,18.0,17.0,5.0,1.0,2.0,0.0,0.0,0.0,0.0,0.0,0.0,0.0,0.0,0.0,0.0,1.0,1.0,0.0,1.0,2.0,2.0,2.0,2.0,1.0,0.0,0.0,0.0,12.0,0.0,0.0,0.0,0.0,0.0,217.0,0.0,0.0,0.0,0.0,0.0,0.0,0.0,0.0,0.0,0.0,0.0,0.0,0.0,0.0,0.0,0.0,0.0,0.0,0.0,355.0,136.59745994916125,35.418260208625874,11.361222965775747,572.0,神戸町大字末守幸町,神戸町末守幸町,code_in_car30
21202194001,大垣市,青墓町一丁目,大垣市,青墓町一丁目,大垣市青墓町一丁目,岐阜県,大垣市,青墓町,一丁目,大垣市青墓町一丁目,21202.0,194001.0,4.0,354.0,2.0,12.0,16.0,19.0,17.0,9.0,7.0,17.0,18.0,27.0,20.0,30.0,33.0,29.0,43.0,21.0,11.0,18.0,5.0,0.0,0.0,0.0,1.0,1.0,0.0,0.0,0.0,0.0,1.0,1.0,1.0,1.0,2.0,2.0,2.0,4.0,2.0,1.0,2.0,1.0,0.0,0.0,22.0,0.0,0.0,0.0,0.0,0.0,0.0,0.0,0.0,0.0,0.0,0.0,0.0,0.0,0.0,0.0,0.0,0.0,0.0,0.0,0.0,0.0,0.0,0.0,0.0,0.0,0.0,136.5634556902643,35.38632345095431,11.3674428265655,0.0,大垣市青墓町一丁目,大垣市青墓町一丁目,code_in_car30
21403018000,大野町,大字中之元,大野町,大字中之元,大野町大字中之元,,,,,,,,,,,,,,,,,,,,,,,,,,,,,,,,,,,,,,,,,,,,,,,,,,,,,37.0,118.0,160.0,43.0,77.0,0.0,0.0,0.0,420.0,49.0,0.0,0.0,0.0,39.0,0.0,0.0,492.0,0.0,0.0,0.0,0.0,0.0,46.0,113.0,0.0,197.0,136.6133972976737,35.46547147478125,11.373978290889886,1791.0,大野町大字中之元,大野町中之元,code_in_car30
21381020000,神戸町,大字安次,神戸町,大字安次,神戸町大字安次,,,,,,,,,,,,,,,,,,,,,,,,,,,,,,,,,,,,,,,,,,,,,,,,,,,,,0.0,37.0,41.0,0.0,35.0,111.0,0.0,0.0,56.0,0.0,0.0,0.0,55.0,0.0,0.0,0.0,0.0,0.0,0.0,0.0,0.0,0.0,0.0,205.0,120.0,0.0,136.60542958182282,35.431400283905816,11.398436018314928,660.0,神戸町大字安次,神戸町安次,code_in_car30
21381013001,神戸町,大字西保,神戸町,大字西保,神戸町大字西保,岐阜県,神戸町,大字西保,,神戸町大字西保,21381.0,13001.0,4.0,528.0,14.0,17.0,24.0,27.0,67.0,30.0,13.0,30.0,28.0,45.0,26.0,24.0,22.0,34.0,46.0,45.0,17.0,9.0,8.0,1.0,1.0,1.0,1.0,1.0,1.0,2.0,1.0,0.0,1.0,1.0,2.0,1.0,1.0,1.0,3.0,4.0,5.0,2.0,1.0,1.0,0.0,0.0,30.0,0.0,0.0,0.0,0.0,0.0,442.0,0.0,0.0,0.0,0.0,0.0,0.0,261.0,0.0,0.0,0.0,0.0,0.0,0.0,0.0,79.0,0.0,0.0,0.0,0.0,0.0,136.59454402886263,35.41261905915422,11.455365764117339,782.0,神戸町大字西保,神戸町西保,code_in_car30
21381001010,神戸町,大字神戸高塚,神戸町,大字神戸高塚,神戸町大字神戸高塚,岐阜県,神戸町,大字神戸,高塚,神戸町大字神戸高塚,21381.0,1010.0,4.0,88.0,18.0,5.0,4.0,3.0,1.0,6.0,23.0,7.0,4.0,6.0,3.0,1.0,0.0,3.0,3.0,1.0,0.0,0.0,0.0,0.0,0.0,1.0,0.0,0.0,0.0,0.0,0.0,1.0,0.0,0.0,0.0,0.0,0.0,0.0,0.0,0.0,0.0,0.0,0.0,0.0,0.0,0.0,2.0,0.0,0.0,0.0,0.0,0.0,0.0,0.0,0.0,0.0,0.0,0.0,0.0,0.0,0.0,0.0,0.0,0.0,0.0,0.0,0.0,0.0,0.0,0.0,0.0,0.0,0.0,136.60297731509505,35.42525900570305,11.456837001984415,0.0,神戸町大字神戸高塚,神戸町神戸高塚,code_in_car30
21381012003,神戸町,大字末守,神戸町,大字末守,神戸町大字末守,岐阜県,神戸町,大字末守,,神戸町大字末守,21381.0,12003.0,4.0,23.0,0.0,0.0,2.0,0.0,2.0,2.0,1.0,0.0,2.0,1.0,2.0,1.0,5.0,2.0,1.0,1.0,1.0,0.0,0.0,0.0,0.0,0.0,0.0,0.0,0.0,0.0,0.0,0.0,0.0,0.0,0.0,0.0,0.0,0.0,0.0,0.0,0.0,0.0,0.0,0.0,0.0,0.0,0.0,0.0,0.0,0.0,0.0,0.0,0.0,0.0,0.0,0.0,0.0,0.0,0.0,0.0,0.0,0.0,0.0,0.0,0.0,0.0,0.0,0.0,0.0,0.0,0.0,0.0,0.0,136.60013746855677,35.419679948998166,11.499300910842372,0.0,神戸町大字末守,神戸町末守,code_in_car30
21202193000,大垣市,昼飯町,大垣市,昼飯町,大垣市昼飯町,,,,,,,,,,,,,,,,,,,,,,,,,,,,,,,,,,,,,,,,,,,,,,,,,,,,,0.0,0.0,60.0,0.0,51.0,0.0,133.0,0.0,0.0,0.0,0.0,56.0,648.0,0.0,0.0,0.0,0.0,0.0,0.0,0.0,0.0,0.0,0.0,0.0,0.0,0.0,136.56989424991227,35.38876206764833,11.519786553311397,948.0,大垣市昼飯町,大垣市昼飯町,code_in_car30
21202180000,大垣市,赤坂町,大垣市,赤坂町,大垣市赤坂町,,,,,,,,,,,,,,,,,,,,,,,,,,,,,,,,,,,,,,,,,,,,,,,,,,,,,0.0,0.0,0.0,0.0,59.0,41.0,0.0,0.0,0.0,0.0,0.0,0.0,0.0,0.0,0.0,0.0,0.0,0.0,0.0,0.0,0.0,0.0,0.0,0.0,126.0,0.0,136.57821754944723,35.39445165606798,11.564987750223509,226.0,大垣市赤坂町,大垣市赤坂町,code_in_car30
21381001001,神戸町,大字神戸三津屋,神戸町,大字神戸三津屋,神戸町大字神戸三津屋,岐阜県,神戸町,大字神戸,三津屋,神戸町大字神戸三津屋,21381.0,1001.0,4.0,208.0,4.0,8.0,5.0,5.0,7.0,10.0,7.0,7.0,7.0,12.0,10.0,15.0,20.0,18.0,26.0,16.0,19.0,10.0,1.0,1.0,0.0,0.0,0.0,0.0,0.0,0.0,0.0,0.0,0.0,0.0,0.0,0.0,1.0,1.0,1.0,2.0,2.0,2.0,1.0,0.0,0.0,0.0,10.0,0.0,0.0,0.0,0.0,72.0,55.0,0.0,0.0,0.0,0.0,0.0,0.0,0.0,0.0,0.0,0.0,0.0,0.0,0.0,0.0,0.0,0.0,0.0,0.0,0.0,73.0,136.60255537993393,35.420942044721166,11.629764425444549,200.0,神戸町大字神戸三津屋,神戸町神戸三津屋,code_in_car30
21401038000,揖斐川町,谷汲神原,揖斐川町,谷汲神原,揖斐川町谷汲神原,,,,,,,,,,,,,,,,,,,,,,,,,,,,,,,,,,,,,,,,,,,,,,,,,,,,,0.0,0.0,0.0,567.0,0.0,0.0,0.0,0.0,0.0,0.0,0.0,0.0,0.0,0.0,0.0,0.0,0.0,0.0,0.0,0.0,0.0,0.0,0.0,0.0,0.0,0.0,136.5546441038846,35.55733785238529,11.638999809699781,567.0,揖斐川町谷汲神原,揖斐川町谷汲神原,code_in_car30
21381014000,神戸町,大字南方,神戸町,大字南方,神戸町大字南方,,,,,,,,,,,,,,,,,,,,,,,,,,,,,,,,,,,,,,,,,,,,,,,,,,,,,0.0,0.0,0.0,0.0,41.0,1410.0,0.0,0.0,0.0,0.0,0.0,0.0,72.0,0.0,0.0,0.0,0.0,0.0,0.0,0.0,0.0,0.0,0.0,0.0,110.0,213.0,136.59198359812376,35.40637276924028,11.65430042735738,1846.0,神戸町大字南方,神戸町南方,code_in_car30
21403020000,大野町,大字領家,大野町,大字領家,大野町大字領家,,,,,,,,,,,,,,,,,,,,,,,,,,,,,,,,,,,,,,,,,,,,,,,,,,,,,0.0,47.0,0.0,0.0,0.0,0.0,0.0,0.0,0.0,0.0,0.0,0.0,0.0,0.0,22.0,0.0,0.0,0.0,0.0,0.0,0.0,0.0,0.0,0.0,0.0,0.0,136.61573356790953,35.45576206393486,11.661406473656303,69.0,大野町大字領家,大野町領家,code_in_car30
21381001002,神戸町,大字神戸宮町,神戸町,大字神戸宮町,神戸町大字神戸宮町,岐阜県,神戸町,大字神戸,宮町,神戸町大字神戸宮町,21381.0,1002.0,4.0,389.0,19.0,21.0,16.0,23.0,20.0,21.0,26.0,19.0,22.0,23.0,29.0,20.0,25.0,31.0,25.0,19.0,12.0,10.0,6.0,1.0,0.0,1.0,1.0,1.0,1.0,0.0,1.0,1.0,1.0,1.0,1.0,1.0,1.0,2.0,3.0,2.0,2.0,1.0,1.0,1.0,0.0,0.0,23.0,0.0,0.0,405.0,0.0,0.0,66.0,0.0,0.0,0.0,0.0,64.0,0.0,0.0,0.0,0.0,0.0,0.0,0.0,0.0,0.0,0.0,0.0,0.0,0.0,0.0,0.0,136.60433368838164,35.42264813865008,11.69093772572811,535.0,神戸町大字神戸宮町,神戸町神戸宮町,code_in_car30
21381023001,神戸町,大字丈六道,神戸町,大字丈六道,神戸町大字丈六道,岐阜県,神戸町,大字丈六道,,神戸町大字丈六道,21381.0,23001.0,4.0,827.0,22.0,53.0,62.0,65.0,53.0,39.0,43.0,40.0,69.0,88.0,62.0,31.0,37.0,39.0,54.0,19.0,25.0,11.0,8.0,1.0,1.0,1.0,3.0,2.0,2.0,1.0,1.0,1.0,1.0,2.0,3.0,3.0,2.0,2.0,3.0,5.0,2.0,3.0,1.0,1.0,0.0,0.0,39.0,0.0,0.0,0.0,0.0,0.0,49.0,0.0,0.0,0.0,0.0,122.0,0.0,0.0,49.0,0.0,0.0,0.0,0.0,0.0,0.0,0.0,0.0,0.0,0.0,0.0,0.0,136.60770205051404,35.427169077506875,11.764280173994715,220.0,神戸町大字丈六道,神戸町丈六道,code_in_car30
21381001017,神戸町,大字神戸昭和町,神戸町,大字神戸昭和町,神戸町大字神戸昭和町,岐阜県,神戸町,大字神戸,昭和町,神戸町大字神戸昭和町,21381.0,1017.0,4.0,207.0,6.0,6.0,9.0,5.0,8.0,9.0,13.0,6.0,15.0,17.0,21.0,8.0,11.0,15.0,18.0,21.0,8.0,3.0,7.0,0.0,1.0,0.0,0.0,0.0,0.0,0.0,0.0,0.0,0.0,1.0,1.0,1.0,0.0,1.0,1.0,2.0,2.0,1.0,0.0,1.0,0.0,0.0,11.0,0.0,0.0,0.0,0.0,0.0,0.0,0.0,0.0,0.0,0.0,0.0,0.0,0.0,0.0,0.0,0.0,0.0,0.0,0.0,0.0,209.0,0.0,0.0,0.0,0.0,0.0,136.60263564018535,35.4178930644403,11.792456280332443,209.0,神戸町大字神戸昭和町,神戸町神戸昭和町,code_in_car30
21381001011,神戸町,大字神戸井田,神戸町,大字神戸井田,神戸町大字神戸井田,岐阜県,神戸町,大字神戸,井田,神戸町大字神戸井田,21381.0,1011.0,4.0,431.0,18.0,26.0,16.0,12.0,31.0,26.0,20.0,22.0,25.0,25.0,35.0,32.0,30.0,30.0,23.0,30.0,8.0,13.0,6.0,1.0,0.0,1.0,1.0,1.0,0.0,1.0,1.0,1.0,1.0,1.0,1.0,2.0,2.0,2.0,2.0,2.0,3.0,1.0,1.0,1.0,0.0,0.0,25.0,0.0,0.0,0.0,0.0,0.0,397.0,0.0,0.0,0.0,0.0,0.0,0.0,0.0,0.0,0.0,0.0,0.0,0.0,0.0,0.0,70.0,0.0,0.0,0.0,115.0,0.0,136.6064940316115,35.424186226317055,11.796296232949834,582.0,神戸町大字神戸井田,神戸町神戸井田,code_in_car30
21381001003,神戸町,大字神戸本町,神戸町,大字神戸本町,神戸町大字神戸本町,岐阜県,神戸町,大字神戸,本町,神戸町大字神戸本町,21381.0,1003.0,4.0,206.0,3.0,7.0,6.0,9.0,12.0,3.0,6.0,9.0,10.0,9.0,14.0,16.0,19.0,18.0,18.0,12.0,17.0,12.0,5.0,1.0,0.0,0.0,0.0,0.0,0.0,0.0,0.0,0.0,0.0,0.0,0.0,1.0,1.0,1.0,1.0,2.0,1.0,2.0,1.0,1.0,0.0,0.0,11.0,0.0,31.0,0.0,0.0,178.0,165.0,0.0,0.0,0.0,0.0,0.0,0.0,0.0,0.0,0.0,0.0,0.0,0.0,0.0,0.0,0.0,0.0,0.0,0.0,68.0,0.0,136.60461328075678,35.41978866111399,11.854029165824832,442.0,神戸町大字神戸本町,神戸町神戸本町,code_in_car30
21381001004,神戸町,大字神戸横町,神戸町,大字神戸横町,神戸町大字神戸横町,岐阜県,神戸町,大字神戸,横町,神戸町大字神戸横町,21381.0,1004.0,4.0,128.0,5.0,5.0,6.0,4.0,7.0,8.0,11.0,10.0,6.0,9.0,7.0,4.0,6.0,8.0,7.0,8.0,7.0,5.0,4.0,0.0,0.0,0.0,0.0,0.0,0.0,0.0,0.0,0.0,0.0,0.0,0.0,0.0,0.0,0.0,1.0,1.0,1.0,1.0,1.0,0.0,0.0,0.0,5.0,0.0,0.0,0.0,0.0,0.0,76.0,0.0,0.0,0.0,0.0,0.0,0.0,0.0,0.0,0.0,0.0,0.0,0.0,0.0,0.0,0.0,0.0,0.0,0.0,78.0,0.0,136.6063275518856,35.42116694853236,11.925157200335224,154.0,神戸町大字神戸横町,神戸町神戸横町,code_in_car30
21403023000,大野町,大字加納,大野町,大字加納,大野町大字加納,,,,,,,,,,,,,,,,,,,,,,,,,,,,,,,,,,,,,,,,,,,,,,,,,,,,,0.0,0.0,0.0,0.0,0.0,0.0,0.0,0.0,77.0,0.0,0.0,0.0,0.0,0.0,0.0,642.0,0.0,0.0,0.0,0.0,0.0,0.0,0.0,0.0,0.0,0.0,136.61534984024905,35.44064645356434,11.9403153333807,719.0,大野町大字加納,大野町加納,code_in_car30
21381001006,神戸町,大字神戸鍛冶屋町,神戸町,大字神戸鍛冶屋町,神戸町大字神戸鍛冶屋町,岐阜県,神戸町,大字神戸,鍛冶屋町,神戸町大字神戸鍛冶屋町,21381.0,1006.0,4.0,160.0,7.0,8.0,9.0,8.0,5.0,6.0,1.0,7.0,6.0,16.0,12.0,10.0,9.0,10.0,13.0,11.0,11.0,10.0,1.0,0.0,0.0,0.0,0.0,0.0,0.0,0.0,0.0,0.0,0.0,0.0,1.0,1.0,1.0,1.0,1.0,1.0,1.0,1.0,1.0,0.0,0.0,0.0,9.0,0.0,0.0,0.0,0.0,0.0,0.0,0.0,0.0,0.0,0.0,0.0,0.0,0.0,0.0,0.0,0.0,0.0,0.0,0.0,0.0,0.0,0.0,0.0,0.0,0.0,0.0,136.60464355303142,35.41762697698103,11.966978231037977,0.0,神戸町大字神戸鍛冶屋町,神戸町神戸鍛冶屋町,code_in_car30
21381001005,神戸町,大字神戸上新町,神戸町,大字神戸上新町,神戸町大字神戸上新町,岐阜県,神戸町,大字神戸,上新町,神戸町大字神戸上新町,21381.0,1005.0,4.0,158.0,2.0,3.0,3.0,7.0,8.0,9.0,4.0,10.0,6.0,7.0,14.0,14.0,10.0,17.0,11.0,10.0,12.0,3.0,7.0,1.0,0.0,0.0,0.0,0.0,0.0,0.0,0.0,0.0,0.0,0.0,0.0,1.0,1.0,1.0,1.0,1.0,1.0,1.0,0.0,1.0,0.0,0.0,8.0,0.0,0.0,0.0,0.0,0.0,0.0,0.0,0.0,0.0,0.0,0.0,0.0,0.0,0.0,0.0,0.0,0.0,0.0,0.0,0.0,0.0,0.0,0.0,0.0,0.0,207.0,136.60659370185618,35.419637087112655,12.021921315447868,207.0,神戸町大字神戸上新町,神戸町神戸上新町,code_in_car30
21381023002,神戸町,大字丈六道,神戸町,大字丈六道,神戸町大字丈六道,岐阜県,神戸町,大字丈六道,,神戸町大字丈六道,21381.0,23002.0,4.0,59.0,3.0,1.0,1.0,3.0,1.0,6.0,3.0,2.0,5.0,3.0,7.0,4.0,4.0,4.0,9.0,2.0,1.0,0.0,0.0,0.0,0.0,0.0,0.0,0.0,0.0,0.0,0.0,0.0,0.0,0.0,0.0,0.0,0.0,0.0,0.0,1.0,0.0,0.0,0.0,0.0,0.0,0.0,1.0,0.0,0.0,74.0,0.0,0.0,0.0,0.0,0.0,0.0,0.0,0.0,0.0,0.0,0.0,0.0,0.0,0.0,0.0,0.0,0.0,0.0,0.0,0.0,0.0,0.0,0.0,136.61251833923214,35.43018575017876,12.047071922200534,74.0,神戸町大字丈六道,神戸町丈六道,code_in_car30
21202187000,大垣市,草道島町,大垣市,草道島町,大垣市草道島町,,,,,,,,,,,,,,,,,,,,,,,,,,,,,,,,,,,,,,,,,,,,,,,,,,,,,0.0,0.0,0.0,0.0,0.0,73.0,0.0,0.0,0.0,0.0,0.0,0.0,0.0,0.0,0.0,0.0,0.0,0.0,0.0,0.0,0.0,0.0,0.0,0.0,0.0,0.0,136.59001038780067,35.39825453043496,12.068821116716814,73.0,大垣市草道島町,大垣市草道島町,code_in_car30
21381013002,神戸町,大字西保東方,神戸町,大字西保東方,神戸町大字西保東方,岐阜県,神戸町,大字西保,東方,神戸町大字西保東方,21381.0,13002.0,4.0,126.0,2.0,3.0,4.0,4.0,8.0,6.0,4.0,4.0,5.0,8.0,11.0,11.0,3.0,13.0,20.0,8.0,6.0,3.0,3.0,0.0,0.0,0.0,0.0,0.0,0.0,0.0,0.0,0.0,0.0,0.0,0.0,0.0,1.0,0.0,1.0,2.0,1.0,1.0,0.0,0.0,0.0,0.0,6.0,0.0,0.0,0.0,0.0,0.0,86.0,0.0,0.0,0.0,0.0,0.0,0.0,0.0,0.0,0.0,0.0,0.0,0.0,0.0,53.0,0.0,0.0,0.0,0.0,0.0,0.0,136.6019409075402,35.41063592066329,12.140503418606816,139.0,神戸町大字西保東方,神戸町西保東方,code_in_car30
21403021000,大野町,大字大衣斐,大野町,大字大衣斐,大野町大字大衣斐,,,,,,,,,,,,,,,,,,,,,,,,,,,,,,,,,,,,,,,,,,,,,,,,,,,,,0.0,110.0,0.0,0.0,0.0,0.0,0.0,0.0,0.0,0.0,0.0,0.0,0.0,0.0,71.0,0.0,0.0,0.0,0.0,0.0,0.0,0.0,0.0,0.0,0.0,0.0,136.6213523654952,35.45707238306013,12.151620550141136,181.0,大野町大字大衣斐,大野町大衣斐,code_in_car30
21381011000,神戸町,大字川西,神戸町,大字川西,神戸町大字川西,,,,,,,,,,,,,,,,,,,,,,,,,,,,,,,,,,,,,,,,,,,,,,,,,,,,,0.0,0.0,0.0,0.0,0.0,1354.0,0.0,0.0,0.0,0.0,0.0,0.0,0.0,0.0,0.0,0.0,0.0,0.0,0.0,0.0,0.0,0.0,0.0,0.0,135.0,632.0,136.60498485287758,35.41358221198886,12.210652422534773,2121.0,神戸町大字川西,神戸町川西,code_in_car30
21401030000,揖斐川町,谷汲大洞,揖斐川町,谷汲大洞,揖斐川町谷汲大洞,,,,,,,,,,,,,,,,,,,,,,,,,,,,,,,,,,,,,,,,,,,,,,,,,,,,,0.0,0.0,0.0,0.0,0.0,0.0,0.0,0.0,0.0,0.0,0.0,0.0,0.0,0.0,0.0,772.0,0.0,0.0,0.0,0.0,0.0,0.0,0.0,0.0,0.0,0.0,136.61495342484156,35.505157232116126,12.231846017494597,772.0,揖斐川町谷汲大洞,揖斐川町谷汲大洞,code_in_car30
21381001015,神戸町,大字神戸あさひ町,神戸町,大字神戸あさひ町,神戸町大字神戸あさひ町,岐阜県,神戸町,大字神戸,あさひ町,神戸町大字神戸あさひ町,21381.0,1015.0,4.0,182.0,9.0,14.0,20.0,9.0,8.0,5.0,11.0,5.0,23.0,12.0,13.0,14.0,6.0,12.0,8.0,4.0,5.0,3.0,1.0,0.0,0.0,0.0,1.0,1.0,0.0,0.0,0.0,0.0,0.0,1.0,0.0,1.0,1.0,0.0,1.0,1.0,0.0,1.0,0.0,0.0,0.0,0.0,8.0,0.0,0.0,0.0,0.0,51.0,0.0,0.0,0.0,0.0,0.0,0.0,0.0,0.0,0.0,0.0,0.0,0.0,0.0,0.0,0.0,0.0,0.0,0.0,0.0,0.0,0.0,136.60913549917302,35.41891255339042,12.264011650738997,51.0,神戸町大字神戸あさひ町,神戸町神戸あさひ町,code_in_car30
21403005000,大野町,大字麻生,大野町,大字麻生,大野町大字麻生,,,,,,,,,,,,,,,,,,,,,,,,,,,,,,,,,,,,,,,,,,,,,,,,,,,,,0.0,0.0,0.0,0.0,0.0,0.0,0.0,0.0,0.0,0.0,0.0,0.0,0.0,0.0,0.0,0.0,65.0,0.0,0.0,0.0,0.0,0.0,0.0,0.0,0.0,0.0,136.62335705205317,35.463839357445956,12.281184636412917,65.0,大野町大字麻生,大野町麻生,code_in_car30
21381001008,神戸町,大字神戸栄町,神戸町,大字神戸栄町,神戸町大字神戸栄町,岐阜県,神戸町,大字神戸,栄町,神戸町大字神戸栄町,21381.0,1008.0,4.0,1197.0,40.0,60.0,65.0,96.0,85.0,79.0,77.0,56.0,75.0,118.0,73.0,65.0,63.0,48.0,72.0,49.0,42.0,17.0,3.0,2.0,0.0,2.0,3.0,2.0,2.0,2.0,2.0,2.0,2.0,3.0,5.0,3.0,4.0,4.0,4.0,7.0,5.0,5.0,2.0,0.0,0.0,0.0,59.0,0.0,0.0,0.0,61.0,46.0,719.0,0.0,0.0,0.0,0.0,148.0,0.0,145.0,0.0,0.0,0.0,0.0,0.0,0.0,0.0,0.0,0.0,0.0,0.0,234.0,0.0,136.6120860727455,35.42355378851579,12.287726220516463,1353.0,神戸町大字神戸栄町,神戸町神戸栄町,code_in_car30
21403024000,大野町,大字五之里,大野町,大字五之里,大野町大字五之里,,,,,,,,,,,,,,,,,,,,,,,,,,,,,,,,,,,,,,,,,,,,,,,,,,,,,0.0,42.0,0.0,0.0,0.0,0.0,0.0,0.0,0.0,0.0,0.0,0.0,82.0,0.0,0.0,0.0,428.0,0.0,0.0,0.0,0.0,0.0,0.0,0.0,0.0,37.0,136.62137749155693,35.447195409739685,12.31200015871418,589.0,大野町大字五之里,大野町五之里,code_in_car30
21202183001,大垣市,赤坂新町一丁目,大垣市,赤坂新町一丁目,大垣市赤坂新町一丁目,岐阜県,大垣市,赤坂新町,一丁目,大垣市赤坂新町一丁目,21202.0,183001.0,4.0,158.0,4.0,3.0,5.0,11.0,12.0,4.0,5.0,6.0,7.0,12.0,20.0,8.0,7.0,15.0,13.0,6.0,5.0,5.0,6.0,4.0,0.0,0.0,0.0,0.0,0.0,0.0,0.0,0.0,0.0,0.0,0.0,1.0,0.0,0.0,1.0,1.0,1.0,1.0,1.0,1.0,0.0,0.0,7.0,0.0,0.0,0.0,0.0,0.0,0.0,0.0,0.0,0.0,0.0,0.0,0.0,0.0,0.0,0.0,0.0,0.0,0.0,0.0,0.0,0.0,0.0,0.0,0.0,0.0,0.0,136.58817092622186,35.39295419129171,12.332069382140583,0.0,大垣市赤坂新町一丁目,大垣市赤坂新町一丁目,code_in_car30
21381001007,神戸町,大字神戸下新町,神戸町,大字神戸下新町,神戸町大字神戸下新町,岐阜県,神戸町,大字神戸,下新町,神戸町大字神戸下新町,21381.0,1007.0,4.0,476.0,22.0,18.0,25.0,22.0,19.0,27.0,27.0,28.0,27.0,42.0,39.0,24.0,16.0,32.0,31.0,33.0,23.0,15.0,2.0,0.0,0.0,1.0,1.0,1.0,1.0,0.0,1.0,1.0,1.0,1.0,2.0,2.0,1.0,1.0,3.0,3.0,4.0,3.0,2.0,0.0,0.0,0.0,29.0,0.0,0.0,0.0,0.0,49.0,482.0,0.0,0.0,0.0,0.0,0.0,0.0,0.0,0.0,0.0,0.0,0.0,0.0,0.0,0.0,0.0,0.0,0.0,0.0,0.0,0.0,136.608787196699,35.41641806409912,12.361875613836983,531.0,神戸町大字神戸下新町,神戸町神戸下新町,code_in_car30
21403025000,大野町,大字南方,大野町,大字南方,大野町大字南方,,,,,,,,,,,,,,,,,,,,,,,,,,,,,,,,,,,,,,,,,,,,,,,,,,,,,0.0,0.0,0.0,0.0,0.0,0.0,0.0,0.0,69.0,0.0,0.0,0.0,0.0,0.0,0.0,0.0,0.0,0.0,0.0,0.0,0.0,0.0,0.0,0.0,0.0,0.0,136.62298431613732,35.452167565161005,12.364377860391084,69.0,大野町大字南方,大野町南方,code_in_car30
21403009000,大野町,大字大野,大野町,大字大野,大野町大字大野,,,,,,,,,,,,,,,,,,,,,,,,,,,,,,,,,,,,,,,,,,,,,,,,,,,,,0.0,139.0,94.0,0.0,0.0,0.0,0.0,206.0,368.0,0.0,0.0,0.0,137.0,0.0,873.0,0.0,921.0,0.0,0.0,47.0,0.0,0.0,0.0,219.0,0.0,0.0,136.62461496007512,35.470875049525404,12.390686994269048,3004.0,大野町大字大野,大野町大野,code_in_car30
21381016000,神戸町,大字和泉,神戸町,大字和泉,神戸町大字和泉,,,,,,,,,,,,,,,,,,,,,,,,,,,,,,,,,,,,,,,,,,,,,,,,,,,,,0.0,0.0,0.0,0.0,0.0,95.0,94.0,0.0,0.0,0.0,0.0,0.0,0.0,0.0,0.0,0.0,0.0,0.0,0.0,0.0,0.0,0.0,0.0,0.0,0.0,94.0,136.59781313792894,35.40121747344447,12.419582067845216,283.0,神戸町大字和泉,神戸町和泉,code_in_car30
21403022000,大野町,大字小衣斐,大野町,大字小衣斐,大野町大字小衣斐,,,,,,,,,,,,,,,,,,,,,,,,,,,,,,,,,,,,,,,,,,,,,,,,,,,,,0.0,0.0,41.0,0.0,0.0,0.0,0.0,0.0,0.0,0.0,0.0,0.0,0.0,0.0,0.0,0.0,194.0,0.0,0.0,0.0,0.0,0.0,0.0,0.0,0.0,0.0,136.62477264406422,35.45900666704898,12.440814638508218,235.0,大野町大字小衣斐,大野町小衣斐,code_in_car30
21381001014,神戸町,大字神戸昭和,神戸町,大字神戸昭和,神戸町大字神戸昭和,岐阜県,神戸町,大字神戸,昭和,神戸町大字神戸昭和,21381.0,1014.0,4.0,0.0,0.0,0.0,0.0,0.0,0.0,0.0,0.0,0.0,0.0,0.0,0.0,0.0,0.0,0.0,0.0,0.0,0.0,0.0,0.0,0.0,0.0,0.0,0.0,0.0,0.0,0.0,0.0,0.0,0.0,0.0,0.0,0.0,0.0,0.0,0.0,0.0,0.0,0.0,0.0,0.0,0.0,0.0,0.0,0.0,0.0,0.0,0.0,0.0,0.0,0.0,0.0,0.0,0.0,0.0,0.0,0.0,0.0,0.0,0.0,0.0,0.0,0.0,0.0,0.0,0.0,0.0,0.0,0.0,0.0,136.61328510411064,35.42166032693471,12.47271732777874,0.0,神戸町大字神戸昭和,神戸町神戸昭和,code_in_car30
21202184000,大垣市,赤坂東町,大垣市,赤坂東町,大垣市赤坂東町,,,,,,,,,,,,,,,,,,,,,,,,,,,,,,,,,,,,,,,,,,,,,,,,,,,,,0.0,0.0,0.0,0.0,0.0,0.0,0.0,0.0,0.0,0.0,0.0,0.0,0.0,0.0,0.0,0.0,0.0,0.0,0.0,0.0,0.0,0.0,0.0,0.0,0.0,0.0,136.58687259019777,35.38994677623185,12.475717537374459,0.0,大垣市赤坂東町,大垣市赤坂東町,code_in_car30
21403029000,大野町,大字本庄,大野町,大字本庄,大野町大字本庄,,,,,,,,,,,,,,,,,,,,,,,,,,,,,,,,,,,,,,,,,,,,,,,,,,,,,0.0,0.0,44.0,0.0,78.0,0.0,0.0,0.0,0.0,0.0,0.0,0.0,0.0,0.0,0.0,0.0,39.0,0.0,0.0,0.0,0.0,0.0,0.0,0.0,0.0,85.0,136.61833873312284,35.432013675524985,12.476057832999622,246.0,大野町大字本庄,大野町本庄,code_in_car30
21403006000,大野町,大字野,大野町,大字野,大野町大字野,,,,,,,,,,,,,,,,,,,,,,,,,,,,,,,,,,,,,,,,,,,,,,,,,,,,,0.0,0.0,0.0,0.0,132.0,0.0,39.0,0.0,0.0,0.0,0.0,0.0,0.0,425.0,119.0,0.0,491.0,0.0,0.0,0.0,0.0,0.0,0.0,0.0,0.0,0.0,136.62322150054823,35.48889056369655,12.478950027638856,1206.0,大野町大字野,大野町野,code_in_car30
21202183002,大垣市,赤坂新町二丁目,大垣市,赤坂新町二丁目,大垣市赤坂新町二丁目,岐阜県,大垣市,赤坂新町,二丁目,大垣市赤坂新町二丁目,21202.0,183002.0,4.0,394.0,40.0,52.0,47.0,16.0,7.0,11.0,34.0,48.0,48.0,39.0,13.0,7.0,8.0,6.0,12.0,4.0,2.0,0.0,0.0,0.0,0.0,2.0,3.0,2.0,0.0,0.0,0.0,1.0,2.0,2.0,2.0,1.0,0.0,1.0,0.0,1.0,0.0,0.0,0.0,0.0,0.0,0.0,17.0,0.0,0.0,0.0,0.0,0.0,0.0,0.0,0.0,0.0,0.0,0.0,0.0,75.0,0.0,0.0,0.0,0.0,0.0,0.0,0.0,0.0,0.0,0.0,0.0,0.0,0.0,136.59048597979682,35.39292562984117,12.489609100166568,75.0,大垣市赤坂新町二丁目,大垣市赤坂新町二丁目,code_in_car30
21403007000,大野町,大字西方,大野町,大字西方,大野町大字西方,,,,,,,,,,,,,,,,,,,,,,,,,,,,,,,,,,,,,,,,,,,,,,,,,,,,,0.0,0.0,134.0,0.0,0.0,0.0,0.0,0.0,567.0,0.0,0.0,0.0,0.0,187.0,0.0,0.0,126.0,0.0,0.0,0.0,0.0,0.0,0.0,158.0,0.0,0.0,136.6255947902196,35.4764607912396,12.510844546923451,1172.0,大野町大字西方,大野町西方,code_in_car30
21381001012,神戸町,大字神戸栄町,神戸町,大字神戸栄町,神戸町大字神戸栄町,岐阜県,神戸町,大字神戸,栄町,神戸町大字神戸栄町,21381.0,1012.0,4.0,0.0,0.0,0.0,0.0,0.0,0.0,0.0,0.0,0.0,0.0,0.0,0.0,0.0,0.0,0.0,0.0,0.0,0.0,0.0,0.0,0.0,0.0,0.0,0.0,0.0,0.0,0.0,0.0,0.0,0.0,0.0,0.0,0.0,0.0,0.0,0.0,0.0,0.0,0.0,0.0,0.0,0.0,0.0,0.0,0.0,0.0,0.0,0.0,0.0,0.0,0.0,0.0,0.0,0.0,0.0,0.0,0.0,0.0,0.0,0.0,0.0,0.0,0.0,0.0,0.0,0.0,0.0,0.0,0.0,0.0,136.61572423911372,35.42523838556759,12.51800230795868,0.0,神戸町大字神戸栄町,神戸町神戸栄町,code_in_car30
21401048000,揖斐川町,樫原,揖斐川町,樫原,揖斐川町樫原,,,,,,,,,,,,,,,,,,,,,,,,,,,,,,,,,,,,,,,,,,,,,,,,,,,,,0.0,0.0,0.0,0.0,0.0,0.0,0.0,0.0,0.0,0.0,0.0,0.0,0.0,0.0,0.0,0.0,0.0,0.0,0.0,0.0,0.0,0.0,0.0,0.0,0.0,0.0,136.48885181126704,35.58110834157556,12.58868642968824,0.0,揖斐川町樫原,揖斐川町樫原,code_in_car30
21202183003,大垣市,赤坂新町三丁目,大垣市,赤坂新町三丁目,大垣市赤坂新町三丁目,岐阜県,大垣市,赤坂新町,三丁目,大垣市赤坂新町三丁目,21202.0,183003.0,4.0,71.0,5.0,4.0,8.0,4.0,2.0,0.0,4.0,3.0,6.0,6.0,6.0,2.0,8.0,2.0,5.0,2.0,2.0,1.0,0.0,1.0,0.0,0.0,0.0,0.0,0.0,0.0,0.0,0.0,0.0,0.0,0.0,0.0,0.0,1.0,0.0,0.0,0.0,0.0,0.0,0.0,0.0,0.0,1.0,0.0,0.0,0.0,0.0,0.0,0.0,0.0,0.0,0.0,0.0,0.0,0.0,0.0,0.0,0.0,0.0,0.0,0.0,0.0,0.0,0.0,0.0,0.0,0.0,0.0,0.0,136.59035481573906,35.391445881550496,12.591327334261926,0.0,大垣市赤坂新町三丁目,大垣市赤坂新町三丁目,code_in_car30
21202183004,大垣市,赤坂新町四丁目,大垣市,赤坂新町四丁目,大垣市赤坂新町四丁目,岐阜県,大垣市,赤坂新町,四丁目,大垣市赤坂新町四丁目,21202.0,183004.0,4.0,133.0,3.0,10.0,11.0,6.0,2.0,9.0,2.0,7.0,8.0,9.0,10.0,10.0,6.0,6.0,7.0,11.0,6.0,7.0,2.0,1.0,0.0,0.0,1.0,0.0,0.0,0.0,0.0,0.0,0.0,0.0,0.0,0.0,1.0,0.0,0.0,1.0,1.0,1.0,1.0,0.0,0.0,0.0,6.0,0.0,0.0,0.0,0.0,0.0,0.0,0.0,0.0,0.0,0.0,0.0,0.0,0.0,0.0,0.0,0.0,0.0,0.0,0.0,0.0,0.0,0.0,0.0,0.0,0.0,0.0,136.5896072307648,35.39051093138105,12.61218570940255,0.0,大垣市赤坂新町四丁目,大垣市赤坂新町四丁目,code_in_car30
21202191001,大垣市,枝郷一丁目,大垣市,枝郷一丁目,大垣市枝郷一丁目,岐阜県,大垣市,枝郷,一丁目,大垣市枝郷一丁目,21202.0,191001.0,4.0,58.0,1.0,0.0,2.0,3.0,3.0,4.0,2.0,2.0,2.0,10.0,2.0,4.0,4.0,2.0,11.0,1.0,3.0,2.0,0.0,0.0,0.0,0.0,0.0,0.0,0.0,0.0,0.0,0.0,0.0,0.0,0.0,0.0,0.0,0.0,0.0,1.0,0.0,0.0,0.0,0.0,0.0,0.0,1.0,0.0,0.0,0.0,0.0,0.0,0.0,0.0,0.0,0.0,0.0,0.0,0.0,0.0,0.0,0.0,0.0,0.0,0.0,0.0,0.0,0.0,0.0,0.0,0.0,51.0,186.0,136.5928629059694,35.393365917632664,12.618558744647293,237.0,大垣市枝郷一丁目,大垣市枝郷一丁目,code_in_car30
21401056000,揖斐川町,西横山,揖斐川町,西横山,揖斐川町西横山,,,,,,,,,,,,,,,,,,,,,,,,,,,,,,,,,,,,,,,,,,,,,,,,,,,,,0.0,0.0,0.0,0.0,0.0,0.0,0.0,0.0,0.0,0.0,0.0,0.0,0.0,0.0,0.0,0.0,0.0,0.0,0.0,0.0,0.0,0.0,0.0,0.0,0.0,0.0,136.46110237213549,35.579702228622374,12.665312845739523,0.0,揖斐川町西横山,揖斐川町西横山,code_in_car30
21381001016,神戸町,大字神戸新和,神戸町,大字神戸新和,神戸町大字神戸新和,岐阜県,神戸町,大字神戸,新和,神戸町大字神戸新和,21381.0,1016.0,4.0,380.0,3.0,8.0,9.0,22.0,19.0,27.0,6.0,12.0,32.0,17.0,40.0,25.0,18.0,41.0,40.0,29.0,23.0,5.0,3.0,1.0,0.0,0.0,0.0,0.0,1.0,0.0,1.0,0.0,0.0,1.0,1.0,2.0,1.0,1.0,3.0,4.0,3.0,3.0,1.0,0.0,0.0,0.0,22.0,0.0,0.0,0.0,0.0,0.0,164.0,0.0,0.0,0.0,0.0,0.0,0.0,0.0,0.0,0.0,0.0,0.0,0.0,0.0,0.0,0.0,0.0,0.0,0.0,0.0,0.0,136.6148422719587,35.41951065600951,12.700911370865107,164.0,神戸町大字神戸新和,神戸町神戸新和,code_in_car30
21381001013,神戸町,大字神戸起,神戸町,大字神戸起,神戸町大字神戸起,岐阜県,神戸町,大字神戸,起,神戸町大字神戸起,21381.0,1013.0,4.0,88.0,1.0,3.0,6.0,3.0,2.0,2.0,1.0,6.0,5.0,7.0,11.0,6.0,7.0,8.0,8.0,8.0,2.0,1.0,1.0,0.0,0.0,0.0,0.0,0.0,0.0,0.0,0.0,0.0,0.0,0.0,0.0,0.0,0.0,0.0,1.0,1.0,1.0,0.0,0.0,0.0,0.0,0.0,3.0,0.0,0.0,0.0,0.0,0.0,376.0,0.0,0.0,0.0,0.0,0.0,0.0,0.0,0.0,0.0,0.0,0.0,0.0,0.0,0.0,0.0,0.0,0.0,0.0,0.0,0.0,136.61625197120432,35.421603669607926,12.720616866030175,376.0,神戸町大字神戸起,神戸町神戸起,code_in_car30
21381005000,神戸町,大字前田,神戸町,大字前田,神戸町大字前田,,,,,,,,,,,,,,,,,,,,,,,,,,,,,,,,,,,,,,,,,,,,,,,,,,,,,0.0,0.0,0.0,0.0,0.0,402.0,0.0,0.0,0.0,0.0,0.0,0.0,0.0,0.0,0.0,0.0,0.0,0.0,0.0,0.0,0.0,0.0,0.0,0.0,0.0,0.0,136.60881946712198,35.40733970210136,12.863506678302372,402.0,神戸町大字前田,神戸町前田,code_in_car30
21381004000,神戸町,大字下宮,神戸町,大字下宮,神戸町大字下宮,,,,,,,,,,,,,,,,,,,,,,,,,,,,,,,,,,,,,,,,,,,,,,,,,,,,,0.0,0.0,0.0,0.0,0.0,350.0,0.0,0.0,0.0,0.0,0.0,0.0,154.0,0.0,0.0,0.0,0.0,0.0,0.0,0.0,0.0,0.0,0.0,0.0,0.0,0.0,136.6136123324516,35.41244111857002,12.955708933205079,504.0,神戸町大字下宮,神戸町下宮,code_in_car30
21381001009,神戸町,大字神戸福井,神戸町,大字神戸福井,神戸町大字神戸福井,岐阜県,神戸町,大字神戸,福井,神戸町大字神戸福井,21381.0,1009.0,4.0,312.0,6.0,11.0,17.0,21.0,9.0,7.0,15.0,10.0,17.0,31.0,18.0,22.0,15.0,28.0,27.0,26.0,16.0,8.0,6.0,2.0,0.0,0.0,1.0,1.0,1.0,0.0,0.0,0.0,0.0,1.0,1.0,1.0,1.0,1.0,2.0,3.0,3.0,2.0,1.0,1.0,0.0,0.0,20.0,0.0,0.0,0.0,0.0,0.0,151.0,0.0,0.0,0.0,0.0,0.0,0.0,0.0,0.0,0.0,40.0,0.0,0.0,0.0,0.0,0.0,0.0,0.0,0.0,0.0,0.0,136.61930983227333,35.419678512238214,13.06095321691882,191.0,神戸町大字神戸福井,神戸町神戸福井,code_in_car30
21403002000,大野町,大字六里,大野町,大字六里,大野町大字六里,,,,,,,,,,,,,,,,,,,,,,,,,,,,,,,,,,,,,,,,,,,,,,,,,,,,,0.0,0.0,0.0,0.0,0.0,0.0,0.0,0.0,0.0,0.0,0.0,0.0,36.0,37.0,0.0,0.0,43.0,0.0,0.0,0.0,0.0,0.0,36.0,0.0,0.0,0.0,136.63167286501766,35.459233827381,13.061957259395161,152.0,大野町大字六里,大野町六里,code_in_car30
21403027000,大野町,大字上磯,大野町,大字上磯,大野町大字上磯,,,,,,,,,,,,,,,,,,,,,,,,,,,,,,,,,,,,,,,,,,,,,,,,,,,,,0.0,0.0,133.0,0.0,0.0,0.0,0.0,136.0,0.0,0.0,0.0,0.0,0.0,0.0,0.0,0.0,0.0,0.0,0.0,0.0,0.0,0.0,0.0,0.0,0.0,0.0,136.6283853959683,35.4405605290104,13.088035028828504,269.0,大野町大字上磯,大野町上磯,code_in_car30
21403008000,大野町,大字桜大門,大野町,大字桜大門,大野町大字桜大門,,,,,,,,,,,,,,,,,,,,,,,,,,,,,,,,,,,,,,,,,,,,,,,,,,,,,0.0,0.0,105.0,0.0,297.0,0.0,0.0,140.0,83.0,0.0,0.0,0.0,169.0,0.0,1259.0,0.0,0.0,0.0,0.0,0.0,0.0,0.0,94.0,75.0,0.0,0.0,136.63318511488356,35.47873701423694,13.21679783087422,2222.0,大野町大字桜大門,大野町桜大門,code_in_car30
21403026000,大野町,大字郡家,大野町,大字郡家,大野町大字郡家,,,,,,,,,,,,,,,,,,,,,,,,,,,,,,,,,,,,,,,,,,,,,,,,,,,,,0.0,0.0,0.0,0.0,0.0,0.0,0.0,0.0,0.0,0.0,0.0,0.0,0.0,0.0,0.0,0.0,0.0,0.0,0.0,0.0,0.0,0.0,0.0,0.0,0.0,0.0,136.63158194433285,35.44579266483647,13.249242936013758,0.0,大野町大字郡家,大野町郡家,code_in_car30
21401032000,揖斐川町,谷汲徳積,揖斐川町,谷汲徳積,揖斐川町谷汲徳積,,,,,,,,,,,,,,,,,,,,,,,,,,,,,,,,,,,,,,,,,,,,,,,,,,,,,0.0,0.0,0.0,80.0,0.0,0.0,0.0,0.0,0.0,0.0,0.0,0.0,0.0,0.0,0.0,0.0,0.0,0.0,0.0,0.0,0.0,0.0,569.0,83.0,0.0,0.0,136.61344779412008,35.52926519123889,13.261149181853748,732.0,揖斐川町谷汲徳積,揖斐川町谷汲徳積,code_in_car30
21403028000,大野町,大字下磯,大野町,大字下磯,大野町大字下磯,,,,,,,,,,,,,,,,,,,,,,,,,,,,,,,,,,,,,,,,,,,,,,,,,,,,,0.0,79.0,787.0,0.0,0.0,0.0,54.0,0.0,0.0,0.0,0.0,0.0,79.0,0.0,0.0,0.0,41.0,0.0,0.0,0.0,0.0,0.0,0.0,0.0,0.0,0.0,136.62769999774125,35.43171445862561,13.292304768406506,1040.0,大野町大字下磯,大野町下磯,code_in_car30
21403001000,大野町,大字黒野,大野町,大字黒野,大野町大字黒野,,,,,,,,,,,,,,,,,,,,,,,,,,,,,,,,,,,,,,,,,,,,,,,,,,,,,0.0,0.0,387.0,115.0,273.0,0.0,46.0,108.0,40.0,0.0,0.0,172.0,295.0,721.0,1824.0,0.0,1907.0,0.0,0.0,0.0,0.0,0.0,0.0,61.0,0.0,0.0,136.63529598638266,35.46718497083239,13.354083390907327,5949.0,大野町大字黒野,大野町黒野,code_in_car30
21381002000,神戸町,大字西座倉,神戸町,大字西座倉,神戸町大字西座倉,,,,,,,,,,,,,,,,,,,,,,,,,,,,,,,,,,,,,,,,,,,,,,,,,,,,,0.0,0.0,0.0,0.0,0.0,0.0,0.0,0.0,0.0,0.0,0.0,0.0,0.0,0.0,0.0,0.0,0.0,0.0,0.0,0.0,0.0,0.0,0.0,0.0,0.0,0.0,136.6260928735691,35.42291364798728,13.485833247226248,0.0,神戸町大字西座倉,神戸町西座倉,code_in_car30
21403004000,大野町,大字下方,大野町,大字下方,大野町大字下方,,,,,,,,,,,,,,,,,,,,,,,,,,,,,,,,,,,,,,,,,,,,,,,,,,,,,0.0,0.0,0.0,0.0,0.0,0.0,0.0,0.0,0.0,0.0,0.0,0.0,308.0,288.0,44.0,59.0,105.0,0.0,0.0,0.0,0.0,0.0,0.0,0.0,0.0,0.0,136.63652486415808,35.45154843405248,13.588618483254804,804.0,大野町大字下方,大野町下方,code_in_car30
21403003000,大野町,大字相羽,大野町,大字相羽,大野町大字相羽,,,,,,,,,,,,,,,,,,,,,,,,,,,,,,,,,,,,,,,,,,,,,,,,,,,,,0.0,0.0,0.0,0.0,0.0,32.0,0.0,0.0,79.0,0.0,0.0,0.0,0.0,466.0,183.0,0.0,203.0,0.0,0.0,0.0,0.0,0.0,0.0,0.0,0.0,0.0,136.6373973439804,35.45762465581741,13.593048484215384,963.0,大野町大字相羽,大野町相羽,code_in_car30
21381006001,神戸町,大字瀬古,神戸町,大字瀬古,神戸町大字瀬古,岐阜県,神戸町,大字瀬古,,神戸町大字瀬古,21381.0,6001.0,4.0,484.0,16.0,30.0,21.0,19.0,12.0,9.0,20.0,11.0,42.0,35.0,22.0,29.0,31.0,38.0,52.0,41.0,30.0,16.0,8.0,2.0,0.0,1.0,2.0,1.0,0.0,0.0,0.0,1.0,0.0,1.0,1.0,1.0,2.0,2.0,3.0,5.0,5.0,4.0,2.0,1.0,0.0,0.0,32.0,0.0,0.0,0.0,0.0,0.0,615.0,0.0,0.0,0.0,0.0,0.0,0.0,0.0,0.0,0.0,0.0,0.0,0.0,0.0,0.0,0.0,0.0,0.0,0.0,0.0,0.0,136.61874996965787,35.4061878402289,13.701950484797553,615.0,神戸町大字瀬古,神戸町瀬古,code_in_car30
21218064030,本巣市,浅木,本巣市,浅木,本巣市浅木,岐阜県,本巣市,浅木,,本巣市浅木,21218.0,64030.0,4.0,136.0,0.0,0.0,2.0,5.0,3.0,0.0,1.0,9.0,4.0,6.0,8.0,11.0,12.0,13.0,17.0,18.0,13.0,7.0,4.0,2.0,0.0,0.0,0.0,0.0,0.0,0.0,0.0,0.0,0.0,0.0,0.0,0.0,1.0,1.0,1.0,2.0,2.0,2.0,1.0,0.0,0.0,0.0,10.0,0.0,0.0,74.0,0.0,0.0,0.0,0.0,0.0,0.0,0.0,0.0,0.0,0.0,0.0,0.0,0.0,0.0,0.0,0.0,0.0,0.0,0.0,0.0,43.0,0.0,0.0,136.6368898639848,35.44362378231852,13.767372153389298,117.0,本巣市浅木,本巣市浅木,code_in_car30
21202144001,大垣市,曽根町一丁目,大垣市,曽根町一丁目,大垣市曽根町一丁目,岐阜県,大垣市,曽根町,一丁目,大垣市曽根町一丁目,21202.0,144001.0,4.0,317.0,12.0,10.0,6.0,28.0,44.0,7.0,13.0,16.0,18.0,17.0,17.0,14.0,14.0,19.0,27.0,26.0,14.0,10.0,4.0,1.0,0.0,0.0,1.0,0.0,1.0,1.0,0.0,0.0,1.0,1.0,1.0,1.0,1.0,1.0,2.0,3.0,3.0,2.0,1.0,0.0,0.0,0.0,20.0,0.0,0.0,0.0,0.0,0.0,36.0,0.0,0.0,0.0,0.0,0.0,0.0,0.0,0.0,0.0,0.0,0.0,0.0,0.0,0.0,0.0,0.0,0.0,0.0,0.0,0.0,136.6180307970716,35.4029120220174,13.83255479781279,36.0,大垣市曽根町一丁目,大垣市曽根町一丁目,code_in_car30
21381003000,神戸町,大字新屋敷,神戸町,大字新屋敷,神戸町大字新屋敷,,,,,,,,,,,,,,,,,,,,,,,,,,,,,,,,,,,,,,,,,,,,,,,,,,,,,0.0,0.0,0.0,0.0,0.0,199.0,0.0,0.0,0.0,0.0,53.0,0.0,0.0,0.0,0.0,0.0,0.0,0.0,0.0,0.0,0.0,0.0,0.0,0.0,0.0,59.0,136.62389533467288,35.41143014394825,13.832851320118737,311.0,神戸町大字新屋敷,神戸町新屋敷,code_in_car30
21403013000,大野町,大字上秋,大野町,大字上秋,大野町大字上秋,,,,,,,,,,,,,,,,,,,,,,,,,,,,,,,,,,,,,,,,,,,,,,,,,,,,,0.0,0.0,231.0,0.0,0.0,0.0,139.0,0.0,0.0,0.0,0.0,0.0,0.0,261.0,807.0,0.0,150.0,0.0,0.0,0.0,0.0,0.0,0.0,0.0,0.0,0.0,136.64054526850592,35.479243390270256,13.885616574341737,1588.0,大野町大字上秋,大野町上秋,code_in_car30
21218064025,本巣市,浅木,本巣市,浅木,本巣市浅木,岐阜県,本巣市,浅木,,本巣市浅木,21218.0,64025.0,4.0,274.0,9.0,11.0,19.0,20.0,17.0,5.0,7.0,12.0,20.0,28.0,18.0,16.0,9.0,13.0,26.0,18.0,16.0,5.0,3.0,1.0,0.0,0.0,1.0,1.0,0.0,0.0,0.0,0.0,0.0,1.0,1.0,1.0,1.0,1.0,1.0,2.0,2.0,2.0,1.0,0.0,0.0,0.0,15.0,0.0,0.0,0.0,0.0,0.0,0.0,0.0,0.0,0.0,0.0,0.0,0.0,0.0,0.0,0.0,0.0,0.0,0.0,0.0,0.0,0.0,0.0,0.0,0.0,0.0,0.0,136.6378570290492,35.44088392572797,13.916079936444026,0.0,本巣市浅木,本巣市浅木,code_in_car30
21381006002,神戸町,大字瀬古,神戸町,大字瀬古,神戸町大字瀬古,岐阜県,神戸町,大字瀬古,,神戸町大字瀬古,21381.0,6002.0,4.0,198.0,4.0,4.0,10.0,9.0,6.0,7.0,10.0,2.0,9.0,16.0,16.0,14.0,9.0,11.0,18.0,30.0,13.0,9.0,1.0,0.0,0.0,0.0,0.0,0.0,0.0,0.0,0.0,0.0,0.0,0.0,1.0,1.0,1.0,1.0,1.0,2.0,3.0,2.0,1.0,0.0,0.0,0.0,13.0,0.0,0.0,0.0,0.0,0.0,0.0,0.0,0.0,0.0,0.0,0.0,0.0,0.0,0.0,0.0,0.0,0.0,0.0,0.0,0.0,0.0,0.0,0.0,0.0,0.0,0.0,136.62082457153284,35.40488292106663,13.937420774520314,0.0,神戸町大字瀬古,神戸町瀬古,code_in_car30
21403012000,大野町,大字寺内,大野町,大字寺内,大野町大字寺内,,,,,,,,,,,,,,,,,,,,,,,,,,,,,,,,,,,,,,,,,,,,,,,,,,,,,0.0,0.0,75.0,0.0,0.0,0.0,0.0,160.0,0.0,0.0,0.0,0.0,0.0,0.0,0.0,0.0,85.0,0.0,0.0,0.0,0.0,0.0,0.0,201.0,0.0,0.0,136.63831961002697,35.49486378243817,13.951338902700462,521.0,大野町大字寺内,大野町寺内,code_in_car30
21218065000,本巣市,海老,本巣市,海老,本巣市海老,,,,,,,,,,,,,,,,,,,,,,,,,,,,,,,,,,,,,,,,,,,,,,,,,,,,,0.0,0.0,0.0,0.0,0.0,0.0,0.0,0.0,0.0,0.0,0.0,0.0,0.0,0.0,0.0,0.0,0.0,0.0,0.0,0.0,0.0,0.0,0.0,0.0,0.0,0.0,136.64000449675046,35.44708977055083,13.974867834014596,0.0,本巣市海老,本巣市海老,code_in_car30
21218063000,本巣市,温井,本巣市,温井,本巣市温井,,,,,,,,,,,,,,,,,,,,,,,,,,,,,,,,,,,,,,,,,,,,,,,,,,,,,0.0,0.0,0.0,0.0,0.0,0.0,0.0,0.0,0.0,0.0,0.0,0.0,0.0,0.0,0.0,0.0,0.0,0.0,0.0,0.0,0.0,0.0,0.0,0.0,0.0,0.0,136.63614172189776,35.43241361611033,14.000848062590753,0.0,本巣市温井,本巣市温井,code_in_car30
21403011000,大野町,大字古川,大野町,大字古川,大野町大字古川,,,,,,,,,,,,,,,,,,,,,,,,,,,,,,,,,,,,,,,,,,,,,,,,,,,,,0.0,0.0,0.0,0.0,0.0,0.0,0.0,0.0,0.0,0.0,0.0,0.0,0.0,83.0,0.0,0.0,0.0,0.0,0.0,0.0,0.0,0.0,0.0,0.0,0.0,0.0,136.64212713428003,35.48950085000952,14.175548651394912,83.0,大野町大字古川,大野町古川,code_in_car30
21403014000,大野町,大字稲畑,大野町,大字稲畑,大野町大字稲畑,,,,,,,,,,,,,,,,,,,,,,,,,,,,,,,,,,,,,,,,,,,,,,,,,,,,,0.0,0.0,0.0,0.0,0.0,0.0,0.0,0.0,0.0,0.0,0.0,0.0,0.0,0.0,0.0,0.0,0.0,0.0,0.0,0.0,0.0,0.0,0.0,0.0,59.0,0.0,136.64384667209623,35.4797881426317,14.188834278497122,59.0,大野町大字稲畑,大野町稲畑,code_in_car30
21218061020,本巣市,政田,本巣市,政田,本巣市政田,岐阜県,本巣市,政田,,本巣市政田,21218.0,61020.0,4.0,154.0,4.0,9.0,11.0,3.0,5.0,9.0,5.0,8.0,19.0,14.0,6.0,11.0,11.0,9.0,7.0,10.0,5.0,5.0,2.0,0.0,0.0,0.0,0.0,0.0,0.0,0.0,0.0,0.0,0.0,1.0,1.0,0.0,1.0,1.0,1.0,1.0,1.0,1.0,1.0,0.0,0.0,0.0,9.0,0.0,0.0,0.0,0.0,0.0,50.0,0.0,0.0,0.0,0.0,0.0,0.0,0.0,0.0,0.0,0.0,0.0,0.0,0.0,0.0,0.0,0.0,0.0,0.0,0.0,0.0,136.63971879719276,35.436612775680736,14.190045827616718,50.0,本巣市政田,本巣市政田,code_in_car30
21202144004,大垣市,曽根町四丁目,大垣市,曽根町四丁目,大垣市曽根町四丁目,岐阜県,大垣市,曽根町,四丁目,大垣市曽根町四丁目,21202.0,144004.0,4.0,0.0,0.0,0.0,0.0,0.0,0.0,0.0,0.0,0.0,0.0,0.0,0.0,0.0,0.0,0.0,0.0,0.0,0.0,0.0,0.0,0.0,0.0,0.0,0.0,0.0,0.0,0.0,0.0,0.0,0.0,0.0,0.0,0.0,0.0,0.0,0.0,0.0,0.0,0.0,0.0,0.0,0.0,0.0,0.0,0.0,0.0,0.0,0.0,0.0,0.0,0.0,0.0,0.0,0.0,0.0,0.0,0.0,0.0,0.0,0.0,0.0,0.0,0.0,0.0,0.0,0.0,0.0,0.0,0.0,0.0,136.6227878302454,35.40248986460518,14.22580442707298,0.0,大垣市曽根町四丁目,大垣市曽根町四丁目,code_in_car30
21218064031,本巣市,浅木,本巣市,浅木,本巣市浅木,岐阜県,本巣市,浅木,,本巣市浅木,21218.0,64031.0,4.0,61.0,0.0,0.0,1.0,3.0,3.0,1.0,0.0,1.0,3.0,8.0,5.0,1.0,4.0,7.0,10.0,5.0,4.0,4.0,0.0,1.0,0.0,0.0,0.0,0.0,0.0,0.0,0.0,0.0,0.0,0.0,0.0,0.0,0.0,0.0,1.0,1.0,1.0,0.0,0.0,0.0,0.0,0.0,3.0,0.0,0.0,0.0,0.0,0.0,0.0,0.0,0.0,0.0,0.0,0.0,0.0,0.0,0.0,0.0,0.0,0.0,0.0,0.0,0.0,0.0,0.0,0.0,0.0,0.0,0.0,136.64221945061928,35.44353611912309,14.242905579745962,0.0,本巣市浅木,本巣市浅木,code_in_car30
21218061027,本巣市,政田,本巣市,政田,本巣市政田,岐阜県,本巣市,政田,,本巣市政田,21218.0,61027.0,4.0,0.0,0.0,0.0,0.0,0.0,0.0,0.0,0.0,0.0,0.0,0.0,0.0,0.0,0.0,0.0,0.0,0.0,0.0,0.0,0.0,0.0,0.0,0.0,0.0,0.0,0.0,0.0,0.0,0.0,0.0,0.0,0.0,0.0,0.0,0.0,0.0,0.0,0.0,0.0,0.0,0.0,0.0,0.0,0.0,0.0,0.0,0.0,0.0,0.0,0.0,0.0,0.0,0.0,0.0,0.0,0.0,0.0,0.0,0.0,0.0,0.0,0.0,0.0,0.0,0.0,0.0,0.0,0.0,0.0,0.0,136.64275285216542,35.441564235134464,14.333690404738139,0.0,本巣市政田,本巣市政田,code_in_car30
21216131000,瑞穂市,七崎,瑞穂市,七崎,瑞穂市七崎,,,,,,,,,,,,,,,,,,,,,,,,,,,,,,,,,,,,,,,,,,,,,,,,,,,,,0.0,0.0,0.0,0.0,0.0,0.0,0.0,0.0,0.0,0.0,0.0,0.0,0.0,0.0,0.0,0.0,0.0,0.0,0.0,0.0,0.0,0.0,0.0,0.0,0.0,0.0,136.63684925265102,35.42440132751052,14.338493209468501,0.0,瑞穂市七崎,瑞穂市七崎,code_in_car30
21218061031,本巣市,政田,本巣市,政田,本巣市政田,岐阜県,本巣市,政田,,本巣市政田,21218.0,61031.0,4.0,127.0,1.0,2.0,7.0,9.0,5.0,2.0,2.0,6.0,13.0,10.0,5.0,5.0,7.0,21.0,21.0,7.0,2.0,0.0,2.0,0.0,0.0,0.0,0.0,0.0,0.0,0.0,0.0,0.0,0.0,0.0,0.0,0.0,0.0,0.0,2.0,2.0,1.0,0.0,0.0,0.0,0.0,0.0,5.0,0.0,0.0,0.0,0.0,34.0,0.0,0.0,0.0,0.0,0.0,0.0,0.0,0.0,0.0,0.0,0.0,0.0,0.0,0.0,0.0,0.0,0.0,0.0,0.0,0.0,0.0,136.64328391321632,35.44285433871116,14.352147077198447,34.0,本巣市政田,本巣市政田,code_in_car30
21403030000,大野町,大字下座倉,大野町,大字下座倉,大野町大字下座倉,,,,,,,,,,,,,,,,,,,,,,,,,,,,,,,,,,,,,,,,,,,,,,,,,,,,,0.0,0.0,131.0,0.0,0.0,87.0,0.0,0.0,0.0,0.0,0.0,0.0,0.0,0.0,0.0,0.0,0.0,0.0,0.0,0.0,0.0,0.0,0.0,0.0,0.0,0.0,136.63267853130034,35.41517917937324,14.371033990743731,218.0,大野町大字下座倉,大野町下座倉,code_in_car30
21218061029,本巣市,政田,本巣市,政田,本巣市政田,岐阜県,本巣市,政田,,本巣市政田,21218.0,61029.0,4.0,183.0,1.0,2.0,11.0,9.0,8.0,2.0,2.0,9.0,8.0,11.0,15.0,5.0,10.0,24.0,21.0,20.0,13.0,8.0,3.0,1.0,0.0,0.0,0.0,0.0,0.0,0.0,0.0,0.0,0.0,0.0,0.0,1.0,0.0,1.0,2.0,2.0,2.0,2.0,1.0,0.0,0.0,0.0,11.0,0.0,0.0,0.0,0.0,0.0,0.0,0.0,0.0,0.0,0.0,0.0,0.0,0.0,0.0,0.0,0.0,0.0,0.0,0.0,0.0,0.0,0.0,0.0,0.0,0.0,0.0,136.6432801973996,35.435593093036125,14.530706991364742,0.0,本巣市政田,本巣市政田,code_in_car30
21218061019,本巣市,政田北浦,本巣市,政田北浦,本巣市政田北浦,岐阜県,本巣市,政田,北浦,本巣市政田北浦,21218.0,61019.0,4.0,585.0,20.0,34.0,34.0,35.0,23.0,25.0,37.0,34.0,49.0,42.0,44.0,33.0,40.0,40.0,28.0,27.0,17.0,10.0,8.0,1.0,0.0,1.0,2.0,1.0,1.0,1.0,1.0,1.0,1.0,2.0,2.0,2.0,2.0,3.0,3.0,3.0,3.0,2.0,1.0,1.0,0.0,0.0,33.0,0.0,0.0,0.0,0.0,0.0,0.0,0.0,0.0,0.0,0.0,0.0,0.0,72.0,0.0,192.0,0.0,0.0,0.0,0.0,0.0,0.0,0.0,0.0,0.0,0.0,0.0,136.64427628635627,35.437357179899024,14.571035499419597,264.0,本巣市政田北浦,本巣市政田北浦,code_in_car30
21401035000,揖斐川町,谷汲長瀬,揖斐川町,谷汲長瀬,揖斐川町谷汲長瀬,,,,,,,,,,,,,,,,,,,,,,,,,,,,,,,,,,,,,,,,,,,,,,,,,,,,,0.0,0.0,0.0,0.0,0.0,0.0,0.0,0.0,0.0,0.0,0.0,0.0,0.0,0.0,0.0,73.0,0.0,0.0,0.0,0.0,0.0,0.0,69.0,0.0,0.0,0.0,136.63471154745605,35.52188217294978,14.588572079571403,142.0,揖斐川町谷汲長瀬,揖斐川町谷汲長瀬,code_in_car30
21218045002,本巣市,屋井,本巣市,屋井,本巣市屋井,岐阜県,本巣市,屋井,,本巣市屋井,21218.0,45002.0,4.0,434.0,17.0,14.0,31.0,49.0,18.0,27.0,16.0,23.0,35.0,50.0,29.0,22.0,26.0,19.0,24.0,15.0,12.0,5.0,0.0,2.0,0.0,1.0,1.0,1.0,1.0,0.0,1.0,1.0,1.0,1.0,2.0,1.0,1.0,2.0,2.0,2.0,2.0,1.0,1.0,0.0,0.0,0.0,22.0,0.0,0.0,0.0,0.0,0.0,0.0,0.0,0.0,0.0,0.0,0.0,0.0,0.0,0.0,0.0,0.0,0.0,0.0,0.0,0.0,0.0,0.0,0.0,0.0,0.0,0.0,136.64799247743548,35.452431518828206,14.60660755280429,0.0,本巣市屋井,本巣市屋井,code_in_car30
21218061017,本巣市,政田,本巣市,政田,本巣市政田,岐阜県,本巣市,政田,,本巣市政田,21218.0,61017.0,4.0,121.0,1.0,4.0,3.0,7.0,7.0,4.0,8.0,8.0,6.0,10.0,9.0,5.0,15.0,10.0,10.0,4.0,4.0,1.0,5.0,0.0,0.0,0.0,0.0,0.0,0.0,0.0,0.0,0.0,0.0,0.0,0.0,0.0,0.0,1.0,1.0,1.0,0.0,0.0,0.0,1.0,0.0,0.0,4.0,0.0,0.0,0.0,0.0,0.0,0.0,0.0,0.0,0.0,0.0,0.0,0.0,0.0,0.0,0.0,0.0,0.0,0.0,0.0,0.0,0.0,0.0,0.0,0.0,0.0,0.0,136.64836353305822,35.44518641901934,14.756972231540757,0.0,本巣市政田,本巣市政田,code_in_car30
21218045001,本巣市,屋井,本巣市,屋井,本巣市屋井,岐阜県,本巣市,屋井,,本巣市屋井,21218.0,45001.0,4.0,353.0,22.0,19.0,12.0,23.0,17.0,9.0,23.0,28.0,19.0,30.0,19.0,14.0,21.0,28.0,39.0,12.0,7.0,6.0,3.0,2.0,0.0,1.0,1.0,0.0,1.0,0.0,0.0,1.0,1.0,1.0,1.0,1.0,1.0,1.0,2.0,4.0,1.0,1.0,1.0,0.0,0.0,0.0,19.0,0.0,0.0,0.0,0.0,0.0,0.0,0.0,0.0,0.0,0.0,0.0,0.0,0.0,0.0,0.0,0.0,0.0,0.0,0.0,0.0,0.0,0.0,0.0,0.0,0.0,0.0,136.65094584228294,35.459292066254854,14.802825755543676,0.0,本巣市屋井,本巣市屋井,code_in_car30
21218061018,本巣市,政田,本巣市,政田,本巣市政田,岐阜県,本巣市,政田,,本巣市政田,21218.0,61018.0,4.0,445.0,17.0,19.0,35.0,29.0,27.0,17.0,26.0,23.0,26.0,37.0,38.0,24.0,20.0,21.0,29.0,29.0,12.0,10.0,5.0,1.0,0.0,1.0,1.0,1.0,1.0,1.0,0.0,1.0,1.0,1.0,1.0,2.0,1.0,1.0,2.0,3.0,3.0,1.0,1.0,1.0,0.0,0.0,24.0,0.0,0.0,0.0,0.0,183.0,0.0,0.0,0.0,0.0,0.0,0.0,0.0,0.0,0.0,0.0,0.0,0.0,0.0,0.0,0.0,0.0,0.0,0.0,0.0,0.0,0.0,136.64842849959652,35.4411128258909,14.84732872761628,183.0,本巣市政田,本巣市政田,code_in_car30
21381008000,神戸町,大字落合,神戸町,大字落合,神戸町大字落合,,,,,,,,,,,,,,,,,,,,,,,,,,,,,,,,,,,,,,,,,,,,,,,,,,,,,0.0,0.0,0.0,0.0,0.0,0.0,0.0,0.0,0.0,0.0,0.0,0.0,0.0,0.0,0.0,0.0,0.0,0.0,0.0,0.0,0.0,0.0,0.0,0.0,0.0,0.0,136.63305558544826,35.40584655012426,14.85556893102671,0.0,神戸町大字落合,神戸町落合,code_in_car30
21218061022,本巣市,政田,本巣市,政田,本巣市政田,岐阜県,本巣市,政田,,本巣市政田,21218.0,61022.0,4.0,585.0,29.0,29.0,34.0,39.0,40.0,50.0,33.0,37.0,45.0,51.0,38.0,36.0,20.0,26.0,25.0,23.0,16.0,7.0,2.0,0.0,0.0,1.0,2.0,1.0,1.0,1.0,1.0,1.0,1.0,2.0,2.0,2.0,2.0,1.0,2.0,2.0,3.0,2.0,1.0,0.0,0.0,0.0,28.0,0.0,0.0,0.0,0.0,0.0,0.0,0.0,0.0,0.0,0.0,0.0,0.0,0.0,0.0,0.0,0.0,0.0,0.0,0.0,0.0,0.0,0.0,0.0,0.0,0.0,0.0,136.6456256046607,35.429917826935664,14.903537128079082,0.0,本巣市政田,本巣市政田,code_in_car30
21401047000,揖斐川町,小津,揖斐川町,小津,揖斐川町小津,,,,,,,,,,,,,,,,,,,,,,,,,,,,,,,,,,,,,,,,,,,,,,,,,,,,,0.0,0.0,0.0,0.0,0.0,0.0,0.0,0.0,0.0,0.0,0.0,0.0,0.0,0.0,0.0,0.0,0.0,0.0,0.0,0.0,0.0,0.0,0.0,0.0,0.0,0.0,136.53355600435498,35.59669521116222,14.907005944770482,0.0,揖斐川町小津,揖斐川町小津,code_in_car30
21218061028,本巣市,政田,本巣市,政田,本巣市政田,岐阜県,本巣市,政田,,本巣市政田,21218.0,61028.0,4.0,113.0,6.0,14.0,9.0,14.0,6.0,4.0,7.0,6.0,7.0,8.0,7.0,1.0,2.0,6.0,7.0,5.0,4.0,0.0,0.0,0.0,0.0,0.0,1.0,0.0,0.0,0.0,0.0,0.0,0.0,0.0,0.0,0.0,0.0,0.0,0.0,1.0,1.0,0.0,0.0,0.0,0.0,0.0,3.0,0.0,0.0,0.0,0.0,0.0,0.0,0.0,0.0,0.0,0.0,0.0,0.0,0.0,0.0,0.0,0.0,0.0,0.0,0.0,0.0,0.0,0.0,0.0,0.0,0.0,0.0,136.64701446149903,35.43341137219636,14.919388646552004,0.0,本巣市政田,本巣市政田,code_in_car30
21218061021,本巣市,政田,本巣市,政田,本巣市政田,岐阜県,本巣市,政田,,本巣市政田,21218.0,61021.0,4.0,462.0,31.0,24.0,29.0,35.0,22.0,20.0,22.0,39.0,42.0,44.0,36.0,19.0,24.0,18.0,14.0,16.0,8.0,10.0,3.0,0.0,0.0,1.0,1.0,1.0,1.0,1.0,1.0,1.0,1.0,1.0,2.0,2.0,1.0,2.0,1.0,1.0,2.0,1.0,1.0,0.0,0.0,0.0,22.0,0.0,0.0,0.0,0.0,91.0,0.0,0.0,0.0,0.0,0.0,0.0,0.0,0.0,0.0,0.0,0.0,0.0,0.0,0.0,0.0,0.0,0.0,0.0,0.0,0.0,0.0,136.64857056595775,35.43533450553568,15.002438775188901,91.0,本巣市政田,本巣市政田,code_in_car30
21216132000,瑞穂市,居倉,瑞穂市,居倉,瑞穂市居倉,,,,,,,,,,,,,,,,,,,,,,,,,,,,,,,,,,,,,,,,,,,,,,,,,,,,,0.0,0.0,0.0,0.0,0.0,0.0,0.0,0.0,0.0,0.0,0.0,0.0,0.0,0.0,0.0,0.0,0.0,0.0,0.0,0.0,0.0,0.0,0.0,0.0,0.0,0.0,136.6435026216578,35.41994822877985,15.075557622231175,0.0,瑞穂市居倉,瑞穂市居倉,code_in_car30
21381007000,神戸町,大字柳瀬,神戸町,大字柳瀬,神戸町大字柳瀬,,,,,,,,,,,,,,,,,,,,,,,,,,,,,,,,,,,,,,,,,,,,,,,,,,,,,0.0,0.0,0.0,0.0,0.0,201.0,0.0,0.0,0.0,0.0,0.0,0.0,36.0,0.0,0.0,0.0,0.0,0.0,0.0,0.0,0.0,0.0,0.0,0.0,0.0,0.0,136.6292393894414,35.39538998282081,15.137007671551025,237.0,神戸町大字柳瀬,神戸町柳瀬,code_in_car30
21403010000,大野町,大字稲富,大野町,大字稲富,大野町大字稲富,,,,,,,,,,,,,,,,,,,,,,,,,,,,,,,,,,,,,,,,,,,,,,,,,,,,,0.0,0.0,0.0,0.0,0.0,0.0,41.0,0.0,0.0,57.0,0.0,0.0,0.0,89.0,490.0,0.0,409.0,0.0,0.0,0.0,0.0,0.0,40.0,60.0,83.0,0.0,136.65227158041645,35.493432033747794,15.157051989312974,1269.0,大野町大字稲富,大野町稲富,code_in_car30
21218062000,本巣市,下福島,本巣市,下福島,本巣市下福島,,,,,,,,,,,,,,,,,,,,,,,,,,,,,,,,,,,,,,,,,,,,,,,,,,,,,0.0,0.0,0.0,0.0,0.0,0.0,0.0,0.0,0.0,0.0,0.0,0.0,0.0,0.0,0.0,0.0,0.0,0.0,0.0,0.0,0.0,0.0,0.0,0.0,0.0,0.0,136.64918398957667,35.4246252426369,15.387152636064583,0.0,本巣市下福島,本巣市下福島,code_in_car30
21381009000,神戸町,大字斉田,神戸町,大字斉田,神戸町大字斉田,,,,,,,,,,,,,,,,,,,,,,,,,,,,,,,,,,,,,,,,,,,,,,,,,,,,,0.0,0.0,0.0,0.0,0.0,478.0,0.0,0.0,77.0,0.0,0.0,0.0,38.0,0.0,0.0,0.0,0.0,0.0,0.0,0.0,0.0,0.0,0.0,0.0,0.0,0.0,136.63741127873183,35.39747164801528,15.651324780062014,593.0,神戸町大字斉田,神戸町斉田,code_in_car30
21218057000,本巣市,軽海,本巣市,軽海,本巣市軽海,,,,,,,,,,,,,,,,,,,,,,,,,,,,,,,,,,,,,,,,,,,,,,,,,,,,,0.0,0.0,0.0,0.0,0.0,0.0,0.0,0.0,0.0,0.0,0.0,0.0,0.0,0.0,0.0,0.0,0.0,0.0,0.0,0.0,0.0,0.0,0.0,0.0,0.0,0.0,136.6587777315239,35.429863233929034,16.051217993037522,0.0,本巣市軽海,本巣市軽海,code_in_car30
21216145000,瑞穂市,呂久,瑞穂市,呂久,瑞穂市呂久,,,,,,,,,,,,,,,,,,,,,,,,,,,,,,,,,,,,,,,,,,,,,,,,,,,,,0.0,0.0,0.0,0.0,0.0,94.0,0.0,0.0,0.0,0.0,0.0,0.0,0.0,0.0,0.0,0.0,0.0,0.0,0.0,0.0,0.0,0.0,0.0,0.0,0.0,0.0,136.64377243711374,35.39286860283307,16.40749934041434,94.0,瑞穂市呂久,瑞穂市呂久,code_in_car30
21218058000,本巣市,十四条,本巣市,十四条,本巣市十四条,,,,,,,,,,,,,,,,,,,,,,,,,,,,,,,,,,,,,,,,,,,,,,,,,,,,,0.0,0.0,0.0,0.0,0.0,0.0,0.0,0.0,0.0,0.0,0.0,0.0,0.0,0.0,0.0,0.0,0.0,0.0,0.0,0.0,0.0,0.0,0.0,0.0,0.0,0.0,136.66267795840676,35.42408068197279,16.570382737050892,0.0,本巣市十四条,本巣市十四条,code_in_car30
21401054000,揖斐川町,東杉原,揖斐川町,東杉原,揖斐川町東杉原,,,,,,,,,,,,,,,,,,,,,,,,,,,,,,,,,,,,,,,,,,,,,,,,,,,,,0.0,0.0,0.0,0.0,0.0,0.0,0.0,0.0,0.0,0.0,0.0,0.0,0.0,0.0,0.0,0.0,0.0,0.0,0.0,0.0,0.0,0.0,0.0,0.0,0.0,0.0,136.49988922938806,35.62481866741526,17.482742249254414,0.0,揖斐川町東杉原,揖斐川町東杉原,code_in_car30
