town_name_show,CITY_NAME_from_master,S_NAME_from_master,TOWN_CODE_11,dist_km,LON,LAT,医療法人徳洲会 大垣徳洲会病院,岐阜清流病院,ふじい内科クリニック,大垣中央病院,医療法人静風会 大垣病院,網代診療所,大垣市民病院,ほづみ耳鼻咽喉科クリニック,医療法人社団誠広会 平野総合病院,大垣バイパス医院,医療法人社団幸紀会 安江病院,野口整形外科内科医院,のだ医院,医療法人社団橘会 新生病院,赤坂あきたクリニック,国枝医院 瑞穂市,さくらクリニック,かんべ内科クリニック,まくわクリニック,いろは在宅ケアクリニック,はやかわクリニック,大垣セントラルクリニック,しまメンタルクリニック,シブヤ皮フ科・内科クリニック,三城クリニック,井口クリニック,しずさと診療所,沼口医院,田辺内科医院,まつながファミリークリニック,医療法人守田クリニック,名和病院,岐北クリニック,梅田クリニック,なかしま医院,小林医院,和田医院,福田内科医院,えさきクリニック,のぎの森クリニック,堀部クリニック,社会福祉法人和光会 和光会在宅クリニック大垣,朝日大学医科歯科医療センター,大橋医院,医療法人和光会 山田病院,大井内科クリニック,サンシャインM&Dクリニック,森外科医院,北方ひまわりクリニック,いかわクリニック,しま医院,東堀クリニック,おおくま内科クリニック,むらせファミリークリニック,またまるこどもアレルギークリニック,野原クリニック,国枝医院 本巣市,こじま内科クリニック,かわごえクリニック,揖斐川町春日診療所
揖斐川町三輪,揖斐川町,三輪,21401006000,0.3906613423062943,136.57378780112538,35.4863832427931,400.0,0.0,309.0,0.0,88.0,159.0,174.0,0.0,0.0,0.0,103.0,94.0,3458.0,0.0,0.0,0.0,0.0,0.0,0.0,86.0,0.0,0.0,0.0,0.0,0.0,149.0,0.0,0.0,0.0,0.0,0.0,0.0,147.0,0.0,0.0,689.0,0.0,0.0,157.0,0.0,0.0,0.0,0.0,0.0,0.0,0.0,76.0,0.0,0.0,0.0,0.0,0.0,0.0,175.0,0.0,841.0,0.0,0.0,0.0,375.0
揖斐川町下岡島,揖斐川町,下岡島,21401012000,0.49859466020959675,136.57268509446138,35.47852215522462,0.0,0.0,0.0,0.0,0.0,0.0,0.0,0.0,0.0,0.0,0.0,0.0,0.0,0.0,0.0,0.0,0.0,0.0,0.0,0.0,0.0,0.0,0.0,0.0,0.0,0.0,0.0,0.0,0.0,0.0,0.0,0.0,0.0,0.0,0.0,0.0,0.0,0.0,0.0,0.0,0.0,0.0,0.0,0.0,0.0,0.0,0.0,0.0,0.0,0.0,0.0,0.0,0.0,0.0,0.0,0.0,0.0,0.0,0.0,0.0
揖斐川町上岡島,揖斐川町,上岡島,21401013001,0.6345786478081427,136.5674698740775,35.480821714030434,0.0,0.0,0.0,0.0,0.0,0.0,0.0,0.0,0.0,0.0,0.0,0.0,176.0,0.0,0.0,0.0,0.0,0.0,0.0,0.0,0.0,0.0,0.0,16.0,0.0,0.0,0.0,0.0,0.0,0.0,0.0,0.0,0.0,0.0,0.0,0.0,0.0,0.0,0.0,0.0,0.0,0.0,16.0,0.0,0.0,0.0,0.0,0.0,0.0,0.0,0.0,0.0,0.0,0.0,0.0,51.0,0.0,0.0,0.0,0.0
揖斐川町上ミ野,揖斐川町,上ミ野,21401011000,0.6733726097175682,136.57968028222518,35.478957218626434,0.0,114.0,0.0,0.0,0.0,146.0,0.0,0.0,0.0,0.0,0.0,0.0,0.0,0.0,0.0,0.0,0.0,0.0,0.0,0.0,0.0,0.0,0.0,0.0,0.0,0.0,0.0,0.0,0.0,0.0,0.0,0.0,0.0,0.0,0.0,0.0,0.0,0.0,0.0,0.0,0.0,0.0,0.0,0.0,0.0,0.0,0.0,0.0,0.0,0.0,0.0,0.0,0.0,0.0,0.0,0.0,0.0,0.0,0.0,0.0
揖斐川町極楽寺,揖斐川町,極楽寺,21401002000,1.0868900552424752,136.5700729394865,35.492108816945375,0.0,0.0,73.0,0.0,0.0,0.0,0.0,0.0,0.0,0.0,0.0,0.0,385.0,0.0,0.0,0.0,0.0,0.0,0.0,0.0,0.0,0.0,0.0,278.0,0.0,0.0,0.0,0.0,0.0,0.0,0.0,0.0,0.0,0.0,0.0,0.0,0.0,0.0,0.0,0.0,0.0,0.0,0.0,0.0,0.0,0.0,0.0,0.0,73.0,0.0,0.0,0.0,0.0,0.0,0.0,0.0,0.0,0.0,0.0,0.0
揖斐川町上東野,揖斐川町,上東野,21401019000,1.12655410693531,136.5616321344348,35.48184120174897,0.0,0.0,0.0,0.0,0.0,0.0,0.0,0.0,0.0,0.0,0.0,0.0,662.0,0.0,0.0,0.0,0.0,0.0,0.0,0.0,0.0,0.0,0.0,0.0,0.0,0.0,0.0,0.0,0.0,0.0,0.0,0.0,251.0,0.0,0.0,52.0,0.0,0.0,0.0,0.0,0.0,0.0,0.0,0.0,0.0,0.0,0.0,0.0,0.0,0.0,0.0,0.0,0.0,0.0,0.0,0.0,83.0,0.0,0.0,0.0
揖斐川町上岡島,揖斐川町,上岡島,21401013002,1.1477244847691535,136.56225303274977,35.47901525674263,0.0,0.0,58.0,0.0,0.0,0.0,0.0,0.0,0.0,0.0,0.0,0.0,273.0,39.0,0.0,0.0,0.0,0.0,0.0,0.0,0.0,0.0,0.0,0.0,0.0,0.0,0.0,0.0,0.0,0.0,0.0,0.0,0.0,0.0,0.0,0.0,0.0,0.0,0.0,0.0,0.0,0.0,0.0,0.0,0.0,0.0,0.0,0.0,0.0,0.0,0.0,0.0,0.0,38.0,0.0,0.0,0.0,0.0,0.0,0.0
揖斐川町大光寺,揖斐川町,大光寺,21401007000,1.2150701763530305,136.57860231517122,35.49314200138638,0.0,0.0,0.0,0.0,0.0,0.0,0.0,0.0,0.0,0.0,0.0,0.0,0.0,0.0,0.0,0.0,0.0,0.0,0.0,0.0,0.0,0.0,0.0,0.0,0.0,0.0,0.0,0.0,0.0,0.0,0.0,0.0,0.0,0.0,0.0,59.0,0.0,0.0,0.0,0.0,0.0,0.0,0.0,0.0,0.0,0.0,0.0,0.0,0.0,0.0,0.0,0.0,0.0,0.0,0.0,321.0,0.0,0.0,0.0,0.0
揖斐川町和田,揖斐川町,和田,21401028000,1.218813867623253,136.56409722586085,35.47545869057872,0.0,0.0,0.0,0.0,1619.0,0.0,0.0,0.0,0.0,0.0,0.0,0.0,136.0,0.0,0.0,0.0,0.0,0.0,0.0,0.0,0.0,0.0,0.0,0.0,0.0,0.0,0.0,0.0,0.0,0.0,0.0,0.0,0.0,0.0,0.0,136.0,0.0,0.0,340.0,0.0,0.0,0.0,0.0,0.0,206.0,0.0,0.0,0.0,0.0,0.0,0.0,0.0,0.0,0.0,0.0,161.0,0.0,0.0,0.0,0.0
揖斐川町志津山,揖斐川町,志津山,21401010000,1.2910496639448665,136.5882475602366,35.48349324714163,0.0,0.0,125.0,0.0,0.0,0.0,0.0,0.0,0.0,0.0,0.0,0.0,0.0,0.0,0.0,0.0,0.0,0.0,0.0,0.0,0.0,0.0,0.0,0.0,0.0,0.0,0.0,0.0,0.0,0.0,0.0,0.0,0.0,0.0,0.0,0.0,0.0,0.0,0.0,0.0,0.0,0.0,0.0,0.0,0.0,0.0,0.0,0.0,0.0,0.0,0.0,0.0,0.0,0.0,0.0,87.0,0.0,0.0,0.0,0.0
揖斐川町脛永,揖斐川町,脛永,21401018000,1.5965496483286241,136.57775626108108,35.468844493860146,1093.0,0.0,932.0,0.0,0.0,0.0,122.0,0.0,0.0,0.0,0.0,0.0,1103.0,760.0,317.0,0.0,0.0,0.0,0.0,136.0,0.0,0.0,0.0,0.0,0.0,0.0,0.0,0.0,0.0,0.0,0.0,0.0,181.0,0.0,0.0,0.0,0.0,0.0,0.0,122.0,0.0,0.0,122.0,0.0,0.0,0.0,0.0,0.0,0.0,337.0,0.0,0.0,0.0,0.0,0.0,274.0,0.0,0.0,0.0,0.0
揖斐川町小野,揖斐川町,小野,21401009000,1.6338529767347312,136.589631225431,35.49022942771242,0.0,0.0,0.0,0.0,0.0,0.0,0.0,0.0,0.0,0.0,0.0,0.0,0.0,0.0,0.0,0.0,0.0,0.0,0.0,0.0,0.0,0.0,0.0,0.0,0.0,0.0,0.0,0.0,0.0,0.0,0.0,0.0,0.0,0.0,0.0,0.0,0.0,0.0,0.0,0.0,0.0,0.0,0.0,0.0,0.0,0.0,0.0,0.0,0.0,0.0,0.0,0.0,0.0,0.0,0.0,0.0,0.0,0.0,0.0,0.0
揖斐川町長良,揖斐川町,長良,21401014000,1.6419961375067107,136.58935747758707,35.47501054635828,0.0,0.0,0.0,0.0,0.0,0.0,0.0,0.0,0.0,0.0,0.0,0.0,0.0,0.0,0.0,0.0,0.0,0.0,0.0,0.0,0.0,0.0,0.0,0.0,0.0,0.0,0.0,0.0,0.0,0.0,0.0,0.0,44.0,0.0,0.0,0.0,0.0,0.0,0.0,0.0,0.0,0.0,0.0,0.0,0.0,0.0,0.0,0.0,0.0,0.0,0.0,0.0,0.0,0.0,0.0,92.0,0.0,0.0,0.0,0.0
揖斐川町小谷,揖斐川町,小谷,21401008000,1.7161665905576275,136.58494580271775,35.49548033640397,0.0,0.0,0.0,0.0,0.0,0.0,0.0,0.0,0.0,0.0,0.0,0.0,0.0,0.0,0.0,0.0,0.0,0.0,0.0,0.0,0.0,0.0,0.0,0.0,0.0,0.0,0.0,0.0,0.0,0.0,0.0,0.0,0.0,0.0,0.0,0.0,0.0,0.0,0.0,0.0,0.0,0.0,0.0,0.0,0.0,0.0,0.0,0.0,0.0,0.0,0.0,0.0,0.0,0.0,0.0,0.0,0.0,0.0,0.0,0.0
揖斐川町岡,揖斐川町,岡,21401027000,1.90690968146597,136.55593837443644,35.47406848644642,0.0,0.0,162.0,0.0,0.0,0.0,0.0,0.0,0.0,0.0,0.0,0.0,93.0,0.0,0.0,0.0,0.0,0.0,0.0,0.0,0.0,0.0,0.0,0.0,0.0,0.0,0.0,0.0,0.0,0.0,0.0,0.0,0.0,0.0,0.0,0.0,0.0,0.0,0.0,0.0,0.0,0.0,0.0,0.0,0.0,0.0,0.0,0.0,0.0,0.0,0.0,0.0,0.0,53.0,0.0,0.0,0.0,0.0,0.0,0.0
池田町沓井,池田町,沓井,21404023000,2.0129286476566737,136.56022253676517,35.46867400568561,861.0,0.0,1874.0,0.0,0.0,0.0,0.0,0.0,0.0,0.0,0.0,0.0,1098.0,57.0,0.0,0.0,0.0,0.0,53.0,0.0,0.0,0.0,0.0,0.0,0.0,0.0,0.0,0.0,0.0,0.0,523.0,0.0,0.0,0.0,0.0,290.0,0.0,0.0,0.0,0.0,0.0,0.0,0.0,0.0,0.0,0.0,0.0,0.0,120.0,0.0,0.0,0.0,0.0,321.0,0.0,0.0,0.0,0.0,0.0,50.0
揖斐川町新宮,揖斐川町,新宮,21401026000,2.068970162353977,136.5518540631339,35.478321950466615,413.0,0.0,74.0,0.0,0.0,0.0,0.0,0.0,189.0,0.0,0.0,0.0,1377.0,0.0,0.0,0.0,0.0,0.0,0.0,80.0,0.0,0.0,0.0,0.0,0.0,0.0,0.0,0.0,0.0,0.0,0.0,0.0,0.0,0.0,60.0,538.0,0.0,0.0,0.0,0.0,0.0,82.0,0.0,0.0,0.0,0.0,0.0,0.0,70.0,0.0,0.0,0.0,0.0,0.0,0.0,0.0,0.0,0.0,0.0,0.0
揖斐川町房島,揖斐川町,房島,21401005000,2.1396321077090676,136.55257882036517,35.49098462744341,55.0,0.0,297.0,0.0,0.0,0.0,0.0,0.0,0.0,0.0,0.0,113.0,1601.0,0.0,97.0,0.0,0.0,0.0,0.0,0.0,0.0,0.0,0.0,0.0,0.0,0.0,0.0,0.0,0.0,0.0,0.0,0.0,0.0,0.0,0.0,258.0,0.0,0.0,0.0,0.0,0.0,91.0,0.0,0.0,0.0,0.0,0.0,0.0,0.0,0.0,0.0,0.0,0.0,0.0,0.0,0.0,0.0,0.0,0.0,201.0
揖斐川町上南方,揖斐川町,上南方,21401003000,2.156796557305634,136.57174408297914,35.50218321340659,925.0,0.0,133.0,0.0,0.0,94.0,0.0,0.0,0.0,0.0,0.0,0.0,2755.0,593.0,83.0,0.0,0.0,0.0,0.0,0.0,0.0,0.0,0.0,0.0,0.0,0.0,0.0,0.0,0.0,0.0,169.0,0.0,0.0,0.0,0.0,55.0,0.0,0.0,0.0,0.0,0.0,0.0,0.0,0.0,0.0,0.0,0.0,0.0,61.0,0.0,0.0,0.0,0.0,0.0,0.0,225.0,0.0,0.0,0.0,0.0
揖斐川町島,揖斐川町,島,21401017000,2.271156766157529,136.59022739580791,35.46729454041339,117.0,0.0,83.0,0.0,0.0,0.0,0.0,0.0,0.0,0.0,0.0,0.0,0.0,0.0,0.0,0.0,0.0,0.0,0.0,0.0,0.0,0.0,0.0,0.0,0.0,0.0,0.0,0.0,0.0,0.0,0.0,0.0,0.0,0.0,0.0,0.0,0.0,0.0,0.0,0.0,0.0,0.0,0.0,0.0,0.0,0.0,0.0,0.0,0.0,0.0,0.0,0.0,0.0,0.0,0.0,317.0,0.0,0.0,0.0,0.0
池田町粕ケ原,池田町,粕ケ原,21404021000,2.36779173146916,136.5677613953637,35.46219735613626,0.0,0.0,986.0,0.0,398.0,210.0,0.0,0.0,0.0,0.0,0.0,0.0,124.0,421.0,0.0,0.0,0.0,83.0,0.0,0.0,0.0,0.0,0.0,0.0,0.0,0.0,0.0,0.0,0.0,125.0,0.0,0.0,0.0,0.0,0.0,67.0,0.0,0.0,0.0,136.0,0.0,0.0,0.0,70.0,0.0,0.0,69.0,0.0,0.0,0.0,0.0,0.0,0.0,68.0,0.0,82.0,0.0,0.0,0.0,0.0
揖斐川町小島,揖斐川町,小島,21401020000,2.3873322383450777,136.5476467191072,35.48324619623047,0.0,0.0,165.0,0.0,0.0,141.0,0.0,0.0,0.0,0.0,0.0,0.0,0.0,0.0,119.0,0.0,0.0,0.0,0.0,0.0,0.0,0.0,0.0,0.0,0.0,0.0,0.0,0.0,0.0,0.0,0.0,0.0,0.0,0.0,0.0,168.0,0.0,0.0,0.0,0.0,0.0,0.0,0.0,0.0,0.0,0.0,0.0,0.0,0.0,0.0,0.0,0.0,0.0,0.0,0.0,119.0,0.0,129.0,0.0,0.0
揖斐川町黒田,揖斐川町,黒田,21401025000,2.487832552977959,136.5490708665649,35.47348533650667,0.0,0.0,1148.0,0.0,0.0,0.0,0.0,0.0,0.0,0.0,0.0,0.0,0.0,0.0,0.0,0.0,0.0,0.0,0.0,0.0,0.0,0.0,0.0,0.0,0.0,0.0,0.0,0.0,0.0,0.0,0.0,0.0,0.0,0.0,0.0,1320.0,0.0,0.0,0.0,0.0,0.0,0.0,0.0,0.0,0.0,0.0,0.0,0.0,0.0,0.0,0.0,0.0,0.0,0.0,0.0,0.0,0.0,0.0,0.0,167.0
大野町大字牛洞,大野町,大字牛洞,21403015000,2.711483695102256,136.60385200332328,35.48490263571469,0.0,0.0,0.0,0.0,0.0,52.0,0.0,41.0,52.0,0.0,0.0,0.0,47.0,99.0,0.0,0.0,0.0,0.0,0.0,0.0,0.0,0.0,0.0,0.0,0.0,0.0,0.0,0.0,0.0,0.0,0.0,0.0,50.0,0.0,0.0,0.0,0.0,0.0,0.0,0.0,0.0,0.0,0.0,0.0,131.0,0.0,0.0,0.0,0.0,0.0,0.0,35.0,0.0,0.0,0.0,140.0,45.0,0.0,0.0,0.0
大野町大字松山,大野町,大字松山,21403016000,2.7951761823087504,136.60405543335432,35.47710822972656,0.0,0.0,0.0,0.0,0.0,0.0,0.0,0.0,0.0,0.0,0.0,0.0,0.0,0.0,0.0,0.0,0.0,0.0,0.0,0.0,91.0,0.0,0.0,0.0,0.0,0.0,0.0,0.0,0.0,0.0,0.0,0.0,84.0,0.0,0.0,0.0,0.0,0.0,0.0,0.0,0.0,0.0,0.0,0.0,0.0,0.0,0.0,0.0,0.0,0.0,0.0,0.0,0.0,0.0,0.0,0.0,0.0,0.0,0.0,0.0
揖斐川町清水,揖斐川町,清水,21401015000,2.79806457074486,136.5999989489561,35.46926405866448,234.0,0.0,175.0,0.0,0.0,0.0,0.0,0.0,0.0,72.0,0.0,0.0,475.0,0.0,0.0,0.0,0.0,0.0,0.0,0.0,0.0,0.0,0.0,0.0,0.0,0.0,0.0,0.0,0.0,0.0,0.0,0.0,0.0,0.0,0.0,66.0,0.0,0.0,0.0,0.0,0.0,0.0,0.0,0.0,0.0,0.0,0.0,0.0,0.0,0.0,0.0,0.0,0.0,0.0,0.0,1418.0,0.0,0.0,0.0,0.0
池田町田中,池田町,田中,21404022000,2.8105088518363903,136.56385274469972,35.45899082794895,164.0,0.0,286.0,0.0,0.0,0.0,0.0,0.0,0.0,0.0,0.0,130.0,0.0,0.0,0.0,0.0,0.0,0.0,0.0,0.0,0.0,0.0,0.0,0.0,0.0,0.0,0.0,0.0,0.0,0.0,0.0,0.0,0.0,0.0,0.0,0.0,0.0,0.0,0.0,0.0,0.0,0.0,0.0,0.0,0.0,0.0,0.0,0.0,0.0,0.0,0.0,0.0,0.0,0.0,0.0,0.0,0.0,0.0,0.0,0.0
揖斐川町福島,揖斐川町,福島,21401016000,3.0182778414604,136.5971296602027,35.463323080909,0.0,0.0,0.0,0.0,0.0,0.0,0.0,0.0,0.0,0.0,0.0,0.0,227.0,0.0,0.0,0.0,0.0,0.0,0.0,0.0,0.0,0.0,0.0,0.0,0.0,0.0,0.0,0.0,0.0,0.0,0.0,0.0,0.0,0.0,0.0,0.0,0.0,0.0,0.0,0.0,0.0,0.0,0.0,0.0,0.0,0.0,0.0,0.0,0.0,0.0,0.0,0.0,0.0,0.0,0.0,0.0,0.0,0.0,0.0,0.0
池田町杉野,池田町,杉野,21404044000,3.059569468046168,136.5901506194724,35.458702677501016,0.0,0.0,271.0,0.0,0.0,0.0,0.0,0.0,0.0,0.0,0.0,0.0,0.0,134.0,0.0,0.0,0.0,0.0,0.0,0.0,0.0,0.0,0.0,0.0,0.0,0.0,0.0,0.0,0.0,0.0,0.0,0.0,0.0,0.0,0.0,0.0,0.0,0.0,0.0,0.0,0.0,0.0,0.0,0.0,0.0,0.0,0.0,0.0,0.0,0.0,0.0,0.0,0.0,57.0,0.0,0.0,0.0,0.0,0.0,0.0
揖斐川町若松,揖斐川町,若松,21401004000,3.2244836459404533,136.5645787084904,35.51083815162319,0.0,0.0,64.0,0.0,0.0,0.0,0.0,0.0,0.0,0.0,0.0,0.0,714.0,0.0,0.0,0.0,0.0,0.0,0.0,0.0,0.0,0.0,0.0,0.0,0.0,0.0,0.0,0.0,0.0,0.0,0.0,0.0,0.0,0.0,0.0,0.0,0.0,0.0,0.0,0.0,0.0,0.0,0.0,0.0,0.0,0.0,0.0,0.0,0.0,0.0,0.0,0.0,0.0,0.0,0.0,117.0,0.0,0.0,0.0,0.0
揖斐川町谷汲深坂,揖斐川町,谷汲深坂,21401029000,3.3355212477610023,136.60166668267897,35.502692212192805,56.0,0.0,0.0,0.0,199.0,0.0,0.0,0.0,0.0,0.0,0.0,0.0,67.0,0.0,0.0,0.0,0.0,0.0,37.0,0.0,0.0,0.0,0.0,0.0,0.0,0.0,0.0,0.0,0.0,198.0,0.0,0.0,0.0,0.0,89.0,75.0,0.0,0.0,0.0,0.0,0.0,0.0,0.0,0.0,0.0,0.0,0.0,0.0,0.0,0.0,0.0,52.0,0.0,0.0,0.0,124.0,0.0,0.0,0.0,75.0
池田町萩原,池田町,萩原,21404047000,3.349180197585392,136.5744499970509,35.45275685102199,66.0,0.0,948.0,54.0,0.0,105.0,0.0,0.0,0.0,0.0,0.0,0.0,0.0,1380.0,0.0,0.0,0.0,0.0,0.0,0.0,0.0,0.0,0.0,0.0,0.0,0.0,0.0,0.0,0.0,0.0,69.0,0.0,0.0,0.0,0.0,51.0,0.0,0.0,0.0,0.0,0.0,0.0,0.0,0.0,0.0,0.0,0.0,0.0,0.0,0.0,0.0,0.0,0.0,303.0,0.0,0.0,0.0,0.0,0.0,0.0
池田町段,池田町,段,21404013000,3.3569044676441644,136.5456951281188,35.46338871404058,169.0,0.0,40.0,0.0,0.0,0.0,0.0,0.0,0.0,0.0,0.0,0.0,0.0,64.0,0.0,0.0,0.0,0.0,0.0,0.0,0.0,0.0,0.0,0.0,0.0,0.0,0.0,0.0,0.0,0.0,0.0,28.0,0.0,0.0,0.0,476.0,0.0,0.0,0.0,0.0,0.0,0.0,0.0,0.0,0.0,0.0,0.0,0.0,0.0,0.0,0.0,0.0,0.0,0.0,0.0,0.0,0.0,0.0,0.0,0.0
池田町宮地,池田町,宮地,21404016000,3.3880371459269853,136.55325967102058,35.457520817353085,123.0,0.0,1205.0,0.0,630.0,0.0,41.0,0.0,0.0,0.0,0.0,0.0,87.0,404.0,0.0,0.0,0.0,0.0,0.0,0.0,0.0,0.0,0.0,0.0,0.0,0.0,0.0,0.0,0.0,0.0,0.0,0.0,0.0,0.0,0.0,145.0,0.0,0.0,0.0,0.0,0.0,0.0,0.0,0.0,0.0,0.0,0.0,0.0,0.0,0.0,0.0,0.0,0.0,0.0,0.0,0.0,0.0,0.0,0.0,0.0
池田町舟子,池田町,舟子,21404015000,3.5359337208489583,136.53962624181986,35.46780180231322,0.0,0.0,487.0,0.0,0.0,0.0,0.0,0.0,0.0,0.0,0.0,0.0,0.0,0.0,0.0,0.0,0.0,0.0,0.0,0.0,0.0,0.0,0.0,0.0,0.0,0.0,0.0,0.0,0.0,0.0,0.0,0.0,0.0,0.0,0.0,0.0,0.0,0.0,0.0,0.0,0.0,0.0,0.0,0.0,0.0,0.0,0.0,0.0,0.0,0.0,0.0,0.0,0.0,78.0,0.0,0.0,0.0,0.0,0.0,0.0
池田町上田,池田町,上田,21404041000,3.560712944267649,136.58363940844595,35.45182776785869,144.0,0.0,876.0,206.0,326.0,0.0,0.0,70.0,0.0,0.0,0.0,0.0,129.0,393.0,0.0,0.0,0.0,0.0,0.0,0.0,0.0,0.0,0.0,0.0,0.0,0.0,0.0,0.0,0.0,0.0,0.0,0.0,0.0,0.0,0.0,0.0,0.0,0.0,0.0,0.0,0.0,0.0,0.0,0.0,0.0,0.0,0.0,0.0,0.0,0.0,0.0,0.0,0.0,148.0,0.0,0.0,0.0,0.0,0.0,0.0
揖斐川町市場,揖斐川町,市場,21401023000,3.5645798600327123,136.53610818886324,35.47421046329793,0.0,0.0,940.0,0.0,0.0,0.0,0.0,0.0,0.0,0.0,0.0,0.0,357.0,96.0,0.0,0.0,0.0,0.0,0.0,0.0,0.0,0.0,0.0,0.0,0.0,0.0,0.0,0.0,0.0,0.0,0.0,0.0,0.0,0.0,0.0,1514.0,0.0,0.0,0.0,0.0,0.0,0.0,0.0,0.0,0.0,0.0,0.0,0.0,0.0,0.0,0.0,0.0,0.0,0.0,0.0,399.0,0.0,0.0,0.0,0.0
池田町砂畑,池田町,砂畑,21404046000,3.658751627739611,136.58902653408236,35.452328330969536,0.0,0.0,0.0,0.0,0.0,0.0,0.0,0.0,0.0,0.0,0.0,0.0,0.0,0.0,0.0,0.0,0.0,0.0,0.0,0.0,0.0,0.0,0.0,0.0,0.0,0.0,0.0,0.0,0.0,0.0,0.0,0.0,0.0,0.0,0.0,0.0,0.0,0.0,0.0,0.0,0.0,0.0,0.0,0.0,0.0,0.0,0.0,0.0,0.0,0.0,0.0,0.0,0.0,0.0,0.0,0.0,0.0,0.0,0.0,0.0
池田町小牛,池田町,小牛,21404012000,3.690791145024796,136.5570842454783,35.4526801328583,51.0,429.0,1203.0,0.0,0.0,0.0,0.0,0.0,0.0,0.0,0.0,0.0,0.0,55.0,0.0,0.0,0.0,0.0,0.0,0.0,0.0,0.0,0.0,0.0,0.0,0.0,0.0,0.0,0.0,0.0,0.0,0.0,0.0,0.0,0.0,160.0,0.0,0.0,0.0,0.0,0.0,0.0,0.0,0.0,0.0,0.0,0.0,0.0,0.0,0.0,0.0,0.0,0.0,0.0,0.0,0.0,0.0,0.0,0.0,0.0
大野町大字瀬古,大野町,大字瀬古,21403017000,3.6954846350402937,136.61225994464627,35.47128904124803,0.0,0.0,158.0,0.0,0.0,76.0,129.0,93.0,0.0,0.0,0.0,76.0,0.0,0.0,0.0,0.0,0.0,0.0,0.0,68.0,0.0,0.0,0.0,86.0,0.0,0.0,0.0,0.0,0.0,0.0,0.0,0.0,0.0,0.0,0.0,0.0,0.0,0.0,0.0,0.0,0.0,0.0,81.0,0.0,0.0,0.0,0.0,0.0,0.0,0.0,0.0,0.0,0.0,0.0,0.0,145.0,306.0,0.0,0.0,0.0
池田町般若畑,池田町,般若畑,21404014000,3.7550749435968305,136.54562423076874,35.458256967541345,0.0,0.0,956.0,0.0,0.0,0.0,0.0,0.0,0.0,0.0,0.0,0.0,0.0,116.0,0.0,0.0,0.0,0.0,0.0,0.0,0.0,0.0,0.0,0.0,0.0,0.0,0.0,0.0,0.0,0.0,0.0,0.0,0.0,0.0,0.0,178.0,0.0,0.0,0.0,0.0,0.0,0.0,0.0,0.0,0.0,0.0,0.0,0.0,0.0,0.0,0.0,0.0,0.0,0.0,0.0,0.0,54.0,0.0,0.0,0.0
池田町本郷,池田町,本郷,21404037000,3.8431496914780086,136.56822129912604,35.44863531913936,192.0,0.0,7635.0,0.0,169.0,138.0,61.0,0.0,0.0,50.0,0.0,0.0,605.0,1401.0,0.0,0.0,0.0,167.0,0.0,69.0,0.0,0.0,113.0,0.0,0.0,0.0,0.0,0.0,0.0,0.0,0.0,0.0,0.0,0.0,0.0,302.0,0.0,0.0,56.0,0.0,0.0,0.0,112.0,0.0,0.0,0.0,0.0,0.0,66.0,78.0,0.0,0.0,0.0,606.0,0.0,0.0,0.0,0.0,0.0,77.0
揖斐川町白樫,揖斐川町,白樫,21401022000,3.9699717018001768,136.53020379069892,35.481357549438464,0.0,0.0,305.0,0.0,0.0,0.0,0.0,0.0,0.0,0.0,0.0,0.0,443.0,0.0,0.0,0.0,0.0,0.0,0.0,0.0,0.0,0.0,0.0,0.0,0.0,0.0,0.0,0.0,0.0,0.0,0.0,0.0,0.0,0.0,0.0,142.0,0.0,0.0,0.0,70.0,0.0,0.0,0.0,0.0,0.0,0.0,0.0,0.0,0.0,0.0,0.0,0.0,0.0,0.0,0.0,0.0,0.0,0.0,0.0,65.0
大野町大字中之元,大野町,大字中之元,21403018000,4.057922727141914,136.6133972976737,35.46547147478125,311.0,35.0,77.0,0.0,0.0,304.0,75.0,75.0,0.0,0.0,72.0,143.0,43.0,0.0,36.0,0.0,0.0,0.0,167.0,144.0,0.0,0.0,0.0,0.0,0.0,0.0,0.0,0.0,0.0,0.0,0.0,0.0,0.0,0.0,0.0,0.0,0.0,0.0,43.0,77.0,0.0,0.0,0.0,0.0,0.0,0.0,0.0,0.0,0.0,0.0,0.0,0.0,0.0,0.0,0.0,113.0,36.0,0.0,0.0,75.0
池田町白鳥,池田町,白鳥,21404043000,4.176433335166055,136.59389540293037,35.44898671093533,64.0,0.0,804.0,0.0,0.0,0.0,0.0,0.0,0.0,393.0,0.0,0.0,208.0,71.0,0.0,0.0,0.0,0.0,0.0,0.0,0.0,0.0,0.0,0.0,0.0,197.0,0.0,0.0,64.0,0.0,0.0,0.0,0.0,0.0,0.0,0.0,0.0,0.0,0.0,0.0,0.0,0.0,0.0,0.0,0.0,0.0,0.0,0.0,0.0,0.0,0.0,0.0,0.0,170.0,0.0,0.0,0.0,0.0,0.0,0.0
大野町大字公郷,大野町,大字公郷,21403019000,4.30823770403494,136.6055677143576,35.453882376590556,220.0,346.0,404.0,0.0,466.0,136.0,0.0,164.0,0.0,0.0,0.0,112.0,128.0,139.0,0.0,0.0,0.0,0.0,91.0,50.0,56.0,0.0,150.0,0.0,0.0,0.0,0.0,0.0,0.0,0.0,0.0,0.0,0.0,0.0,0.0,0.0,77.0,0.0,81.0,0.0,0.0,0.0,0.0,62.0,0.0,0.0,0.0,0.0,0.0,0.0,0.0,229.0,0.0,0.0,0.0,64.0,0.0,0.0,0.0,67.0
揖斐川町北方,揖斐川町,北方,21401001000,4.315913750746614,136.54501906896812,35.51368814010517,109.0,0.0,0.0,79.0,0.0,0.0,243.0,0.0,0.0,0.0,0.0,0.0,2142.0,0.0,0.0,0.0,0.0,0.0,0.0,156.0,0.0,0.0,0.0,73.0,0.0,0.0,0.0,0.0,0.0,0.0,0.0,73.0,0.0,0.0,0.0,0.0,0.0,0.0,0.0,0.0,0.0,0.0,0.0,0.0,0.0,0.0,0.0,0.0,0.0,0.0,0.0,0.0,0.0,0.0,0.0,177.0,93.0,0.0,0.0,0.0
揖斐川町谷汲大洞,揖斐川町,谷汲大洞,21401030000,4.458629834560201,136.61495342484156,35.505157232116126,0.0,0.0,0.0,0.0,0.0,0.0,0.0,0.0,0.0,0.0,0.0,0.0,0.0,0.0,0.0,0.0,0.0,0.0,0.0,0.0,0.0,0.0,0.0,0.0,0.0,0.0,0.0,0.0,0.0,0.0,0.0,0.0,0.0,0.0,0.0,772.0,0.0,0.0,0.0,0.0,0.0,0.0,0.0,0.0,0.0,0.0,0.0,0.0,0.0,0.0,0.0,0.0,0.0,0.0,0.0,0.0,0.0,0.0,0.0,0.0
池田町下東野,池田町,下東野,21404042000,4.484746858795868,136.58368651254705,35.443320032339116,48.0,247.0,916.0,0.0,384.0,0.0,42.0,0.0,0.0,0.0,0.0,0.0,0.0,551.0,0.0,0.0,0.0,41.0,0.0,0.0,0.0,0.0,0.0,0.0,0.0,0.0,0.0,0.0,0.0,0.0,0.0,0.0,0.0,0.0,0.0,105.0,0.0,0.0,0.0,0.0,0.0,0.0,233.0,0.0,0.0,0.0,0.0,0.0,0.0,0.0,0.0,0.0,0.0,209.0,0.0,44.0,0.0,0.0,0.0,0.0
大野町大字野,大野町,大字野,21403006000,4.505702049529201,136.62322150054823,35.48889056369655,94.0,236.0,132.0,0.0,0.0,105.0,0.0,0.0,64.0,0.0,0.0,0.0,0.0,0.0,0.0,0.0,0.0,0.0,0.0,0.0,0.0,0.0,0.0,0.0,0.0,0.0,0.0,0.0,0.0,0.0,0.0,0.0,221.0,0.0,0.0,0.0,0.0,0.0,0.0,0.0,0.0,0.0,0.0,0.0,0.0,0.0,0.0,0.0,120.0,0.0,44.0,0.0,0.0,39.0,0.0,0.0,0.0,0.0,0.0,0.0
池田町願成寺,池田町,願成寺,21404011000,4.520751263584995,136.54849364390265,35.44793113311561,88.0,0.0,1098.0,0.0,0.0,93.0,0.0,0.0,0.0,0.0,242.0,0.0,0.0,0.0,0.0,0.0,0.0,0.0,0.0,0.0,0.0,0.0,0.0,0.0,0.0,0.0,0.0,0.0,0.0,0.0,0.0,0.0,0.0,0.0,0.0,172.0,0.0,0.0,0.0,0.0,0.0,0.0,0.0,0.0,0.0,0.0,120.0,0.0,166.0,0.0,0.0,0.0,0.0,0.0,0.0,0.0,0.0,0.0,0.0,0.0
池田町草深,池田町,草深,21404031000,4.537239346276281,136.56047452500587,35.44358755832042,159.0,0.0,499.0,0.0,0.0,249.0,191.0,0.0,0.0,0.0,0.0,0.0,0.0,331.0,0.0,0.0,0.0,0.0,0.0,0.0,0.0,0.0,0.0,0.0,0.0,0.0,0.0,0.0,0.0,0.0,0.0,0.0,0.0,103.0,0.0,0.0,0.0,0.0,0.0,92.0,0.0,0.0,0.0,0.0,0.0,0.0,0.0,0.0,0.0,0.0,0.0,0.0,0.0,0.0,0.0,0.0,0.0,0.0,0.0,98.0
池田町六之井,池田町,六之井,21404048000,4.647196841302388,136.5736225077565,35.441082568668975,630.0,52.0,2640.0,45.0,247.0,177.0,133.0,0.0,0.0,0.0,0.0,412.0,230.0,1732.0,71.0,0.0,0.0,47.0,0.0,222.0,0.0,0.0,0.0,55.0,0.0,46.0,0.0,0.0,0.0,0.0,0.0,0.0,54.0,0.0,0.0,280.0,0.0,0.0,96.0,0.0,0.0,0.0,0.0,0.0,0.0,0.0,0.0,0.0,0.0,0.0,0.0,0.0,0.0,1903.0,0.0,0.0,0.0,118.0,0.0,0.0
大野町大字西方,大野町,大字西方,21403007000,4.725140717603012,136.6255947902196,35.4764607912396,489.0,0.0,0.0,0.0,0.0,154.0,0.0,52.0,0.0,0.0,0.0,47.0,0.0,0.0,0.0,0.0,0.0,0.0,0.0,0.0,0.0,0.0,63.0,0.0,200.0,0.0,0.0,0.0,0.0,0.0,47.0,0.0,0.0,0.0,0.0,0.0,0.0,0.0,0.0,0.0,0.0,0.0,0.0,0.0,0.0,0.0,0.0,0.0,0.0,0.0,0.0,142.0,0.0,0.0,58.0,158.0,0.0,53.0,0.0,0.0
揖斐川町谷汲有鳥,揖斐川町,谷汲有鳥,21401036000,4.736987684030186,136.563223677314,35.524560631985906,0.0,0.0,0.0,0.0,0.0,0.0,0.0,0.0,0.0,0.0,0.0,0.0,0.0,0.0,0.0,0.0,0.0,0.0,0.0,0.0,0.0,0.0,0.0,0.0,0.0,0.0,0.0,0.0,0.0,0.0,0.0,0.0,0.0,0.0,0.0,0.0,0.0,0.0,0.0,0.0,0.0,0.0,0.0,0.0,0.0,0.0,0.0,0.0,0.0,0.0,0.0,0.0,0.0,0.0,0.0,0.0,0.0,0.0,0.0,0.0
大野町大字大野,大野町,大字大野,21403009000,4.772749499077174,136.62461496007512,35.470875049525404,253.0,505.0,0.0,0.0,200.0,241.0,96.0,336.0,55.0,0.0,371.0,318.0,0.0,47.0,0.0,41.0,43.0,0.0,174.0,47.0,0.0,0.0,0.0,43.0,198.0,0.0,0.0,0.0,0.0,0.0,0.0,49.0,87.0,547.0,416.0,0.0,0.0,44.0,0.0,0.0,89.0,0.0,0.0,0.0,44.0,0.0,50.0,0.0,0.0,47.0,0.0,0.0,0.0,0.0,0.0,219.0,0.0,0.0,0.0,96.0
大野町大字領家,大野町,大字領家,21403020000,4.833892903743054,136.61573356790953,35.45576206393486,23.0,0.0,0.0,0.0,48.0,0.0,0.0,0.0,0.0,0.0,0.0,0.0,0.0,0.0,26.0,0.0,0.0,0.0,0.0,0.0,0.0,0.0,0.0,0.0,0.0,0.0,0.0,0.0,0.0,0.0,0.0,28.0,0.0,0.0,0.0,0.0,0.0,0.0,0.0,0.0,0.0,0.0,0.0,91.0,0.0,0.0,0.0,0.0,25.0,0.0,0.0,0.0,0.0,0.0,0.0,0.0,0.0,0.0,0.0,0.0
池田町青柳,池田町,青柳,21404035000,4.8378542023021645,136.56920581640833,35.43954302088259,147.0,0.0,901.0,76.0,289.0,65.0,57.0,0.0,0.0,0.0,0.0,0.0,141.0,258.0,0.0,0.0,0.0,0.0,54.0,0.0,0.0,0.0,53.0,0.0,0.0,0.0,0.0,0.0,0.0,0.0,0.0,0.0,0.0,0.0,0.0,361.0,0.0,0.0,0.0,0.0,274.0,58.0,0.0,0.0,0.0,0.0,0.0,0.0,0.0,0.0,0.0,0.0,0.0,111.0,0.0,0.0,0.0,0.0,0.0,49.0
揖斐川町上野,揖斐川町,上野,21401021000,4.897183771922634,136.5240967217223,35.499848946299814,137.0,0.0,868.0,0.0,0.0,0.0,0.0,0.0,0.0,0.0,0.0,0.0,489.0,218.0,0.0,0.0,0.0,0.0,0.0,0.0,0.0,0.0,0.0,0.0,0.0,0.0,0.0,0.0,0.0,0.0,0.0,0.0,0.0,0.0,0.0,93.0,0.0,0.0,0.0,0.0,0.0,0.0,0.0,0.0,0.0,352.0,0.0,0.0,0.0,0.0,0.0,0.0,0.0,0.0,0.0,184.0,0.0,0.0,95.0,0.0
揖斐川町谷汲名礼,揖斐川町,谷汲名礼,21401031000,4.919763425987556,136.58930779856232,35.52532997132846,0.0,0.0,51.0,0.0,0.0,0.0,0.0,0.0,0.0,0.0,0.0,0.0,51.0,0.0,0.0,0.0,0.0,0.0,0.0,0.0,0.0,0.0,0.0,0.0,0.0,0.0,0.0,0.0,0.0,0.0,0.0,0.0,122.0,0.0,0.0,0.0,0.0,0.0,0.0,0.0,0.0,0.0,0.0,0.0,0.0,0.0,0.0,0.0,0.0,0.0,0.0,0.0,0.0,0.0,0.0,0.0,0.0,0.0,0.0,0.0
