TOWN_CODE_11,CITY_NAME_x,S_NAME_x,CITY_NAME_from_master,S_NAME_from_master,town_name_show,CITY_CODE,TOWN_CODE,CITY_NAME_y,S_NAME_y,TOWN_NAME_4COL,POP,__srcfile,0～4歳,5～9歳,10～14歳,15～19歳,20～24歳,25～29歳,30～34歳,35～39歳,40～44歳,45～49歳,50～54歳,55～59歳,60～64歳,65～69歳,70～74歳,75～79歳,80～84歳,85～89歳,90～94歳,95～99歳,100歳以上,0～4歳_受容者(小数),0～4歳_受容者(四捨五入),5～9歳_受容者(小数),5～9歳_受容者(四捨五入),10～14歳_受容者(小数),10～14歳_受容者(四捨五入),15～19歳_受容者(小数),15～19歳_受容者(四捨五入),20～24歳_受容者(小数),20～24歳_受容者(四捨五入),25～29歳_受容者(小数),25～29歳_受容者(四捨五入),30～34歳_受容者(小数),30～34歳_受容者(四捨五入),35～39歳_受容者(小数),35～39歳_受容者(四捨五入),40～44歳_受容者(小数),40～44歳_受容者(四捨五入),45～49歳_受容者(小数),45～49歳_受容者(四捨五入),50～54歳_受容者(小数),50～54歳_受容者(四捨五入),55～59歳_受容者(小数),55～59歳_受容者(四捨五入),60～64歳_受容者(小数),60～64歳_受容者(四捨五入),65～69歳_受容者(小数),65～69歳_受容者(四捨五入),70～74歳_受容者(小数),70～74歳_受容者(四捨五入),75～79歳_受容者(小数),75～79歳_受容者(四捨五入),80～84歳_受容者(小数),80～84歳_受容者(四捨五入),85～89歳_受容者(小数),85～89歳_受容者(四捨五入),90～94歳_受容者(小数),90～94歳_受容者(四捨五入),95～99歳_受容者(小数),95～99歳_受容者(四捨五入),100歳以上_受容者(小数),100歳以上_受容者(四捨五入),SUM_受容者(小数),SUM_受容者(四捨五入),たかき医院,ほんだ病院,五日町病院,公益社団法人 地域医療振興協会 今泉記念館 ゆきあかり診療所,医療法人社団 あんべクリニック,医療法人(社団)河内医院,南魚沼市民病院,南魚沼市民病院附属城内診療所,南魚沼市立 中之島診療所,南魚沼市立ゆきぐに大和病院,大熊内科医院,新潟県南魚沼保健所,新潟県地域医療推進機構魚沼基幹病院,町立湯沢病院,米倉医院,荒川診療所,萌気園あやめ診療所,萌気園二日町診療所,萌気園浦佐診療所,風間内科医院,齋藤記念病院,LON,LAT,dist_km,total_patients,town,town_norm,match_type
15226147034,南魚沼市,万条新田,南魚沼市,万条新田,南魚沼市万条新田,,,,,,,,,,,,,,,,,,,,,,,,,,,,,,,,,,,,,,,,,,,,,,,,,,,,,,,,,,,,,,,,,,,,,,,,,0.0,0.0,0.0,96.0,159.0,0.0,220.0,0.0,0.0,0.0,0.0,0.0,656.0,222.0,1016.0,0.0,0.0,0.0,0.0,0.0,0.0,138.82586439365926,36.998166744853435,0.0,2369.0,南魚沼市万条新田,南魚沼市万条新田,code_in_target_towns
15226148035,南魚沼市,姥島新田,南魚沼市,姥島新田,南魚沼市姥島新田,,,,,,,,,,,,,,,,,,,,,,,,,,,,,,,,,,,,,,,,,,,,,,,,,,,,,,,,,,,,,,,,,,,,,,,,,0.0,0.0,0.0,0.0,154.0,0.0,63.0,3194.0,57.0,108.0,0.0,0.0,311.0,32.0,2501.0,0.0,0.0,0.0,0.0,0.0,258.0,138.82161777370442,36.991104532840595,0.8711532687597943,6678.0,南魚沼市姥島新田,南魚沼市姥島新田,code_in_target_towns
15226156048,南魚沼市,下一日市,南魚沼市,下一日市,南魚沼市下一日市,,,,,,,,,,,,,,,,,,,,,,,,,,,,,,,,,,,,,,,,,,,,,,,,,,,,,,,,,,,,,,,,,,,,,,,,,0.0,0.0,0.0,46.0,0.0,0.0,40.0,0.0,0.0,29.0,0.0,0.0,34.0,0.0,545.0,0.0,0.0,0.0,0.0,0.0,0.0,138.81700703581137,37.0031404985435,0.9615386420551133,694.0,南魚沼市下一日市,南魚沼市下一日市,code_in_target_towns
15226144033,南魚沼市,舞子,南魚沼市,舞子,南魚沼市舞子,15226.0,144033.0,南魚沼市,舞子,新潟県南魚沼市舞子,303.0,h03_15.csv,6.0,13.0,13.0,12.0,11.0,12.0,8.0,12.0,18.0,21.0,17.0,26.0,20.0,45.0,18.0,9.0,17.0,12.0,12.0,1.0,0.0,0.2274,0.0,0.67548,1.0,0.4784,0.0,0.29508,0.0,0.26037,0.0,0.3404399999999999,0.0,0.25608,0.0,0.4023599999999999,0.0,0.63018,1.0,0.82152,1.0,0.7471500000000001,1.0,1.49526,1.0,1.2640000000000002,1.0,3.64545,4.0,1.6911,2.0,1.00773,1.0,2.0417,2.0,1.37796,1.0,1.2025199999999998,1.0,0.10021,0.0,0.0,0.0,18.960390000000004,17.0,0.0,81.0,0.0,0.0,0.0,0.0,421.0,0.0,161.0,0.0,0.0,80.0,500.0,278.0,517.0,0.0,0.0,0.0,0.0,0.0,0.0,138.83569788247954,37.00306442012094,1.029150549417669,2038.0,南魚沼市舞子,南魚沼市舞子,code_in_target_towns
15226146036,南魚沼市,中子新田乙,南魚沼市,中子新田乙,南魚沼市中子新田乙,,,,,,,,,,,,,,,,,,,,,,,,,,,,,,,,,,,,,,,,,,,,,,,,,,,,,,,,,,,,,,,,,,,,,,,,,0.0,0.0,0.0,0.0,0.0,0.0,0.0,0.0,0.0,0.0,0.0,0.0,0.0,0.0,0.0,0.0,0.0,0.0,0.0,0.0,0.0,138.82787529952864,37.00748528206621,1.0514499923641136,0.0,南魚沼市中子新田乙,南魚沼市中子新田乙,code_in_target_towns
15226155047,南魚沼市,上一日市,南魚沼市,上一日市,南魚沼市上一日市,,,,,,,,,,,,,,,,,,,,,,,,,,,,,,,,,,,,,,,,,,,,,,,,,,,,,,,,,,,,,,,,,,,,,,,,,56.0,0.0,0.0,55.0,0.0,0.0,6878.0,0.0,550.0,0.0,0.0,0.0,0.0,113.0,0.0,0.0,0.0,0.0,0.0,0.0,217.0,138.8129947376317,36.99743864197944,1.1457783056017425,7869.0,南魚沼市上一日市,南魚沼市上一日市,code_in_target_towns
15226142073,南魚沼市,仙石,南魚沼市,仙石,南魚沼市仙石,15226.0,142073.0,南魚沼市,仙石,新潟県南魚沼市仙石,66.0,h03_15.csv,0.0,0.0,0.0,0.0,0.0,0.0,0.0,0.0,0.0,0.0,0.0,0.0,0.0,3.0,1.0,7.0,10.0,16.0,18.0,8.0,3.0,0.0,0.0,0.0,0.0,0.0,0.0,0.0,0.0,0.0,0.0,0.0,0.0,0.0,0.0,0.0,0.0,0.0,0.0,0.0,0.0,0.0,0.0,0.0,0.0,0.0,0.0,0.24303,0.0,0.09395,0.0,0.78379,1.0,1.201,1.0,1.83728,2.0,1.80378,2.0,0.80168,1.0,0.3006299999999999,0.0,7.0651399999999995,7.0,0.0,0.0,0.0,0.0,0.0,0.0,0.0,0.0,0.0,0.0,0.0,0.0,0.0,0.0,0.0,0.0,0.0,0.0,0.0,0.0,0.0,138.84149397174576,37.006627586256,1.676741896395937,0.0,南魚沼市仙石,南魚沼市仙石,code_in_target_towns
15226143037,南魚沼市,五郎丸,南魚沼市,五郎丸,南魚沼市五郎丸,15226.0,143037.0,南魚沼市,五郎丸,新潟県南魚沼市五郎丸,157.0,h03_15.csv,5.0,7.0,2.0,8.0,9.0,3.0,6.0,12.0,7.0,15.0,5.0,5.0,14.0,14.0,15.0,12.0,5.0,9.0,3.0,1.0,0.0,0.1895,0.0,0.36372,0.0,0.0736,0.0,0.19672,0.0,0.21303,0.0,0.0851099999999999,0.0,0.1920599999999999,0.0,0.4023599999999999,0.0,0.24507,0.0,0.5868,1.0,0.21975,0.0,0.28755,0.0,0.8848,1.0,1.13414,1.0,1.40925,1.0,1.34364,1.0,0.6005,1.0,1.03347,1.0,0.3006299999999999,0.0,0.10021,0.0,0.0,0.0,9.86191,7.0,0.0,0.0,0.0,0.0,0.0,0.0,82.0,0.0,0.0,0.0,0.0,0.0,60.0,34.0,641.0,0.0,0.0,0.0,0.0,176.0,0.0,138.83157332036643,37.01280055146671,1.7043452323791537,993.0,南魚沼市五郎丸,南魚沼市五郎丸,code_in_target_towns
15226154046,南魚沼市,宮野下,南魚沼市,宮野下,南魚沼市宮野下,15226.0,154046.0,南魚沼市,宮野下,新潟県南魚沼市宮野下,165.0,h03_15.csv,2.0,8.0,8.0,7.0,3.0,3.0,1.0,6.0,11.0,8.0,12.0,15.0,14.0,20.0,16.0,7.0,9.0,8.0,6.0,1.0,0.0,0.0758,0.0,0.41568,0.0,0.2944,0.0,0.17213,0.0,0.07101,0.0,0.0851099999999999,0.0,0.03201,0.0,0.2011799999999999,0.0,0.38511,0.0,0.31296,0.0,0.5274000000000001,1.0,0.86265,1.0,0.8848,1.0,1.6202,2.0,1.5032,2.0,0.78379,1.0,1.0809,1.0,0.91864,1.0,0.6012599999999999,1.0,0.10021,0.0,0.0,0.0,10.92844,11.0,0.0,0.0,0.0,244.0,0.0,0.0,368.0,0.0,0.0,0.0,0.0,39.0,359.0,100.0,2495.0,0.0,0.0,0.0,0.0,0.0,47.0,138.80609379927182,36.999022057671816,1.7583210457717537,3652.0,南魚沼市宮野下,南魚沼市宮野下,code_in_target_towns
15226151043,南魚沼市,関,南魚沼市,関,南魚沼市関,,,,,,,,,,,,,,,,,,,,,,,,,,,,,,,,,,,,,,,,,,,,,,,,,,,,,,,,,,,,,,,,,,,,,,,,,0.0,0.0,0.0,328.0,200.0,0.0,251.0,0.0,214.0,283.0,0.0,0.0,251.0,671.0,273.0,0.0,0.0,0.0,0.0,0.0,593.0,138.80896629524418,36.98982910707318,1.7640157832237553,3064.0,南魚沼市関,南魚沼市関,code_in_target_towns
15226145039,南魚沼市,徳田新田,南魚沼市,徳田新田,南魚沼市徳田新田,,,,,,,,,,,,,,,,,,,,,,,,,,,,,,,,,,,,,,,,,,,,,,,,,,,,,,,,,,,,,,,,,,,,,,,,,0.0,0.0,0.0,0.0,0.0,0.0,0.0,0.0,0.0,0.0,0.0,0.0,0.0,0.0,0.0,0.0,0.0,0.0,0.0,0.0,0.0,138.84265682563154,37.00985728269683,1.9782273057381081,0.0,南魚沼市徳田新田,南魚沼市徳田新田,code_in_target_towns
15226143038,南魚沼市,五郎丸,南魚沼市,五郎丸,南魚沼市五郎丸,15226.0,143038.0,南魚沼市,五郎丸,新潟県南魚沼市五郎丸,193.0,h03_15.csv,5.0,7.0,8.0,6.0,5.0,6.0,6.0,4.0,19.0,9.0,9.0,11.0,17.0,28.0,16.0,10.0,11.0,8.0,5.0,3.0,0.0,0.1895,0.0,0.36372,0.0,0.2944,0.0,0.14754,0.0,0.11835,0.0,0.1702199999999999,0.0,0.1920599999999999,0.0,0.13412,0.0,0.66519,1.0,0.35208,0.0,0.39555,0.0,0.63261,1.0,1.0744,1.0,2.26828,2.0,1.5032,2.0,1.1197,1.0,1.3211,1.0,0.91864,1.0,0.50105,1.0,0.3006299999999999,0.0,0.0,0.0,12.66234,11.0,66.0,0.0,0.0,0.0,0.0,0.0,0.0,0.0,0.0,0.0,0.0,0.0,0.0,44.0,125.0,0.0,0.0,0.0,0.0,0.0,0.0,138.83785125934153,37.016708299527004,2.3202666349832364,235.0,南魚沼市五郎丸,南魚沼市五郎丸,code_in_target_towns
15226154045,南魚沼市,宮野下,南魚沼市,宮野下,南魚沼市宮野下,15226.0,154045.0,南魚沼市,宮野下,新潟県南魚沼市宮野下,11.0,h03_15.csv,0.0,0.0,0.0,0.0,0.0,0.0,0.0,0.0,1.0,0.0,0.0,1.0,0.0,5.0,3.0,1.0,0.0,0.0,0.0,0.0,0.0,0.0,0.0,0.0,0.0,0.0,0.0,0.0,0.0,0.0,0.0,0.0,0.0,0.0,0.0,0.0,0.0,0.03501,0.0,0.0,0.0,0.0,0.0,0.05751,0.0,0.0,0.0,0.40505,0.0,0.28185,0.0,0.11197,0.0,0.0,0.0,0.0,0.0,0.0,0.0,0.0,0.0,0.0,0.0,0.89139,0.0,0.0,0.0,0.0,17.0,0.0,0.0,0.0,0.0,0.0,0.0,0.0,0.0,0.0,17.0,17.0,0.0,0.0,0.0,0.0,0.0,0.0,138.8003878074735,37.00335983899841,2.334938450486996,51.0,南魚沼市宮野下,南魚沼市宮野下,code_in_target_towns
15226157051,南魚沼市,南田中,南魚沼市,南田中,南魚沼市南田中,,,,,,,,,,,,,,,,,,,,,,,,,,,,,,,,,,,,,,,,,,,,,,,,,,,,,,,,,,,,,,,,,,,,,,,,,0.0,0.0,0.0,47.0,349.0,0.0,566.0,0.0,50.0,85.0,0.0,108.0,113.0,505.0,335.0,0.0,0.0,0.0,0.0,0.0,40.0,138.83056055098317,37.01903925548267,2.3580827441387955,2198.0,南魚沼市南田中,南魚沼市南田中,code_in_target_towns
15226142032,南魚沼市,仙石,南魚沼市,仙石,南魚沼市仙石,15226.0,142032.0,南魚沼市,仙石,新潟県南魚沼市仙石,290.0,h03_15.csv,6.0,18.0,15.0,12.0,4.0,11.0,11.0,20.0,20.0,15.0,14.0,19.0,23.0,32.0,18.0,14.0,17.0,13.0,7.0,1.0,0.0,0.2274,0.0,0.93528,1.0,0.552,1.0,0.29508,0.0,0.09468,0.0,0.31207,0.0,0.35211,0.0,0.6706,1.0,0.7001999999999999,1.0,0.5868,1.0,0.6153000000000001,1.0,1.09269,1.0,1.4536000000000002,1.0,2.59232,3.0,1.6911,2.0,1.56758,2.0,2.0417,2.0,1.49279,1.0,0.7014699999999999,1.0,0.10021,0.0,0.0,0.0,18.07498,19.0,0.0,0.0,0.0,31.0,0.0,0.0,3228.0,0.0,130.0,201.0,0.0,0.0,784.0,69.0,700.0,0.0,0.0,0.0,0.0,0.0,1262.0,138.85375177506975,36.99669716889532,2.4819892591359456,6405.0,南魚沼市仙石,南魚沼市仙石,code_in_target_towns
15226140021,南魚沼市,中子新田甲,南魚沼市,中子新田甲,南魚沼市中子新田甲,,,,,,,,,,,,,,,,,,,,,,,,,,,,,,,,,,,,,,,,,,,,,,,,,,,,,,,,,,,,,,,,,,,,,,,,,0.0,0.0,0.0,0.0,0.0,38.0,361.0,0.0,0.0,196.0,0.0,0.0,1269.0,118.0,1546.0,0.0,0.0,0.0,0.0,0.0,153.0,138.84566379277018,37.015521656744376,2.6105592808321614,3681.0,南魚沼市中子新田甲,南魚沼市中子新田甲,code_in_target_towns
15226144041,南魚沼市,舞子,南魚沼市,舞子,南魚沼市舞子,15226.0,144041.0,南魚沼市,舞子,新潟県南魚沼市舞子,198.0,h03_15.csv,4.0,1.0,5.0,2.0,9.0,9.0,1.0,8.0,10.0,21.0,13.0,22.0,16.0,17.0,16.0,13.0,4.0,2.0,0.0,0.0,0.0,0.1516,0.0,0.05196,0.0,0.184,0.0,0.04918,0.0,0.21303,0.0,0.25533,0.0,0.03201,0.0,0.26824,0.0,0.3500999999999999,0.0,0.82152,1.0,0.57135,1.0,1.26522,1.0,1.0112,1.0,1.37717,1.0,1.5032,2.0,1.45561,1.0,0.4804,0.0,0.22966,0.0,0.0,0.0,0.0,0.0,0.0,0.0,10.27078,8.0,0.0,0.0,0.0,142.0,0.0,0.0,286.0,0.0,65.0,123.0,0.0,17.0,1005.0,264.0,390.0,0.0,0.0,0.0,0.0,0.0,25.0,138.82989208449177,36.97301136742239,2.8199384026403633,2317.0,南魚沼市舞子,南魚沼市舞子,code_in_target_towns
15226153049,南魚沼市,君沢,南魚沼市,君沢,南魚沼市君沢,,,,,,,,,,,,,,,,,,,,,,,,,,,,,,,,,,,,,,,,,,,,,,,,,,,,,,,,,,,,,,,,,,,,,,,,,0.0,57.0,0.0,0.0,177.0,0.0,3539.0,0.0,289.0,229.0,0.0,127.0,687.0,218.0,2030.0,0.0,0.0,0.0,0.0,0.0,136.0,138.80037279453796,37.014294144219356,2.8878487177680063,7489.0,南魚沼市君沢,南魚沼市君沢,code_in_target_towns
15226142031,南魚沼市,仙石,南魚沼市,仙石,南魚沼市仙石,15226.0,142031.0,南魚沼市,仙石,新潟県南魚沼市仙石,140.0,h03_15.csv,3.0,6.0,4.0,10.0,4.0,5.0,0.0,3.0,16.0,10.0,10.0,6.0,4.0,17.0,16.0,13.0,9.0,0.0,4.0,0.0,0.0,0.1137,0.0,0.31176,0.0,0.1472,0.0,0.2459,0.0,0.09468,0.0,0.14185,0.0,0.0,0.0,0.1005899999999999,0.0,0.56016,1.0,0.3912,0.0,0.4395,0.0,0.34506,0.0,0.2528,0.0,1.37717,1.0,1.5032,2.0,1.45561,1.0,1.0809,1.0,0.0,0.0,0.40084,0.0,0.0,0.0,0.0,0.0,8.96212,6.0,0.0,0.0,0.0,0.0,0.0,0.0,44.0,0.0,68.0,44.0,0.0,0.0,103.0,0.0,0.0,0.0,0.0,0.0,0.0,0.0,0.0,138.85836684921895,37.00152951991494,2.910484710125906,259.0,南魚沼市仙石,南魚沼市仙石,code_in_target_towns
15226141029,南魚沼市,吉山新田,南魚沼市,吉山新田,南魚沼市吉山新田,,,,,,,,,,,,,,,,,,,,,,,,,,,,,,,,,,,,,,,,,,,,,,,,,,,,,,,,,,,,,,,,,,,,,,,,,0.0,0.0,0.0,0.0,135.0,0.0,89.0,0.0,0.0,41.0,0.0,42.0,360.0,85.0,429.0,0.0,0.0,0.0,0.0,473.0,0.0,138.8603330908947,37.007613120030236,3.236069278810373,1654.0,南魚沼市吉山新田,南魚沼市吉山新田,code_in_target_towns
15226144040,南魚沼市,舞子,南魚沼市,舞子,南魚沼市舞子,15226.0,144040.0,南魚沼市,舞子,新潟県南魚沼市舞子,68.0,h03_15.csv,0.0,3.0,3.0,1.0,0.0,1.0,3.0,1.0,6.0,2.0,6.0,8.0,9.0,8.0,2.0,7.0,2.0,4.0,2.0,0.0,0.0,0.0,0.0,0.15588,0.0,0.1104,0.0,0.02459,0.0,0.0,0.0,0.02837,0.0,0.0960299999999999,0.0,0.03353,0.0,0.21006,0.0,0.07824,0.0,0.2637,0.0,0.46008,0.0,0.5688000000000001,1.0,0.64808,1.0,0.1879,0.0,0.78379,1.0,0.2402,0.0,0.45932,0.0,0.20042,0.0,0.0,0.0,0.0,0.0,4.549390000000001,3.0,0.0,0.0,0.0,0.0,0.0,0.0,98.0,0.0,0.0,0.0,0.0,0.0,0.0,0.0,0.0,0.0,0.0,0.0,0.0,0.0,0.0,138.84696435114776,36.97441159937457,3.238758694392487,98.0,南魚沼市舞子,南魚沼市舞子,code_in_target_towns
15226152050,南魚沼市,大沢,南魚沼市,大沢,南魚沼市大沢,,,,,,,,,,,,,,,,,,,,,,,,,,,,,,,,,,,,,,,,,,,,,,,,,,,,,,,,,,,,,,,,,,,,,,,,,0.0,0.0,0.0,142.0,206.0,0.0,743.0,0.0,146.0,72.0,0.0,0.0,129.0,0.0,2623.0,0.0,0.0,0.0,73.0,0.0,56.0,138.8090190786268,37.025819611942545,3.419342435573354,4190.0,南魚沼市大沢,南魚沼市大沢,code_in_target_towns
15226138022,南魚沼市,大木六新田,南魚沼市,大木六新田,南魚沼市大木六新田,,,,,,,,,,,,,,,,,,,,,,,,,,,,,,,,,,,,,,,,,,,,,,,,,,,,,,,,,,,,,,,,,,,,,,,,,0.0,0.0,20.0,0.0,61.0,0.0,297.0,0.0,14.0,0.0,0.0,27.0,91.0,18.0,676.0,0.0,0.0,0.0,0.0,0.0,116.0,138.85194371946628,37.02097001246433,3.4338945828047014,1320.0,南魚沼市大木六新田,南魚沼市大木六新田,code_in_target_towns
15226139023,南魚沼市,中野,南魚沼市,中野,南魚沼市中野,,,,,,,,,,,,,,,,,,,,,,,,,,,,,,,,,,,,,,,,,,,,,,,,,,,,,,,,,,,,,,,,,,,,,,,,,0.0,0.0,0.0,0.0,0.0,0.0,0.0,0.0,0.0,0.0,0.0,0.0,2077.0,100.0,595.0,0.0,0.0,0.0,0.0,0.0,0.0,138.84809838008158,37.023726341288274,3.460486514421467,2772.0,南魚沼市中野,南魚沼市中野,code_in_target_towns
15226115008,南魚沼市,中,南魚沼市,中,南魚沼市中,,,,,,,,,,,,,,,,,,,,,,,,,,,,,,,,,,,,,,,,,,,,,,,,,,,,,,,,,,,,,,,,,,,,,,,,,47.0,0.0,0.0,0.0,1608.0,0.0,799.0,0.0,0.0,136.0,0.0,163.0,982.0,47.0,2049.0,0.0,0.0,0.0,0.0,53.0,91.0,138.84302336758864,37.02700903793934,3.5506051279017714,5975.0,南魚沼市中,南魚沼市中,code_in_target_towns
15226137027,南魚沼市,小杉新田,南魚沼市,小杉新田,南魚沼市小杉新田,,,,,,,,,,,,,,,,,,,,,,,,,,,,,,,,,,,,,,,,,,,,,,,,,,,,,,,,,,,,,,,,,,,,,,,,,0.0,0.0,0.0,0.0,0.0,0.0,0.0,0.0,0.0,0.0,0.0,0.0,0.0,0.0,0.0,0.0,0.0,0.0,0.0,0.0,0.0,138.8562447556648,37.0214627065487,3.7399172582378344,0.0,南魚沼市小杉新田,南魚沼市小杉新田,code_in_target_towns
15226149044,南魚沼市,上野,南魚沼市,上野,南魚沼市上野,,,,,,,,,,,,,,,,,,,,,,,,,,,,,,,,,,,,,,,,,,,,,,,,,,,,,,,,,,,,,,,,,,,,,,,,,0.0,0.0,0.0,144.0,0.0,0.0,666.0,0.0,79.0,56.0,0.0,0.0,500.0,351.0,0.0,0.0,0.0,0.0,0.0,0.0,196.0,138.7842903382194,36.99221211742712,3.7510901669963572,1992.0,南魚沼市上野,南魚沼市上野,code_in_target_towns
15226136030,南魚沼市,大木六,南魚沼市,大木六,南魚沼市大木六,15226.0,136030.0,南魚沼市,大木六,新潟県南魚沼市大木六,54.0,h03_15.csv,3.0,0.0,0.0,3.0,0.0,2.0,1.0,1.0,3.0,4.0,5.0,4.0,1.0,9.0,9.0,2.0,3.0,3.0,0.0,1.0,0.0,0.1137,0.0,0.0,0.0,0.0,0.0,0.07377,0.0,0.0,0.0,0.05674,0.0,0.03201,0.0,0.03353,0.0,0.10503,0.0,0.15648,0.0,0.21975,0.0,0.23004,0.0,0.0632,0.0,0.72909,1.0,0.84555,1.0,0.22394,0.0,0.3603,0.0,0.34449,0.0,0.0,0.0,0.10021,0.0,0.0,0.0,3.68783,2.0,0.0,0.0,0.0,0.0,0.0,0.0,0.0,0.0,0.0,0.0,0.0,0.0,0.0,0.0,406.0,0.0,0.0,0.0,0.0,36.0,0.0,138.87006864258913,37.00188777131124,3.9472730899886694,442.0,南魚沼市大木六,南魚沼市大木六,code_in_target_towns
15226150042,南魚沼市,石打,南魚沼市,石打,南魚沼市石打,,,,,,,,,,,,,,,,,,,,,,,,,,,,,,,,,,,,,,,,,,,,,,,,,,,,,,,,,,,,,,,,,,,,,,,,,0.0,0.0,0.0,125.0,0.0,0.0,717.0,0.0,0.0,180.0,0.0,92.0,532.0,590.0,2001.0,0.0,0.0,0.0,0.0,0.0,65.0,138.79877106368315,36.96986242070659,3.9619190132992497,4302.0,南魚沼市石打,南魚沼市石打,code_in_target_towns
15226136028,南魚沼市,大木六,南魚沼市,大木六,南魚沼市大木六,15226.0,136028.0,南魚沼市,大木六,新潟県南魚沼市大木六,361.0,h03_15.csv,2.0,7.0,14.0,12.0,17.0,15.0,7.0,12.0,12.0,37.0,20.0,16.0,37.0,31.0,39.0,26.0,18.0,19.0,14.0,6.0,0.0,0.0758,0.0,0.36372,0.0,0.5152,1.0,0.29508,0.0,0.40239,0.0,0.42555,0.0,0.22407,0.0,0.4023599999999999,0.0,0.42012,0.0,1.44744,1.0,0.879,1.0,0.92016,1.0,2.3384,2.0,2.51131,3.0,3.66405,4.0,2.91122,3.0,2.1618,2.0,2.18177,2.0,1.40294,1.0,0.6012599999999999,1.0,0.0,0.0,24.14364,22.0,0.0,0.0,0.0,0.0,0.0,0.0,1085.0,0.0,0.0,181.0,0.0,213.0,901.0,978.0,5181.0,0.0,0.0,0.0,0.0,0.0,0.0,138.866587584058,37.01299467009401,3.9742818392397408,8539.0,南魚沼市大木六,南魚沼市大木六,code_in_target_towns
15226121010,南魚沼市,天野沢,南魚沼市,天野沢,南魚沼市天野沢,,,,,,,,,,,,,,,,,,,,,,,,,,,,,,,,,,,,,,,,,,,,,,,,,,,,,,,,,,,,,,,,,,,,,,,,,0.0,0.0,0.0,46.0,46.0,0.0,0.0,0.0,0.0,117.0,0.0,282.0,54.0,51.0,0.0,0.0,0.0,0.0,0.0,805.0,105.0,138.83805901740428,37.03317092184811,4.040074867638538,1506.0,南魚沼市天野沢,南魚沼市天野沢,code_in_target_towns
15226135026,南魚沼市,八竜新田,南魚沼市,八竜新田,南魚沼市八竜新田,,,,,,,,,,,,,,,,,,,,,,,,,,,,,,,,,,,,,,,,,,,,,,,,,,,,,,,,,,,,,,,,,,,,,,,,,0.0,0.0,0.0,52.0,0.0,0.0,65.0,0.0,0.0,63.0,0.0,0.0,345.0,0.0,3703.0,0.0,0.0,0.0,0.0,52.0,0.0,138.86366682478734,37.021616010688476,4.250342213588699,4280.0,南魚沼市八竜新田,南魚沼市八竜新田,code_in_target_towns
15226114007,南魚沼市,目来田,南魚沼市,目来田,南魚沼市目来田,,,,,,,,,,,,,,,,,,,,,,,,,,,,,,,,,,,,,,,,,,,,,,,,,,,,,,,,,,,,,,,,,,,,,,,,,0.0,0.0,0.0,0.0,343.0,0.0,733.0,0.0,0.0,213.0,0.0,0.0,739.0,0.0,1766.0,0.0,0.0,0.0,0.0,318.0,0.0,138.84625999754414,37.03277951245419,4.25349291705736,4112.0,南魚沼市目来田,南魚沼市目来田,code_in_target_towns
15226134025,南魚沼市,小木六,南魚沼市,小木六,南魚沼市小木六,,,,,,,,,,,,,,,,,,,,,,,,,,,,,,,,,,,,,,,,,,,,,,,,,,,,,,,,,,,,,,,,,,,,,,,,,0.0,0.0,0.0,0.0,41.0,0.0,428.0,0.0,0.0,378.0,0.0,265.0,378.0,0.0,268.0,0.0,721.0,0.0,0.0,0.0,0.0,138.8581913644627,37.02724449349319,4.323521872722108,2479.0,南魚沼市小木六,南魚沼市小木六,code_in_target_towns
15226129064,南魚沼市,滝谷,南魚沼市,滝谷,南魚沼市滝谷,15226.0,129064.0,南魚沼市,滝谷,新潟県南魚沼市滝谷,290.0,h03_15.csv,6.0,8.0,13.0,10.0,12.0,8.0,6.0,18.0,22.0,11.0,17.0,17.0,20.0,41.0,34.0,10.0,16.0,11.0,9.0,0.0,1.0,0.2274,0.0,0.41568,0.0,0.4784,0.0,0.2459,0.0,0.28404,0.0,0.22696,0.0,0.1920599999999999,0.0,0.60354,1.0,0.77022,1.0,0.43032,0.0,0.7471500000000001,1.0,0.97767,1.0,1.2640000000000002,1.0,3.32141,3.0,3.1943,3.0,1.1197,1.0,1.9216,2.0,1.26313,1.0,0.90189,1.0,0.0,0.0,0.10021,0.0,18.685580000000005,16.0,0.0,0.0,0.0,0.0,0.0,0.0,1368.0,0.0,0.0,0.0,0.0,171.0,0.0,0.0,1051.0,0.0,0.0,0.0,0.0,0.0,0.0,138.87290339437146,36.98691837786113,4.360893649571703,2590.0,南魚沼市滝谷,南魚沼市滝谷,code_in_target_towns
15226109008,南魚沼市,塩沢,南魚沼市,塩沢,南魚沼市塩沢,15226.0,109008.0,南魚沼市,塩沢,新潟県南魚沼市塩沢,59.0,h03_15.csv,1.0,5.0,2.0,0.0,0.0,4.0,1.0,3.0,3.0,4.0,6.0,6.0,3.0,12.0,2.0,2.0,3.0,2.0,0.0,0.0,0.0,0.0379,0.0,0.2598,0.0,0.0736,0.0,0.0,0.0,0.0,0.0,0.11348,0.0,0.03201,0.0,0.1005899999999999,0.0,0.10503,0.0,0.15648,0.0,0.2637,0.0,0.34506,0.0,0.1896,0.0,0.97212,1.0,0.1879,0.0,0.22394,0.0,0.3603,0.0,0.22966,0.0,0.0,0.0,0.0,0.0,0.0,0.0,3.65117,1.0,0.0,0.0,0.0,0.0,40.0,0.0,69.0,0.0,0.0,0.0,0.0,0.0,217.0,36.0,120.0,0.0,0.0,0.0,0.0,0.0,0.0,138.84163934293366,37.03583031235789,4.415990338000701,482.0,南魚沼市塩沢,南魚沼市塩沢,code_in_target_towns
15226116009,南魚沼市,樺野沢,南魚沼市,樺野沢,南魚沼市樺野沢,,,,,,,,,,,,,,,,,,,,,,,,,,,,,,,,,,,,,,,,,,,,,,,,,,,,,,,,,,,,,,,,,,,,,,,,,0.0,0.0,0.0,0.0,0.0,0.0,1245.0,0.0,0.0,0.0,0.0,0.0,113.0,556.0,2193.0,0.0,0.0,0.0,0.0,0.0,60.0,138.8143268645793,37.03736133000393,4.4770055578631665,4167.0,南魚沼市樺野沢,南魚沼市樺野沢,code_in_target_towns
15226120011,南魚沼市,泉盛寺,南魚沼市,泉盛寺,南魚沼市泉盛寺,,,,,,,,,,,,,,,,,,,,,,,,,,,,,,,,,,,,,,,,,,,,,,,,,,,,,,,,,,,,,,,,,,,,,,,,,0.0,0.0,0.0,0.0,0.0,0.0,1632.0,0.0,0.0,190.0,0.0,47.0,1290.0,61.0,5146.0,0.0,0.0,0.0,95.0,0.0,0.0,138.8274203481603,37.04062337596028,4.722989130710504,8461.0,南魚沼市泉盛寺,南魚沼市泉盛寺,code_in_target_towns
15226109001,南魚沼市,塩沢,南魚沼市,塩沢,南魚沼市塩沢,15226.0,109001.0,南魚沼市,塩沢,新潟県南魚沼市塩沢,667.0,h03_15.csv,34.0,35.0,36.0,27.0,22.0,40.0,33.0,42.0,53.0,50.0,51.0,30.0,36.0,51.0,38.0,34.0,29.0,12.0,7.0,3.0,0.0,1.2886000000000002,1.0,1.8186,2.0,1.3248,1.0,0.66393,1.0,0.52074,1.0,1.1348,1.0,1.05633,1.0,1.4082599999999998,1.0,1.85553,2.0,1.956,2.0,2.24145,2.0,1.7253,2.0,2.2752000000000003,2.0,4.13151,4.0,3.5701,4.0,3.80698,4.0,3.4829,3.0,1.37796,1.0,0.7014699999999999,1.0,0.3006299999999999,0.0,0.0,0.0,36.64109,36.0,0.0,0.0,0.0,124.0,115.0,0.0,1983.0,5452.0,0.0,350.0,0.0,0.0,1053.0,1503.0,1452.0,0.0,0.0,0.0,0.0,341.0,153.0,138.8480465434832,37.03677521210447,4.723248083890106,12526.0,南魚沼市塩沢,南魚沼市塩沢,code_in_target_towns
15226133024,南魚沼市,大里,南魚沼市,大里,南魚沼市大里,,,,,,,,,,,,,,,,,,,,,,,,,,,,,,,,,,,,,,,,,,,,,,,,,,,,,,,,,,,,,,,,,,,,,,,,,0.0,0.0,0.0,0.0,0.0,0.0,0.0,0.0,0.0,0.0,0.0,0.0,0.0,0.0,0.0,0.0,0.0,0.0,0.0,0.0,0.0,138.8643411680043,37.0295411744513,4.882815207310306,0.0,南魚沼市大里,南魚沼市大里,code_in_target_towns
15226113020,南魚沼市,上十日町,南魚沼市,上十日町,南魚沼市上十日町,,,,,,,,,,,,,,,,,,,,,,,,,,,,,,,,,,,,,,,,,,,,,,,,,,,,,,,,,,,,,,,,,,,,,,,,,0.0,0.0,0.0,32.0,469.0,0.0,1621.0,0.0,122.0,284.0,0.0,283.0,910.0,134.0,2634.0,0.0,0.0,1311.0,0.0,366.0,122.0,138.85667422963826,37.03493959352332,4.919581906989489,8288.0,南魚沼市上十日町,南魚沼市上十日町,code_in_target_towns
15226109003,南魚沼市,塩沢,南魚沼市,塩沢,南魚沼市塩沢,15226.0,109003.0,南魚沼市,塩沢,新潟県南魚沼市塩沢,688.0,h03_15.csv,27.0,23.0,30.0,33.0,19.0,24.0,24.0,41.0,54.0,40.0,46.0,51.0,46.0,62.0,59.0,40.0,33.0,18.0,13.0,2.0,1.0,1.0233,1.0,1.19508,1.0,1.104,1.0,0.81147,1.0,0.44973,0.0,0.6808799999999999,1.0,0.7682399999999999,1.0,1.3747299999999998,1.0,1.89054,2.0,1.5648,2.0,2.0217,2.0,2.93301,3.0,2.9072000000000005,3.0,5.02262,5.0,5.54305,6.0,4.4788,4.0,3.9633,4.0,2.06694,2.0,1.30273,1.0,0.20042,0.0,0.10021,0.0,41.40274999999999,41.0,0.0,0.0,0.0,66.0,1165.0,56.0,1311.0,0.0,0.0,878.0,0.0,66.0,3335.0,970.0,5613.0,0.0,0.0,0.0,0.0,170.0,203.0,138.84671255058367,37.04013395239211,5.020223194707142,13833.0,南魚沼市塩沢,南魚沼市塩沢,code_in_target_towns
15226127058,南魚沼市,長崎,南魚沼市,長崎,南魚沼市長崎,15226.0,127058.0,南魚沼市,長崎,新潟県南魚沼市長崎,147.0,h03_15.csv,1.0,1.0,1.0,1.0,7.0,8.0,4.0,7.0,6.0,7.0,11.0,16.0,13.0,15.0,15.0,15.0,5.0,8.0,3.0,3.0,0.0,0.0379,0.0,0.05196,0.0,0.0368,0.0,0.02459,0.0,0.16569,0.0,0.22696,0.0,0.12804,0.0,0.2347099999999999,0.0,0.21006,0.0,0.27384,0.0,0.48345,0.0,0.92016,1.0,0.8216000000000001,1.0,1.21515,1.0,1.40925,1.0,1.67955,2.0,0.6005,1.0,0.91864,1.0,0.3006299999999999,0.0,0.3006299999999999,0.0,0.0,0.0,10.04011,8.0,0.0,0.0,0.0,0.0,0.0,0.0,692.0,0.0,84.0,38.0,0.0,0.0,420.0,36.0,4667.0,0.0,0.0,0.0,0.0,44.0,112.0,138.8780758985497,37.015691790685736,5.029079785615875,6093.0,南魚沼市長崎,南魚沼市長崎,code_in_target_towns
15226109002,南魚沼市,塩沢,南魚沼市,塩沢,南魚沼市塩沢,15226.0,109002.0,南魚沼市,塩沢,新潟県南魚沼市塩沢,194.0,h03_15.csv,6.0,3.0,6.0,9.0,4.0,8.0,6.0,3.0,9.0,14.0,9.0,19.0,18.0,16.0,18.0,15.0,12.0,13.0,4.0,2.0,0.0,0.2274,0.0,0.15588,0.0,0.2208,0.0,0.22131,0.0,0.09468,0.0,0.22696,0.0,0.1920599999999999,0.0,0.1005899999999999,0.0,0.31509,0.0,0.5476800000000001,1.0,0.39555,0.0,1.09269,1.0,1.1376000000000002,1.0,1.29616,1.0,1.6911,2.0,1.67955,2.0,1.4412,1.0,1.49279,1.0,0.40084,0.0,0.20042,0.0,0.0,0.0,13.13035,10.0,0.0,67.0,0.0,0.0,80.0,0.0,1052.0,0.0,0.0,0.0,0.0,0.0,0.0,0.0,324.0,0.0,0.0,0.0,0.0,0.0,122.0,138.85292540003138,37.038310466209715,5.06928553088552,1645.0,南魚沼市塩沢,南魚沼市塩沢,code_in_target_towns
15226127057,南魚沼市,長崎,南魚沼市,長崎,南魚沼市長崎,15226.0,127057.0,南魚沼市,長崎,新潟県南魚沼市長崎,183.0,h03_15.csv,8.0,10.0,8.0,9.0,3.0,3.0,4.0,13.0,14.0,16.0,5.0,10.0,17.0,14.0,17.0,15.0,13.0,2.0,2.0,0.0,0.0,0.3032,0.0,0.5196,1.0,0.2944,0.0,0.22131,0.0,0.07101,0.0,0.0851099999999999,0.0,0.12804,0.0,0.4358899999999999,0.0,0.49014,0.0,0.62592,1.0,0.21975,0.0,0.5751,1.0,1.0744,1.0,1.13414,1.0,1.59715,2.0,1.67955,2.0,1.5613,2.0,0.22966,0.0,0.20042,0.0,0.0,0.0,0.0,0.0,11.44609,11.0,0.0,0.0,0.0,0.0,0.0,0.0,393.0,0.0,0.0,46.0,0.0,0.0,0.0,57.0,1722.0,219.0,0.0,0.0,0.0,0.0,0.0,138.875979339969,37.02049136114242,5.095455442039513,2437.0,南魚沼市長崎,南魚沼市長崎,code_in_target_towns
15210111026,十日町市,倉下,十日町市,倉下,十日町市倉下,,,,,,,,,,,,,,,,,,,,,,,,,,,,,,,,,,,,,,,,,,,,,,,,,,,,,,,,,,,,,,,,,,,,,,,,,0.0,0.0,0.0,0.0,0.0,0.0,0.0,0.0,0.0,0.0,0.0,0.0,0.0,0.0,0.0,0.0,0.0,0.0,0.0,0.0,0.0,138.76861149365172,36.99377860096308,5.107934052074996,0.0,十日町市倉下,十日町市倉下,code_in_target_towns
15226127061,南魚沼市,長崎,南魚沼市,長崎,南魚沼市長崎,15226.0,127061.0,南魚沼市,長崎,新潟県南魚沼市長崎,184.0,h03_15.csv,2.0,4.0,7.0,9.0,5.0,7.0,6.0,8.0,10.0,10.0,10.0,13.0,23.0,19.0,18.0,10.0,9.0,9.0,3.0,2.0,0.0,0.0758,0.0,0.20784,0.0,0.2576,0.0,0.22131,0.0,0.11835,0.0,0.19859,0.0,0.1920599999999999,0.0,0.26824,0.0,0.3500999999999999,0.0,0.3912,0.0,0.4395,0.0,0.74763,1.0,1.4536000000000002,1.0,1.53919,2.0,1.6911,2.0,1.1197,1.0,1.0809,1.0,1.03347,1.0,0.3006299999999999,0.0,0.20042,0.0,0.0,0.0,11.88723,9.0,31.0,0.0,0.0,0.0,400.0,0.0,232.0,0.0,0.0,227.0,0.0,0.0,437.0,0.0,2939.0,0.0,0.0,0.0,0.0,0.0,0.0,138.8829257289542,37.004461909064375,5.115326942889026,4266.0,南魚沼市長崎,南魚沼市長崎,code_in_target_towns
15226127060,南魚沼市,長崎,南魚沼市,長崎,南魚沼市長崎,15226.0,127060.0,南魚沼市,長崎,新潟県南魚沼市長崎,126.0,h03_15.csv,4.0,2.0,3.0,6.0,2.0,3.0,4.0,3.0,10.0,9.0,12.0,8.0,8.0,8.0,14.0,12.0,8.0,8.0,0.0,2.0,0.0,0.1516,0.0,0.10392,0.0,0.1104,0.0,0.14754,0.0,0.04734,0.0,0.0851099999999999,0.0,0.12804,0.0,0.1005899999999999,0.0,0.3500999999999999,0.0,0.35208,0.0,0.5274000000000001,1.0,0.46008,0.0,0.5056,1.0,0.64808,1.0,1.3153,1.0,1.34364,1.0,0.9608,1.0,0.91864,1.0,0.0,0.0,0.20042,0.0,0.0,0.0,8.456679999999999,7.0,0.0,0.0,0.0,0.0,0.0,0.0,432.0,6216.0,80.0,506.0,0.0,0.0,380.0,33.0,201.0,0.0,0.0,0.0,0.0,86.0,69.0,138.88133532835522,37.011134084411076,5.132463660021732,8003.0,南魚沼市長崎,南魚沼市長崎,code_in_target_towns
15226109005,南魚沼市,塩沢,南魚沼市,塩沢,南魚沼市塩沢,15226.0,109005.0,南魚沼市,塩沢,新潟県南魚沼市塩沢,275.0,h03_15.csv,12.0,16.0,13.0,10.0,12.0,7.0,17.0,17.0,18.0,9.0,15.0,11.0,26.0,24.0,21.0,12.0,12.0,13.0,9.0,1.0,0.0,0.4548,0.0,0.83136,1.0,0.4784,0.0,0.2459,0.0,0.28404,0.0,0.19859,0.0,0.5441699999999999,1.0,0.5700099999999999,1.0,0.63018,1.0,0.35208,0.0,0.65925,1.0,0.63261,1.0,1.6432000000000002,2.0,1.94424,2.0,1.97295,2.0,1.34364,1.0,1.4412,1.0,1.49279,1.0,0.90189,1.0,0.10021,0.0,0.0,0.0,16.721510000000002,16.0,0.0,0.0,84.0,0.0,540.0,0.0,0.0,0.0,0.0,116.0,0.0,0.0,903.0,725.0,419.0,0.0,0.0,0.0,0.0,1428.0,0.0,138.8550706916777,37.039826603012735,5.308719301869235,4215.0,南魚沼市塩沢,南魚沼市塩沢,code_in_target_towns
15226125056,南魚沼市,早川,南魚沼市,早川,南魚沼市早川,,,,,,,,,,,,,,,,,,,,,,,,,,,,,,,,,,,,,,,,,,,,,,,,,,,,,,,,,,,,,,,,,,,,,,,,,0.0,0.0,0.0,0.0,112.0,0.0,1889.0,0.0,26.0,0.0,49.0,0.0,124.0,0.0,3086.0,0.0,0.0,47.0,0.0,0.0,0.0,138.87361103378583,37.027762023663044,5.3667569352114555,5333.0,南魚沼市早川,南魚沼市早川,code_in_target_towns
15226109004,南魚沼市,塩沢,南魚沼市,塩沢,南魚沼市塩沢,15226.0,109004.0,南魚沼市,塩沢,新潟県南魚沼市塩沢,289.0,h03_15.csv,9.0,11.0,10.0,18.0,9.0,15.0,10.0,21.0,17.0,26.0,13.0,17.0,10.0,24.0,36.0,13.0,14.0,8.0,5.0,2.0,0.0,0.3411,0.0,0.57156,1.0,0.368,0.0,0.44262,0.0,0.21303,0.0,0.42555,0.0,0.3200999999999999,0.0,0.7041299999999999,1.0,0.59517,1.0,1.01712,1.0,0.57135,1.0,0.97767,1.0,0.6320000000000001,1.0,1.94424,2.0,3.3822,3.0,1.45561,1.0,1.6814,2.0,0.91864,1.0,0.50105,1.0,0.20042,0.0,0.0,0.0,17.26296,17.0,0.0,0.0,0.0,144.0,314.0,0.0,2239.0,0.0,0.0,54.0,65.0,0.0,875.0,65.0,1965.0,0.0,0.0,0.0,0.0,569.0,133.0,138.8515121516631,37.04257773246286,5.437965597386806,6423.0,南魚沼市塩沢,南魚沼市塩沢,code_in_target_towns
15226109072,南魚沼市,塩沢,南魚沼市,塩沢,南魚沼市塩沢,15226.0,109072.0,南魚沼市,塩沢,新潟県南魚沼市塩沢,25.0,h03_15.csv,0.0,0.0,2.0,2.0,0.0,0.0,0.0,2.0,2.0,3.0,3.0,1.0,0.0,3.0,3.0,2.0,1.0,0.0,1.0,0.0,0.0,0.0,0.0,0.0,0.0,0.0736,0.0,0.04918,0.0,0.0,0.0,0.0,0.0,0.0,0.0,0.06706,0.0,0.07002,0.0,0.11736,0.0,0.13185,0.0,0.05751,0.0,0.0,0.0,0.24303,0.0,0.28185,0.0,0.22394,0.0,0.1201,0.0,0.0,0.0,0.10021,0.0,0.0,0.0,0.0,0.0,1.53571,0.0,0.0,0.0,0.0,0.0,0.0,0.0,44.0,0.0,0.0,33.0,0.0,0.0,0.0,0.0,164.0,0.0,0.0,0.0,0.0,0.0,0.0,138.82858278457928,37.047384106890625,5.478046993678559,241.0,南魚沼市塩沢,南魚沼市塩沢,code_in_target_towns
15226127062,南魚沼市,長崎,南魚沼市,長崎,南魚沼市長崎,15226.0,127062.0,南魚沼市,長崎,新潟県南魚沼市長崎,167.0,h03_15.csv,4.0,4.0,9.0,5.0,0.0,3.0,4.0,4.0,13.0,11.0,9.0,12.0,15.0,15.0,16.0,14.0,12.0,11.0,5.0,1.0,0.0,0.1516,0.0,0.20784,0.0,0.3312,0.0,0.12295,0.0,0.0,0.0,0.0851099999999999,0.0,0.12804,0.0,0.13412,0.0,0.45513,0.0,0.43032,0.0,0.39555,0.0,0.69012,1.0,0.948,1.0,1.21515,1.0,1.5032,2.0,1.56758,2.0,1.4412,1.0,1.26313,1.0,0.50105,1.0,0.10021,0.0,0.0,0.0,11.6715,10.0,0.0,0.0,0.0,0.0,0.0,0.0,164.0,0.0,0.0,0.0,0.0,0.0,64.0,0.0,1419.0,31.0,0.0,0.0,0.0,554.0,0.0,138.88837784136146,36.99809284382708,5.551607968458743,2232.0,南魚沼市長崎,南魚沼市長崎,code_in_target_towns
15226123055,南魚沼市,三郎丸,南魚沼市,三郎丸,南魚沼市三郎丸,15226.0,123055.0,南魚沼市,三郎丸,新潟県南魚沼市三郎丸,265.0,h03_15.csv,9.0,9.0,19.0,9.0,10.0,8.0,8.0,18.0,12.0,19.0,17.0,16.0,31.0,20.0,18.0,12.0,11.0,10.0,9.0,0.0,0.0,0.3411,0.0,0.46764,0.0,0.6992,1.0,0.22131,0.0,0.2367,0.0,0.22696,0.0,0.25608,0.0,0.60354,1.0,0.42012,0.0,0.74328,1.0,0.7471500000000001,1.0,0.92016,1.0,1.9592000000000005,2.0,1.6202,2.0,1.6911,2.0,1.34364,1.0,1.3211,1.0,1.1483,1.0,0.90189,1.0,0.0,0.0,0.0,0.0,15.868670000000002,15.0,0.0,0.0,0.0,0.0,68.0,0.0,980.0,0.0,0.0,0.0,0.0,0.0,0.0,0.0,1442.0,0.0,0.0,0.0,0.0,78.0,0.0,138.87086411239025,37.03399163548245,5.641923777478421,2568.0,南魚沼市三郎丸,南魚沼市三郎丸,code_in_target_towns
15210110025,十日町市,土倉,十日町市,土倉,十日町市土倉,,,,,,,,,,,,,,,,,,,,,,,,,,,,,,,,,,,,,,,,,,,,,,,,,,,,,,,,,,,,,,,,,,,,,,,,,0.0,0.0,0.0,0.0,0.0,0.0,0.0,0.0,0.0,0.0,0.0,0.0,0.0,0.0,0.0,0.0,0.0,0.0,0.0,0.0,0.0,138.76151986312436,36.999479252911016,5.716025352436003,0.0,十日町市土倉,十日町市土倉,code_in_target_towns
15226109006,南魚沼市,塩沢,南魚沼市,塩沢,南魚沼市塩沢,15226.0,109006.0,南魚沼市,塩沢,新潟県南魚沼市塩沢,953.0,h03_15.csv,40.0,52.0,50.0,44.0,40.0,43.0,52.0,57.0,73.0,72.0,80.0,57.0,60.0,51.0,58.0,48.0,28.0,25.0,15.0,1.0,0.0,1.516,2.0,2.70192,3.0,1.84,2.0,1.08196,1.0,0.9468,1.0,1.21991,1.0,1.6645199999999998,2.0,1.91121,2.0,2.55573,3.0,2.81664,3.0,3.516,4.0,3.27807,3.0,3.792,4.0,4.13151,4.0,5.4491000000000005,5.0,5.37456,5.0,3.3628,3.0,2.87075,3.0,1.50315,2.0,0.10021,0.0,0.0,0.0,51.63284,53.0,0.0,0.0,0.0,0.0,1238.0,42.0,1761.0,0.0,0.0,409.0,0.0,113.0,1863.0,298.0,6694.0,0.0,0.0,0.0,50.0,530.0,137.0,138.85747341180502,37.04314118152742,5.734494699412382,13135.0,南魚沼市塩沢,南魚沼市塩沢,code_in_target_towns
15226132067,南魚沼市,一之沢,南魚沼市,一之沢,南魚沼市一之沢,,,,,,,,,,,,,,,,,,,,,,,,,,,,,,,,,,,,,,,,,,,,,,,,,,,,,,,,,,,,,,,,,,,,,,,,,0.0,0.0,0.0,0.0,0.0,0.0,0.0,0.0,0.0,0.0,0.0,0.0,0.0,0.0,0.0,0.0,0.0,0.0,0.0,0.0,0.0,138.8771550470338,36.96648125545949,5.759303654317732,0.0,南魚沼市一之沢,南魚沼市一之沢,code_in_target_towns
15226126052,南魚沼市,枝吉,南魚沼市,枝吉,南魚沼市枝吉,,,,,,,,,,,,,,,,,,,,,,,,,,,,,,,,,,,,,,,,,,,,,,,,,,,,,,,,,,,,,,,,,,,,,,,,,0.0,0.0,0.0,0.0,0.0,0.0,79.0,0.0,1616.0,0.0,0.0,0.0,0.0,0.0,376.0,0.0,0.0,0.0,0.0,0.0,0.0,138.88013174865213,37.02686886975007,5.779507763794959,2071.0,南魚沼市枝吉,南魚沼市枝吉,code_in_target_towns
15226127063,南魚沼市,長崎,南魚沼市,長崎,南魚沼市長崎,15226.0,127063.0,南魚沼市,長崎,新潟県南魚沼市長崎,129.0,h03_15.csv,0.0,6.0,12.0,5.0,3.0,4.0,2.0,8.0,9.0,10.0,9.0,7.0,9.0,15.0,8.0,5.0,5.0,4.0,5.0,2.0,1.0,0.0,0.0,0.31176,0.0,0.4416,0.0,0.12295,0.0,0.07101,0.0,0.11348,0.0,0.06402,0.0,0.26824,0.0,0.31509,0.0,0.3912,0.0,0.39555,0.0,0.40257,0.0,0.5688000000000001,1.0,1.21515,1.0,0.7516,1.0,0.55985,1.0,0.6005,1.0,0.45932,0.0,0.50105,1.0,0.20042,0.0,0.10021,0.0,7.854369999999999,6.0,0.0,0.0,0.0,0.0,108.0,318.0,53.0,0.0,0.0,301.0,0.0,238.0,106.0,0.0,728.0,81.0,0.0,0.0,0.0,0.0,0.0,138.8913759974739,36.99001429320829,5.888363854283545,1933.0,南魚沼市長崎,南魚沼市長崎,code_in_target_towns
15226117014,南魚沼市,吉里,南魚沼市,吉里,南魚沼市吉里,15226.0,117014.0,南魚沼市,吉里,新潟県南魚沼市吉里,559.0,h03_15.csv,18.0,24.0,46.0,24.0,16.0,17.0,19.0,29.0,36.0,42.0,31.0,29.0,44.0,58.0,43.0,32.0,21.0,15.0,13.0,2.0,0.0,0.6822,1.0,1.24704,1.0,1.6928,2.0,0.59016,1.0,0.37872,0.0,0.48229,0.0,0.6081899999999999,1.0,0.97237,1.0,1.26036,1.0,1.64304,2.0,1.3624500000000002,1.0,1.66779,2.0,2.7808,3.0,4.69858,5.0,4.03985,4.0,3.58304,4.0,2.5221,3.0,1.72245,2.0,1.30273,1.0,0.20042,0.0,0.0,0.0,33.437380000000005,35.0,0.0,0.0,0.0,0.0,486.0,0.0,1107.0,35.0,164.0,122.0,0.0,50.0,540.0,397.0,1029.0,0.0,0.0,38.0,0.0,78.0,588.0,138.84292639573107,37.04973548716064,5.930873707444869,4634.0,南魚沼市吉里,南魚沼市吉里,code_in_target_towns
15226122012,南魚沼市,栃窪,南魚沼市,栃窪,南魚沼市栃窪,,,,,,,,,,,,,,,,,,,,,,,,,,,,,,,,,,,,,,,,,,,,,,,,,,,,,,,,,,,,,,,,,,,,,,,,,0.0,0.0,0.0,0.0,74.0,0.0,24.0,0.0,0.0,0.0,0.0,80.0,33.0,24.0,640.0,0.0,0.0,0.0,0.0,174.0,0.0,138.81598937823642,37.052503898078335,6.105290642341895,1049.0,南魚沼市栃窪,南魚沼市栃窪,code_in_target_towns
15226109007,南魚沼市,塩沢,南魚沼市,塩沢,南魚沼市塩沢,15226.0,109007.0,南魚沼市,塩沢,新潟県南魚沼市塩沢,118.0,h03_15.csv,9.0,5.0,2.0,4.0,7.0,11.0,7.0,18.0,10.0,10.0,9.0,4.0,5.0,5.0,3.0,2.0,0.0,1.0,0.0,0.0,0.0,0.3411,0.0,0.2598,0.0,0.0736,0.0,0.09836,0.0,0.16569,0.0,0.31207,0.0,0.22407,0.0,0.60354,1.0,0.3500999999999999,0.0,0.3912,0.0,0.39555,0.0,0.23004,0.0,0.316,0.0,0.40505,0.0,0.28185,0.0,0.22394,0.0,0.0,0.0,0.11483,0.0,0.0,0.0,0.0,0.0,0.0,0.0,4.786790000000001,1.0,0.0,0.0,0.0,0.0,0.0,0.0,373.0,0.0,0.0,0.0,0.0,0.0,122.0,47.0,5292.0,0.0,0.0,0.0,0.0,0.0,332.0,138.86332434455332,37.044750375642415,6.155576258500623,6166.0,南魚沼市塩沢,南魚沼市塩沢,code_in_target_towns
15226112019,南魚沼市,島新田,南魚沼市,島新田,南魚沼市島新田,,,,,,,,,,,,,,,,,,,,,,,,,,,,,,,,,,,,,,,,,,,,,,,,,,,,,,,,,,,,,,,,,,,,,,,,,0.0,0.0,0.0,0.0,325.0,0.0,1124.0,0.0,0.0,0.0,0.0,41.0,0.0,138.0,3492.0,0.0,0.0,0.0,0.0,176.0,0.0,138.8696722546879,37.041401736483486,6.183769638349473,5296.0,南魚沼市島新田,南魚沼市島新田,code_in_target_towns
15226129066,南魚沼市,滝谷,南魚沼市,滝谷,南魚沼市滝谷,15226.0,129066.0,南魚沼市,滝谷,新潟県南魚沼市滝谷,123.0,h03_15.csv,7.0,4.0,6.0,4.0,6.0,6.0,5.0,3.0,7.0,12.0,4.0,3.0,9.0,11.0,13.0,11.0,6.0,4.0,1.0,1.0,0.0,0.2653,0.0,0.20784,0.0,0.2208,0.0,0.09836,0.0,0.14202,0.0,0.1702199999999999,0.0,0.1600499999999999,0.0,0.1005899999999999,0.0,0.24507,0.0,0.46944,0.0,0.1758,0.0,0.17253,0.0,0.5688000000000001,1.0,0.89111,1.0,1.2213500000000002,1.0,1.23167,1.0,0.7206,1.0,0.45932,0.0,0.10021,0.0,0.10021,0.0,0.0,0.0,7.72129,5.0,0.0,0.0,0.0,0.0,0.0,0.0,0.0,41.0,0.0,43.0,0.0,0.0,0.0,54.0,580.0,0.0,0.0,0.0,0.0,0.0,0.0,138.8937556131433,36.98310108858499,6.258162643389447,718.0,南魚沼市滝谷,南魚沼市滝谷,code_in_target_towns
15226111017,南魚沼市,竹俣新田,南魚沼市,竹俣新田,南魚沼市竹俣新田,,,,,,,,,,,,,,,,,,,,,,,,,,,,,,,,,,,,,,,,,,,,,,,,,,,,,,,,,,,,,,,,,,,,,,,,,0.0,0.0,0.0,0.0,82.0,0.0,168.0,0.0,0.0,0.0,0.0,0.0,462.0,162.0,0.0,0.0,0.0,0.0,0.0,819.0,0.0,138.86094878331048,37.046993736710675,6.259314010810986,1693.0,南魚沼市竹俣新田,南魚沼市竹俣新田,code_in_target_towns
15461002000,湯沢町,大字湯沢,湯沢町,大字湯沢,湯沢町大字湯沢,,,,,,,,,,,,,,,,,,,,,,,,,,,,,,,,,,,,,,,,,,,,,,,,,,,,,,,,,,,,,,,,,,,,,,,,,0.0,0.0,36.0,0.0,0.0,34.0,1563.0,0.0,38.0,392.0,0.0,86.0,988.0,7864.0,4974.0,0.0,0.0,0.0,0.0,122.0,399.0,138.8003863979093,36.94444617591338,6.387901401836763,16496.0,湯沢町大字湯沢,湯沢町湯沢,code_in_target_towns
15226123054,南魚沼市,三郎丸,南魚沼市,三郎丸,南魚沼市三郎丸,15226.0,123054.0,南魚沼市,三郎丸,新潟県南魚沼市三郎丸,78.0,h03_15.csv,2.0,5.0,2.0,3.0,1.0,5.0,4.0,6.0,4.0,2.0,8.0,5.0,4.0,8.0,8.0,4.0,2.0,4.0,1.0,0.0,0.0,0.0758,0.0,0.2598,0.0,0.0736,0.0,0.07377,0.0,0.02367,0.0,0.14185,0.0,0.12804,0.0,0.2011799999999999,0.0,0.14004,0.0,0.07824,0.0,0.3516,0.0,0.28755,0.0,0.2528,0.0,0.64808,1.0,0.7516,1.0,0.44788,0.0,0.2402,0.0,0.45932,0.0,0.10021,0.0,0.0,0.0,0.0,0.0,4.73523,2.0,0.0,0.0,0.0,0.0,191.0,0.0,470.0,0.0,0.0,0.0,0.0,0.0,0.0,47.0,4993.0,0.0,0.0,0.0,0.0,0.0,0.0,138.8785761558198,37.03826743158454,6.464073101260659,5701.0,南魚沼市三郎丸,南魚沼市三郎丸,code_in_target_towns
15226119016,南魚沼市,片田,南魚沼市,片田,南魚沼市片田,,,,,,,,,,,,,,,,,,,,,,,,,,,,,,,,,,,,,,,,,,,,,,,,,,,,,,,,,,,,,,,,,,,,,,,,,0.0,0.0,0.0,0.0,120.0,0.0,90.0,0.0,0.0,15.0,0.0,0.0,17.0,76.0,69.0,0.0,0.0,0.0,0.0,61.0,0.0,138.85933320331313,37.05160938589737,6.6439481017451,448.0,南魚沼市片田,南魚沼市片田,code_in_target_towns
15226124053,南魚沼市,雲洞,南魚沼市,雲洞,南魚沼市雲洞,,,,,,,,,,,,,,,,,,,,,,,,,,,,,,,,,,,,,,,,,,,,,,,,,,,,,,,,,,,,,,,,,,,,,,,,,0.0,0.0,0.0,320.0,0.0,0.0,460.0,0.0,0.0,0.0,0.0,0.0,0.0,0.0,1258.0,0.0,0.0,0.0,0.0,0.0,0.0,138.8850804590095,37.03473631748433,6.646549242312334,2038.0,南魚沼市雲洞,南魚沼市雲洞,code_in_target_towns
15210113024,十日町市,葎沢,十日町市,葎沢,十日町市葎沢,,,,,,,,,,,,,,,,,,,,,,,,,,,,,,,,,,,,,,,,,,,,,,,,,,,,,,,,,,,,,,,,,,,,,,,,,0.0,0.0,0.0,0.0,0.0,0.0,0.0,0.0,0.0,0.0,0.0,0.0,0.0,0.0,0.0,0.0,0.0,0.0,0.0,0.0,0.0,138.76064788608969,36.966934374926005,6.754102595435258,0.0,十日町市葎沢,十日町市葎沢,code_in_target_towns
15226110018,南魚沼市,竹俣,南魚沼市,竹俣,南魚沼市竹俣,,,,,,,,,,,,,,,,,,,,,,,,,,,,,,,,,,,,,,,,,,,,,,,,,,,,,,,,,,,,,,,,,,,,,,,,,22.0,0.0,0.0,0.0,150.0,0.0,695.0,1680.0,0.0,57.0,0.0,18.0,375.0,0.0,2588.0,0.0,0.0,0.0,0.0,136.0,327.0,138.86664459458382,37.04967612489675,6.775838781617717,6048.0,南魚沼市竹俣,南魚沼市竹俣,code_in_target_towns
15226159000,南魚沼市,台上,南魚沼市,台上,南魚沼市台上,,,,,,,,,,,,,,,,,,,,,,,,,,,,,,,,,,,,,,,,,,,,,,,,,,,,,,,,,,,,,,,,,,,,,,,,,0.0,0.0,0.0,0.0,0.0,0.0,105.0,0.0,0.0,118.0,0.0,0.0,59.0,18.0,1105.0,0.0,0.0,0.0,0.0,150.0,0.0,138.90178240447744,36.99131493557499,6.785225348729006,1555.0,南魚沼市台上,南魚沼市台上,code_in_target_towns
15461001003,湯沢町,湯沢三丁目,湯沢町,湯沢三丁目,湯沢町湯沢三丁目,15461.0,1003.0,湯沢町,湯沢三丁目,新潟県湯沢町湯沢三丁目,126.0,h03_15.csv,4.0,1.0,0.0,4.0,6.0,6.0,4.0,3.0,8.0,9.0,6.0,7.0,12.0,15.0,9.0,8.0,5.0,13.0,6.0,0.0,0.0,0.1516,0.0,0.05196,0.0,0.0,0.0,0.09836,0.0,0.14202,0.0,0.1702199999999999,0.0,0.12804,0.0,0.1005899999999999,0.0,0.28008,0.0,0.35208,0.0,0.2637,0.0,0.40257,0.0,0.7584000000000001,1.0,1.21515,1.0,0.84555,1.0,0.89576,1.0,0.6005,1.0,1.49279,1.0,0.6012599999999999,1.0,0.0,0.0,0.0,0.0,8.550630000000002,7.0,0.0,0.0,0.0,0.0,0.0,0.0,0.0,0.0,0.0,0.0,0.0,0.0,0.0,825.0,0.0,0.0,0.0,0.0,0.0,0.0,0.0,138.8110454085101,36.93800312645487,6.818212642785258,825.0,湯沢町湯沢三丁目,湯沢町湯沢三丁目,code_in_target_towns
15461001002,湯沢町,湯沢二丁目,湯沢町,湯沢二丁目,湯沢町湯沢二丁目,15461.0,1002.0,湯沢町,湯沢二丁目,新潟県湯沢町湯沢二丁目,149.0,h03_15.csv,2.0,7.0,6.0,16.0,3.0,4.0,4.0,7.0,8.0,13.0,9.0,4.0,7.0,15.0,11.0,17.0,9.0,3.0,3.0,0.0,0.0,0.0758,0.0,0.36372,0.0,0.2208,0.0,0.39344,0.0,0.07101,0.0,0.11348,0.0,0.12804,0.0,0.2347099999999999,0.0,0.28008,0.0,0.50856,1.0,0.39555,0.0,0.23004,0.0,0.4424,0.0,1.21515,1.0,1.03345,1.0,1.90349,2.0,1.0809,1.0,0.34449,0.0,0.3006299999999999,0.0,0.0,0.0,0.0,0.0,9.33574,6.0,0.0,0.0,0.0,0.0,0.0,0.0,0.0,0.0,0.0,0.0,0.0,0.0,0.0,739.0,287.0,0.0,0.0,0.0,0.0,0.0,0.0,138.80925899314505,36.93772370970019,6.880972596757701,1026.0,湯沢町湯沢二丁目,湯沢町湯沢二丁目,code_in_target_towns
15461001004,湯沢町,湯沢四丁目,湯沢町,湯沢四丁目,湯沢町湯沢四丁目,15461.0,1004.0,湯沢町,湯沢四丁目,新潟県湯沢町湯沢四丁目,134.0,h03_15.csv,7.0,6.0,6.0,3.0,6.0,8.0,6.0,8.0,9.0,12.0,9.0,18.0,9.0,2.0,6.0,4.0,5.0,6.0,1.0,0.0,0.0,0.2653,0.0,0.31176,0.0,0.2208,0.0,0.07377,0.0,0.14202,0.0,0.22696,0.0,0.1920599999999999,0.0,0.26824,0.0,0.31509,0.0,0.46944,0.0,0.39555,0.0,1.03518,1.0,0.5688000000000001,1.0,0.16202,0.0,0.5637000000000001,1.0,0.44788,0.0,0.6005,1.0,0.68898,1.0,0.10021,0.0,0.0,0.0,0.0,0.0,7.04826,5.0,0.0,0.0,0.0,70.0,0.0,0.0,31.0,0.0,0.0,190.0,0.0,162.0,256.0,640.0,10395.0,0.0,0.0,0.0,0.0,0.0,0.0,138.813440438837,36.93677654430476,6.914949456808835,11744.0,湯沢町湯沢四丁目,湯沢町湯沢四丁目,code_in_target_towns
15461001005,湯沢町,湯沢五丁目,湯沢町,湯沢五丁目,湯沢町湯沢五丁目,15461.0,1005.0,湯沢町,湯沢五丁目,新潟県湯沢町湯沢五丁目,94.0,h03_15.csv,5.0,1.0,3.0,4.0,3.0,11.0,7.0,4.0,7.0,5.0,5.0,6.0,2.0,9.0,3.0,5.0,7.0,3.0,3.0,0.0,0.0,0.1895,0.0,0.05196,0.0,0.1104,0.0,0.09836,0.0,0.07101,0.0,0.31207,0.0,0.22407,0.0,0.13412,0.0,0.24507,0.0,0.1956,0.0,0.21975,0.0,0.34506,0.0,0.1264,0.0,0.72909,1.0,0.28185,0.0,0.55985,1.0,0.8407,1.0,0.34449,0.0,0.3006299999999999,0.0,0.0,0.0,0.0,0.0,5.37998,3.0,0.0,0.0,0.0,0.0,0.0,0.0,0.0,0.0,0.0,0.0,0.0,0.0,372.0,248.0,120.0,0.0,0.0,0.0,0.0,0.0,0.0,138.81447353846764,36.936153677162665,6.96941278289888,740.0,湯沢町湯沢五丁目,湯沢町湯沢五丁目,code_in_target_towns
15210112023,十日町市,角間,十日町市,角間,十日町市角間,,,,,,,,,,,,,,,,,,,,,,,,,,,,,,,,,,,,,,,,,,,,,,,,,,,,,,,,,,,,,,,,,,,,,,,,,0.0,0.0,0.0,0.0,0.0,0.0,0.0,0.0,0.0,0.0,0.0,0.0,0.0,0.0,0.0,0.0,0.0,0.0,0.0,0.0,0.0,138.74714419029797,36.996618526450504,6.993054551251752,0.0,十日町市角間,十日町市角間,code_in_target_towns
15461001001,湯沢町,湯沢一丁目,湯沢町,湯沢一丁目,湯沢町湯沢一丁目,15461.0,1001.0,湯沢町,湯沢一丁目,新潟県湯沢町湯沢一丁目,124.0,h03_15.csv,3.0,4.0,5.0,7.0,4.0,2.0,4.0,7.0,6.0,7.0,12.0,4.0,13.0,8.0,13.0,12.0,5.0,5.0,1.0,1.0,0.0,0.1137,0.0,0.20784,0.0,0.184,0.0,0.17213,0.0,0.09468,0.0,0.05674,0.0,0.12804,0.0,0.2347099999999999,0.0,0.21006,0.0,0.27384,0.0,0.5274000000000001,1.0,0.23004,0.0,0.8216000000000001,1.0,0.64808,1.0,1.2213500000000002,1.0,1.34364,1.0,0.6005,1.0,0.57415,1.0,0.10021,0.0,0.10021,0.0,0.0,0.0,7.84292,7.0,0.0,0.0,0.0,0.0,0.0,0.0,0.0,0.0,0.0,0.0,0.0,0.0,0.0,0.0,0.0,0.0,0.0,0.0,0.0,0.0,0.0,138.81172879578793,36.93599747266152,7.02606378618283,0.0,湯沢町湯沢一丁目,湯沢町湯沢一丁目,code_in_target_towns
15226006022,南魚沼市,西泉田,南魚沼市,西泉田,南魚沼市西泉田,15226.0,6022.0,南魚沼市,西泉田,新潟県南魚沼市西泉田,828.0,h03_15.csv,44.0,44.0,36.0,23.0,28.0,40.0,58.0,70.0,42.0,63.0,56.0,42.0,53.0,65.0,54.0,44.0,32.0,22.0,10.0,1.0,0.0,1.6676000000000002,2.0,2.28624,2.0,1.3248,1.0,0.56557,1.0,0.66276,1.0,1.1348,1.0,1.85658,2.0,2.3470999999999997,2.0,1.47042,1.0,2.46456,2.0,2.4612000000000003,2.0,2.41542,2.0,3.3496,3.0,5.26565,5.0,5.073300000000001,5.0,4.92668,5.0,3.8432,4.0,2.52626,3.0,1.0021,1.0,0.10021,0.0,0.0,0.0,46.74405,45.0,0.0,0.0,0.0,0.0,155.0,242.0,1859.0,0.0,73.0,520.0,0.0,135.0,1298.0,462.0,18408.0,0.0,80.0,0.0,133.0,67.0,142.0,138.87411777386842,37.048875528841556,7.081259744939503,23574.0,南魚沼市西泉田,南魚沼市西泉田,code_in_target_towns
15226117013,南魚沼市,吉里,南魚沼市,吉里,南魚沼市吉里,15226.0,117013.0,南魚沼市,吉里,新潟県南魚沼市吉里,63.0,h03_15.csv,1.0,4.0,5.0,0.0,1.0,0.0,1.0,2.0,4.0,6.0,2.0,0.0,6.0,3.0,9.0,9.0,4.0,4.0,1.0,0.0,1.0,0.0379,0.0,0.20784,0.0,0.184,0.0,0.0,0.0,0.02367,0.0,0.0,0.0,0.03201,0.0,0.06706,0.0,0.14004,0.0,0.23472,0.0,0.0879,0.0,0.0,0.0,0.3792,0.0,0.24303,0.0,0.84555,1.0,1.00773,1.0,0.4804,0.0,0.45932,0.0,0.10021,0.0,0.0,0.0,0.10021,0.0,4.630789999999999,2.0,0.0,0.0,0.0,0.0,64.0,0.0,168.0,0.0,0.0,12.0,0.0,0.0,10.0,76.0,243.0,0.0,0.0,0.0,0.0,189.0,46.0,138.82084243999046,37.06220100765562,7.134236689093218,808.0,南魚沼市吉里,南魚沼市吉里,code_in_target_towns
15226127059,南魚沼市,長崎,南魚沼市,長崎,南魚沼市長崎,15226.0,127059.0,南魚沼市,長崎,新潟県南魚沼市長崎,97.0,h03_15.csv,2.0,5.0,6.0,3.0,3.0,4.0,3.0,3.0,7.0,6.0,3.0,5.0,11.0,11.0,6.0,2.0,7.0,6.0,2.0,2.0,0.0,0.0758,0.0,0.2598,0.0,0.2208,0.0,0.07377,0.0,0.07101,0.0,0.11348,0.0,0.0960299999999999,0.0,0.1005899999999999,0.0,0.24507,0.0,0.23472,0.0,0.13185,0.0,0.28755,0.0,0.6952,1.0,0.89111,1.0,0.5637000000000001,1.0,0.22394,0.0,0.8407,1.0,0.68898,1.0,0.20042,0.0,0.20042,0.0,0.0,0.0,6.21494,5.0,0.0,0.0,0.0,0.0,114.0,0.0,116.0,0.0,0.0,0.0,0.0,0.0,0.0,0.0,2486.0,0.0,0.0,0.0,0.0,0.0,0.0,138.90290930679873,37.018139408600284,7.192641353359898,2716.0,南魚沼市長崎,南魚沼市長崎,code_in_target_towns
15226007003,南魚沼市,小栗山上町一丁目三区,南魚沼市,小栗山上町一丁目三区,南魚沼市小栗山上町一丁目三区,15226.0,7003.0,南魚沼市,小栗山上町一丁目三区,新潟県南魚沼市小栗山上町一丁目三区,66.0,h03_15.csv,4.0,1.0,2.0,3.0,4.0,3.0,5.0,9.0,4.0,2.0,4.0,6.0,2.0,4.0,4.0,2.0,2.0,0.0,0.0,0.0,0.0,0.1516,0.0,0.05196,0.0,0.0736,0.0,0.07377,0.0,0.09468,0.0,0.0851099999999999,0.0,0.1600499999999999,0.0,0.30177,0.0,0.14004,0.0,0.07824,0.0,0.1758,0.0,0.34506,0.0,0.1264,0.0,0.32404,0.0,0.3758,0.0,0.22394,0.0,0.2402,0.0,0.0,0.0,0.0,0.0,0.0,0.0,0.0,0.0,3.0220599999999997,0.0,0.0,0.0,0.0,0.0,0.0,0.0,281.0,0.0,0.0,0.0,0.0,0.0,0.0,0.0,179.0,0.0,0.0,0.0,0.0,0.0,0.0,138.86421336817978,37.0569402462992,7.36884387347719,460.0,南魚沼市小栗山上町一丁目三区,南魚沼市小栗山上町一丁目三区,code_in_target_towns
15226118015,南魚沼市,思川,南魚沼市,思川,南魚沼市思川,,,,,,,,,,,,,,,,,,,,,,,,,,,,,,,,,,,,,,,,,,,,,,,,,,,,,,,,,,,,,,,,,,,,,,,,,0.0,0.0,0.0,0.0,232.0,0.0,744.0,0.0,0.0,0.0,0.0,0.0,418.0,0.0,0.0,0.0,0.0,0.0,0.0,0.0,0.0,138.83998743446105,37.06349850331149,7.371952828618354,1394.0,南魚沼市思川,南魚沼市思川,code_in_target_towns
15226006023,南魚沼市,西泉田沖町,南魚沼市,西泉田沖町,南魚沼市西泉田沖町,15226.0,6023.0,南魚沼市,西泉田沖町,新潟県南魚沼市西泉田沖町,101.0,h03_15.csv,4.0,5.0,7.0,5.0,5.0,2.0,3.0,5.0,8.0,10.0,10.0,3.0,2.0,4.0,13.0,8.0,4.0,3.0,0.0,0.0,0.0,0.1516,0.0,0.2598,0.0,0.2576,0.0,0.12295,0.0,0.11835,0.0,0.05674,0.0,0.0960299999999999,0.0,0.16765,0.0,0.28008,0.0,0.3912,0.0,0.4395,0.0,0.17253,0.0,0.1264,0.0,0.32404,0.0,1.2213500000000002,1.0,0.89576,1.0,0.4804,0.0,0.34449,0.0,0.0,0.0,0.0,0.0,0.0,0.0,5.9064700000000006,2.0,0.0,0.0,0.0,0.0,0.0,0.0,0.0,0.0,0.0,0.0,0.0,0.0,0.0,0.0,0.0,0.0,0.0,0.0,0.0,0.0,0.0,138.87307426985353,37.053012039531,7.399781308910537,0.0,南魚沼市西泉田沖町,南魚沼市西泉田沖町,code_in_target_towns
15226003001,南魚沼市,六日町上町一丁目一区,南魚沼市,六日町上町一丁目一区,南魚沼市六日町上町一丁目一区,15226.0,3001.0,南魚沼市,六日町上町一丁目一区,新潟県南魚沼市六日町上町一丁目一区,482.0,h03_15.csv,20.0,23.0,22.0,21.0,9.0,31.0,19.0,29.0,33.0,42.0,21.0,31.0,33.0,32.0,33.0,27.0,25.0,12.0,7.0,1.0,0.0,0.758,1.0,1.19508,1.0,0.8096,1.0,0.51639,1.0,0.21303,0.0,0.87947,1.0,0.6081899999999999,1.0,0.97237,1.0,1.15533,1.0,1.64304,2.0,0.92295,1.0,1.78281,2.0,2.0856000000000003,2.0,2.59232,3.0,3.10035,3.0,3.02319,3.0,3.0025,3.0,1.37796,1.0,0.7014699999999999,1.0,0.10021,0.0,0.0,0.0,27.439860000000003,29.0,0.0,0.0,0.0,0.0,138.0,45.0,3882.0,0.0,0.0,308.0,0.0,170.0,317.0,154.0,3170.0,0.0,0.0,0.0,0.0,0.0,249.0,138.87201014793914,37.05434491034453,7.470156709342426,8433.0,南魚沼市六日町上町一丁目一区,南魚沼市六日町上町一丁目一区,code_in_target_towns
15210102018,十日町市,市之越,十日町市,市之越,十日町市市之越,,,,,,,,,,,,,,,,,,,,,,,,,,,,,,,,,,,,,,,,,,,,,,,,,,,,,,,,,,,,,,,,,,,,,,,,,0.0,0.0,0.0,0.0,0.0,0.0,0.0,0.0,0.0,0.0,0.0,0.0,0.0,0.0,0.0,0.0,0.0,0.0,0.0,0.0,0.0,138.74494753134513,37.0195185328087,7.567043335648012,0.0,十日町市市之越,十日町市市之越,code_in_target_towns
15226003003,南魚沼市,六日町上町一丁目三区,南魚沼市,六日町上町一丁目三区,南魚沼市六日町上町一丁目三区,15226.0,3003.0,南魚沼市,六日町上町一丁目三区,新潟県南魚沼市六日町上町一丁目三区,468.0,h03_15.csv,22.0,13.0,9.0,10.0,13.0,33.0,22.0,23.0,27.0,30.0,29.0,22.0,26.0,24.0,24.0,20.0,28.0,24.0,26.0,15.0,0.0,0.8338000000000001,1.0,0.67548,1.0,0.3312,0.0,0.2459,0.0,0.30771,0.0,0.93621,1.0,0.70422,1.0,0.7711899999999999,1.0,0.94527,1.0,1.1736,1.0,1.27455,1.0,1.26522,1.0,1.6432000000000002,2.0,1.94424,2.0,2.2548000000000004,2.0,2.2394,2.0,3.3628,3.0,2.75592,3.0,2.60546,3.0,1.50315,2.0,0.0,0.0,27.77332,28.0,0.0,0.0,0.0,0.0,127.0,53.0,2389.0,0.0,0.0,847.0,0.0,1050.0,2374.0,0.0,1966.0,0.0,0.0,59.0,0.0,0.0,339.0,138.86903125735938,37.05739093505448,7.61920278109272,9204.0,南魚沼市六日町上町一丁目三区,南魚沼市六日町上町一丁目三区,code_in_target_towns
15210114030,十日町市,小出,十日町市,小出,十日町市小出,,,,,,,,,,,,,,,,,,,,,,,,,,,,,,,,,,,,,,,,,,,,,,,,,,,,,,,,,,,,,,,,,,,,,,,,,0.0,0.0,0.0,0.0,0.0,0.0,63.0,0.0,0.0,0.0,0.0,0.0,0.0,0.0,107.0,0.0,0.0,0.0,0.0,0.0,0.0,138.74267683251597,36.97983641612659,7.664472341671309,170.0,十日町市小出,十日町市小出,code_in_target_towns
15226005031,南魚沼市,東泉田若葉町,南魚沼市,東泉田若葉町,南魚沼市東泉田若葉町,15226.0,5031.0,南魚沼市,東泉田若葉町,新潟県南魚沼市東泉田若葉町,111.0,h03_15.csv,4.0,6.0,5.0,9.0,2.0,4.0,7.0,7.0,5.0,14.0,7.0,7.0,2.0,6.0,7.0,6.0,9.0,2.0,1.0,1.0,0.0,0.1516,0.0,0.31176,0.0,0.184,0.0,0.22131,0.0,0.04734,0.0,0.11348,0.0,0.22407,0.0,0.2347099999999999,0.0,0.1750499999999999,0.0,0.5476800000000001,1.0,0.30765,0.0,0.40257,0.0,0.1264,0.0,0.48606,0.0,0.6576500000000001,1.0,0.67182,1.0,1.0809,1.0,0.22966,0.0,0.10021,0.0,0.10021,0.0,0.0,0.0,6.374129999999999,4.0,0.0,0.0,0.0,0.0,0.0,0.0,134.0,0.0,0.0,0.0,0.0,0.0,0.0,171.0,321.0,0.0,0.0,0.0,0.0,0.0,0.0,138.87716678188445,37.05377160924486,7.679267021025005,626.0,南魚沼市東泉田若葉町,南魚沼市東泉田若葉町,code_in_target_towns
15226005002,南魚沼市,東泉田上町一丁目二区,南魚沼市,東泉田上町一丁目二区,南魚沼市東泉田上町一丁目二区,15226.0,5002.0,南魚沼市,東泉田上町一丁目二区,新潟県南魚沼市東泉田上町一丁目二区,34.0,h03_15.csv,0.0,2.0,3.0,2.0,1.0,0.0,0.0,2.0,2.0,3.0,3.0,1.0,4.0,1.0,1.0,4.0,2.0,2.0,1.0,0.0,0.0,0.0,0.0,0.10392,0.0,0.1104,0.0,0.04918,0.0,0.02367,0.0,0.0,0.0,0.0,0.0,0.06706,0.0,0.07002,0.0,0.11736,0.0,0.13185,0.0,0.05751,0.0,0.2528,0.0,0.08101,0.0,0.09395,0.0,0.44788,0.0,0.2402,0.0,0.22966,0.0,0.10021,0.0,0.0,0.0,0.0,0.0,2.17668,0.0,0.0,0.0,0.0,0.0,0.0,0.0,0.0,0.0,0.0,0.0,0.0,0.0,0.0,0.0,0.0,0.0,0.0,0.0,0.0,0.0,0.0,138.87678033506856,37.055851913652226,7.8468640639206795,0.0,南魚沼市東泉田上町一丁目二区,南魚沼市東泉田上町一丁目二区,code_in_target_towns
15210109022,十日町市,東田尻,十日町市,東田尻,十日町市東田尻,,,,,,,,,,,,,,,,,,,,,,,,,,,,,,,,,,,,,,,,,,,,,,,,,,,,,,,,,,,,,,,,,,,,,,,,,0.0,0.0,0.0,0.0,0.0,0.0,0.0,0.0,0.0,0.0,0.0,0.0,0.0,0.0,0.0,0.0,0.0,0.0,0.0,0.0,0.0,138.7377936821459,37.004094095365474,7.8486674177925195,0.0,十日町市東田尻,十日町市東田尻,code_in_target_towns
15226005024,南魚沼市,東泉田,南魚沼市,東泉田,南魚沼市東泉田,15226.0,5024.0,南魚沼市,東泉田,新潟県南魚沼市東泉田,625.0,h03_15.csv,33.0,41.0,37.0,27.0,23.0,20.0,31.0,32.0,53.0,41.0,35.0,53.0,38.0,54.0,30.0,26.0,19.0,14.0,8.0,2.0,0.0,1.2507,1.0,2.13036,2.0,1.3616,1.0,0.66393,1.0,0.54441,1.0,0.5674,1.0,0.99231,1.0,1.07296,1.0,1.85553,2.0,1.60392,2.0,1.53825,2.0,3.04803,3.0,2.4016,2.0,4.37454,4.0,2.8185,3.0,2.91122,3.0,2.2819,2.0,1.60762,2.0,0.80168,1.0,0.20042,0.0,0.0,0.0,34.02688,35.0,0.0,0.0,0.0,124.0,0.0,346.0,5568.0,57.0,0.0,2434.0,0.0,311.0,5781.0,534.0,17308.0,0.0,0.0,68.0,232.0,61.0,1298.0,138.88354185964096,37.05171386804363,7.85302360155742,34122.0,南魚沼市東泉田,南魚沼市東泉田,code_in_target_towns
15226064026,南魚沼市,大月下大月,南魚沼市,大月下大月,南魚沼市大月下大月,15226.0,64026.0,南魚沼市,大月下大月,新潟県南魚沼市大月下大月,200.0,h03_15.csv,7.0,4.0,7.0,11.0,5.0,6.0,9.0,7.0,9.0,17.0,16.0,20.0,15.0,11.0,19.0,9.0,18.0,8.0,2.0,0.0,0.0,0.2653,0.0,0.20784,0.0,0.2576,0.0,0.27049,0.0,0.11835,0.0,0.1702199999999999,0.0,0.2880899999999999,0.0,0.2347099999999999,0.0,0.31509,0.0,0.6650400000000001,1.0,0.7032,1.0,1.1502,1.0,0.948,1.0,0.89111,1.0,1.78505,2.0,1.00773,1.0,2.1618,2.0,0.91864,1.0,0.20042,0.0,0.0,0.0,0.0,0.0,12.558879999999998,11.0,0.0,0.0,0.0,0.0,0.0,0.0,0.0,0.0,0.0,0.0,0.0,0.0,260.0,0.0,5646.0,0.0,0.0,0.0,0.0,0.0,0.0,138.89106752662195,37.04596611285376,7.858635677127352,5906.0,南魚沼市大月下大月,南魚沼市大月下大月,code_in_target_towns
15226003002,南魚沼市,六日町上町一丁目二区,南魚沼市,六日町上町一丁目二区,南魚沼市六日町上町一丁目二区,15226.0,3002.0,南魚沼市,六日町上町一丁目二区,新潟県南魚沼市六日町上町一丁目二区,617.0,h03_15.csv,24.0,14.0,15.0,19.0,26.0,44.0,29.0,24.0,25.0,25.0,29.0,33.0,31.0,44.0,37.0,28.0,25.0,54.0,41.0,21.0,4.0,0.9096,1.0,0.72744,1.0,0.552,1.0,0.46721,0.0,0.61542,1.0,1.24828,1.0,0.92829,1.0,0.8047199999999999,1.0,0.87525,1.0,0.978,1.0,1.27455,1.0,1.89783,2.0,1.9592000000000005,2.0,3.56444,4.0,3.47615,3.0,3.13516,3.0,3.0025,3.0,6.20082,6.0,4.10861,4.0,2.1044099999999997,2.0,0.40084,0.0,39.230720000000005,39.0,0.0,0.0,0.0,0.0,242.0,336.0,2763.0,0.0,0.0,89.0,0.0,1296.0,1145.0,116.0,15913.0,0.0,0.0,49.0,0.0,0.0,34.0,138.87523907024422,37.05685885180209,7.861538869169375,21983.0,南魚沼市六日町上町一丁目二区,南魚沼市六日町上町一丁目二区,code_in_target_towns
15226007021,南魚沼市,小栗山,南魚沼市,小栗山,南魚沼市小栗山,15226.0,7021.0,南魚沼市,小栗山,新潟県南魚沼市小栗山,749.0,h03_15.csv,25.0,29.0,37.0,29.0,26.0,25.0,28.0,30.0,55.0,44.0,41.0,40.0,68.0,79.0,75.0,36.0,34.0,25.0,19.0,2.0,0.0,0.9475,1.0,1.50684,2.0,1.3616,1.0,0.71311,1.0,0.61542,1.0,0.7092499999999999,1.0,0.89628,1.0,1.0059,1.0,1.92555,2.0,1.72128,2.0,1.80195,2.0,2.3004,2.0,4.2976,4.0,6.39979,6.0,7.046250000000001,7.0,4.03092,4.0,4.0834,4.0,2.87075,3.0,1.90399,2.0,0.20042,0.0,0.0,0.0,46.3382,47.0,0.0,0.0,40.0,0.0,34.0,433.0,4373.0,0.0,50.0,668.0,0.0,3043.0,1000.0,545.0,5678.0,0.0,0.0,0.0,41.0,111.0,312.0,138.8561555170574,37.066166649002525,8.0251142023756,16328.0,南魚沼市小栗山,南魚沼市小栗山,code_in_target_towns
15226007029,南魚沼市,小栗山栄町,南魚沼市,小栗山栄町,南魚沼市小栗山栄町,15226.0,7029.0,南魚沼市,小栗山栄町,新潟県南魚沼市小栗山栄町,50.0,h03_15.csv,2.0,3.0,1.0,2.0,1.0,4.0,1.0,2.0,5.0,4.0,1.0,10.0,1.0,6.0,2.0,1.0,2.0,1.0,1.0,0.0,0.0,0.0758,0.0,0.15588,0.0,0.0368,0.0,0.04918,0.0,0.02367,0.0,0.11348,0.0,0.03201,0.0,0.06706,0.0,0.1750499999999999,0.0,0.15648,0.0,0.04395,0.0,0.5751,1.0,0.0632,0.0,0.48606,0.0,0.1879,0.0,0.11197,0.0,0.2402,0.0,0.11483,0.0,0.10021,0.0,0.0,0.0,0.0,0.0,2.80883,1.0,0.0,0.0,0.0,0.0,0.0,0.0,0.0,0.0,0.0,0.0,0.0,0.0,0.0,0.0,0.0,0.0,0.0,0.0,0.0,0.0,0.0,138.8680515700907,37.06277014299263,8.10111801215488,0.0,南魚沼市小栗山栄町,南魚沼市小栗山栄町,code_in_target_towns
15226003004,南魚沼市,六日町上町一丁目四区,南魚沼市,六日町上町一丁目四区,南魚沼市六日町上町一丁目四区,15226.0,3004.0,南魚沼市,六日町上町一丁目四区,新潟県南魚沼市六日町上町一丁目四区,330.0,h03_15.csv,14.0,18.0,19.0,20.0,8.0,13.0,20.0,21.0,29.0,25.0,22.0,11.0,13.0,14.0,29.0,27.0,11.0,5.0,3.0,3.0,0.0,0.5306000000000001,1.0,0.93528,1.0,0.6992,1.0,0.4918,0.0,0.18936,0.0,0.3688099999999999,0.0,0.6401999999999999,1.0,0.7041299999999999,1.0,1.01529,1.0,0.978,1.0,0.9669,1.0,0.63261,1.0,0.8216000000000001,1.0,1.13414,1.0,2.72455,3.0,3.02319,3.0,1.3211,1.0,0.57415,1.0,0.3006299999999999,0.0,0.3006299999999999,0.0,0.0,0.0,18.35217,19.0,29.0,0.0,0.0,0.0,0.0,0.0,1040.0,0.0,0.0,304.0,0.0,190.0,411.0,155.0,5694.0,0.0,90.0,0.0,0.0,76.0,614.0,138.87706873130836,37.058846936813545,8.135588490422222,8603.0,南魚沼市六日町上町一丁目四区,南魚沼市六日町上町一丁目四区,code_in_target_towns
15226003029,南魚沼市,六日町栄町,南魚沼市,六日町栄町,南魚沼市六日町栄町,15226.0,3029.0,南魚沼市,六日町栄町,新潟県南魚沼市六日町栄町,588.0,h03_15.csv,23.0,32.0,26.0,23.0,16.0,41.0,31.0,43.0,51.0,55.0,40.0,37.0,27.0,44.0,28.0,32.0,17.0,7.0,2.0,1.0,0.0,0.8717,1.0,1.66272,2.0,0.9568,1.0,0.56557,1.0,0.37872,0.0,1.16317,1.0,0.99231,1.0,1.44179,1.0,1.78551,2.0,2.1516,2.0,1.758,2.0,2.12787,2.0,1.7064,2.0,3.56444,4.0,2.6306000000000003,3.0,3.58304,4.0,2.0417,2.0,0.80381,1.0,0.20042,0.0,0.10021,0.0,0.0,0.0,30.48638,32.0,0.0,1386.0,0.0,0.0,153.0,55.0,2131.0,0.0,0.0,327.0,55.0,106.0,1179.0,59.0,9837.0,0.0,0.0,0.0,0.0,0.0,603.0,138.87022315401393,37.062354025391734,8.151473918189067,15891.0,南魚沼市六日町栄町,南魚沼市六日町栄町,code_in_target_towns
15226064025,南魚沼市,大月上大月,南魚沼市,大月上大月,南魚沼市大月上大月,15226.0,64025.0,南魚沼市,大月上大月,新潟県南魚沼市大月上大月,170.0,h03_15.csv,4.0,2.0,7.0,8.0,9.0,7.0,2.0,3.0,11.0,16.0,12.0,11.0,10.0,13.0,15.0,11.0,15.0,7.0,6.0,1.0,0.0,0.1516,0.0,0.10392,0.0,0.2576,0.0,0.19672,0.0,0.21303,0.0,0.19859,0.0,0.06402,0.0,0.1005899999999999,0.0,0.38511,0.0,0.62592,1.0,0.5274000000000001,1.0,0.63261,1.0,0.6320000000000001,1.0,1.05313,1.0,1.40925,1.0,1.23167,1.0,1.8015,2.0,0.80381,1.0,0.6012599999999999,1.0,0.10021,0.0,0.0,0.0,11.089940000000002,11.0,0.0,0.0,0.0,0.0,239.0,0.0,396.0,0.0,0.0,263.0,0.0,0.0,485.0,0.0,6618.0,0.0,0.0,79.0,0.0,336.0,0.0,138.89844543578852,37.043532716127736,8.183430213028647,8416.0,南魚沼市大月上大月,南魚沼市大月上大月,code_in_target_towns
15226003028,南魚沼市,六日町大和町二丁目,南魚沼市,六日町大和町二丁目,南魚沼市六日町大和町二丁目,15226.0,3028.0,南魚沼市,六日町大和町二丁目,新潟県南魚沼市六日町大和町二丁目,320.0,h03_15.csv,13.0,17.0,13.0,15.0,12.0,14.0,14.0,19.0,25.0,28.0,18.0,14.0,20.0,23.0,26.0,17.0,8.0,12.0,4.0,1.0,0.0,0.4927,0.0,0.88332,1.0,0.4784,0.0,0.36885,0.0,0.28404,0.0,0.39718,0.0,0.44814,0.0,0.6370699999999999,1.0,0.87525,1.0,1.09536,1.0,0.7911,1.0,0.80514,1.0,1.2640000000000002,1.0,1.86323,2.0,2.4427000000000003,2.0,1.90349,2.0,0.9608,1.0,1.37796,1.0,0.40084,0.0,0.10021,0.0,0.0,0.0,17.869780000000002,15.0,0.0,0.0,0.0,0.0,0.0,0.0,701.0,0.0,0.0,0.0,0.0,0.0,0.0,0.0,5841.0,0.0,0.0,0.0,0.0,0.0,0.0,138.87346369185653,37.06131860689976,8.195407780594547,6542.0,南魚沼市六日町大和町二丁目,南魚沼市六日町大和町二丁目,code_in_target_towns
15226128068,南魚沼市,姥沢新田,南魚沼市,姥沢新田,南魚沼市姥沢新田,,,,,,,,,,,,,,,,,,,,,,,,,,,,,,,,,,,,,,,,,,,,,,,,,,,,,,,,,,,,,,,,,,,,,,,,,0.0,0.0,0.0,0.0,0.0,0.0,56.0,0.0,0.0,34.0,0.0,0.0,97.0,78.0,2046.0,0.0,0.0,0.0,0.0,0.0,0.0,138.9195172820229,36.99623924179154,8.319849637808426,2311.0,南魚沼市姥沢新田,南魚沼市姥沢新田,code_in_target_towns
15226003027,南魚沼市,六日町大和町一丁目,南魚沼市,六日町大和町一丁目,南魚沼市六日町大和町一丁目,15226.0,3027.0,南魚沼市,六日町大和町一丁目,新潟県南魚沼市六日町大和町一丁目,221.0,h03_15.csv,6.0,8.0,11.0,10.0,10.0,21.0,9.0,11.0,15.0,13.0,9.0,10.0,9.0,21.0,20.0,6.0,10.0,12.0,6.0,4.0,0.0,0.2274,0.0,0.41568,0.0,0.4048,0.0,0.2459,0.0,0.2367,0.0,0.59577,1.0,0.2880899999999999,0.0,0.36883,0.0,0.52515,1.0,0.50856,1.0,0.39555,0.0,0.5751,1.0,0.5688000000000001,1.0,1.70121,2.0,1.879,2.0,0.67182,1.0,1.201,1.0,1.37796,1.0,0.6012599999999999,1.0,0.40084,0.0,0.0,0.0,13.18942,13.0,0.0,0.0,0.0,0.0,0.0,0.0,574.0,0.0,46.0,155.0,0.0,40.0,533.0,221.0,13756.0,0.0,0.0,0.0,0.0,46.0,41.0,138.87585919301048,37.06220441614647,8.39045675872509,15412.0,南魚沼市六日町大和町一丁目,南魚沼市六日町大和町一丁目,code_in_target_towns
15210032000,十日町市,中村,十日町市,中村,十日町市中村,,,,,,,,,,,,,,,,,,,,,,,,,,,,,,,,,,,,,,,,,,,,,,,,,,,,,,,,,,,,,,,,,,,,,,,,,53.0,0.0,0.0,0.0,0.0,0.0,0.0,0.0,0.0,0.0,122.0,0.0,0.0,0.0,0.0,0.0,0.0,0.0,0.0,0.0,51.0,138.77961630766583,37.064242663616525,8.416467023382236,226.0,十日町市中村,十日町市中村,code_in_target_towns
15226003005,南魚沼市,六日町上町二丁目,南魚沼市,六日町上町二丁目,南魚沼市六日町上町二丁目,15226.0,3005.0,南魚沼市,六日町上町二丁目,新潟県南魚沼市六日町上町二丁目,377.0,h03_15.csv,6.0,9.0,19.0,13.0,11.0,8.0,6.0,19.0,25.0,25.0,26.0,16.0,20.0,35.0,38.0,25.0,22.0,16.0,8.0,2.0,0.0,0.2274,0.0,0.46764,0.0,0.6992,1.0,0.31967,0.0,0.26037,0.0,0.22696,0.0,0.1920599999999999,0.0,0.6370699999999999,1.0,0.87525,1.0,0.978,1.0,1.1427,1.0,0.92016,1.0,1.2640000000000002,1.0,2.83535,3.0,3.5701,4.0,2.79925,3.0,2.6422,3.0,1.83728,2.0,0.80168,1.0,0.20042,0.0,0.0,0.0,22.89676,23.0,0.0,0.0,0.0,0.0,0.0,463.0,2140.0,0.0,0.0,579.0,0.0,0.0,2636.0,109.0,19059.0,0.0,0.0,0.0,0.0,0.0,537.0,138.87889015012541,37.06097265574126,8.421925409738602,25523.0,南魚沼市六日町上町二丁目,南魚沼市六日町上町二丁目,code_in_target_towns
15210106021,十日町市,程島,十日町市,程島,十日町市程島,,,,,,,,,,,,,,,,,,,,,,,,,,,,,,,,,,,,,,,,,,,,,,,,,,,,,,,,,,,,,,,,,,,,,,,,,0.0,0.0,0.0,0.0,0.0,0.0,0.0,0.0,0.0,0.0,0.0,0.0,0.0,0.0,0.0,0.0,0.0,0.0,0.0,0.0,0.0,138.73188505857416,37.01158872966459,8.477641948685143,0.0,十日町市程島,十日町市程島,code_in_target_towns
15210108031,十日町市,西方,十日町市,西方,十日町市西方,,,,,,,,,,,,,,,,,,,,,,,,,,,,,,,,,,,,,,,,,,,,,,,,,,,,,,,,,,,,,,,,,,,,,,,,,0.0,0.0,0.0,0.0,0.0,0.0,0.0,0.0,0.0,0.0,0.0,0.0,0.0,0.0,0.0,0.0,0.0,0.0,0.0,0.0,0.0,138.73107628151678,36.988972846934345,8.480154820632404,0.0,十日町市西方,十日町市西方,code_in_target_towns
15226003008,南魚沼市,六日町伊勢町,南魚沼市,六日町伊勢町,南魚沼市六日町伊勢町,15226.0,3008.0,南魚沼市,六日町伊勢町,新潟県南魚沼市六日町伊勢町,246.0,h03_15.csv,3.0,3.0,8.0,10.0,8.0,13.0,10.0,8.0,15.0,13.0,26.0,17.0,16.0,17.0,16.0,22.0,13.0,9.0,5.0,3.0,0.0,0.1137,0.0,0.15588,0.0,0.2944,0.0,0.2459,0.0,0.18936,0.0,0.3688099999999999,0.0,0.3200999999999999,0.0,0.26824,0.0,0.52515,1.0,0.50856,1.0,1.1427,1.0,0.97767,1.0,1.0112,1.0,1.37717,1.0,1.5032,2.0,2.46334,2.0,1.5613,2.0,1.03347,1.0,0.50105,1.0,0.3006299999999999,0.0,0.0,0.0,14.861829999999998,14.0,0.0,0.0,0.0,0.0,0.0,105.0,253.0,80.0,0.0,80.0,0.0,0.0,33.0,0.0,7195.0,0.0,0.0,0.0,0.0,0.0,0.0,138.8763354166309,37.064713732512885,8.650296961706005,7746.0,南魚沼市六日町伊勢町,南魚沼市六日町伊勢町,code_in_target_towns
15226003007,南魚沼市,六日町緑町,南魚沼市,六日町緑町,南魚沼市六日町緑町,15226.0,3007.0,南魚沼市,六日町緑町,新潟県南魚沼市六日町緑町,528.0,h03_15.csv,28.0,44.0,22.0,15.0,17.0,33.0,26.0,46.0,51.0,32.0,22.0,30.0,28.0,31.0,26.0,20.0,10.0,7.0,5.0,2.0,0.0,1.0612,1.0,2.28624,2.0,0.8096,1.0,0.36885,0.0,0.40239,0.0,0.93621,1.0,0.8322599999999999,1.0,1.54238,2.0,1.78551,2.0,1.25184,1.0,0.9669,1.0,1.7253,2.0,1.7696,2.0,2.51131,3.0,2.4427000000000003,2.0,2.2394,2.0,1.201,1.0,0.80381,1.0,0.50105,1.0,0.20042,0.0,0.0,0.0,25.63797,26.0,0.0,0.0,0.0,0.0,0.0,0.0,608.0,0.0,54.0,315.0,0.0,254.0,773.0,212.0,1882.0,0.0,0.0,0.0,0.0,0.0,89.0,138.87206583721724,37.06685799831796,8.669504744410467,4187.0,南魚沼市六日町緑町,南魚沼市六日町緑町,code_in_target_towns
15226003006,南魚沼市,六日町仲町,南魚沼市,六日町仲町,南魚沼市六日町仲町,15226.0,3006.0,南魚沼市,六日町仲町,新潟県南魚沼市六日町仲町,88.0,h03_15.csv,1.0,4.0,3.0,4.0,1.0,3.0,4.0,1.0,6.0,6.0,4.0,4.0,5.0,7.0,11.0,7.0,5.0,8.0,2.0,0.0,0.0,0.0379,0.0,0.20784,0.0,0.1104,0.0,0.09836,0.0,0.02367,0.0,0.0851099999999999,0.0,0.12804,0.0,0.03353,0.0,0.21006,0.0,0.23472,0.0,0.1758,0.0,0.23004,0.0,0.316,0.0,0.56707,1.0,1.03345,1.0,0.78379,1.0,0.6005,1.0,0.91864,1.0,0.20042,0.0,0.0,0.0,0.0,0.0,5.995340000000001,5.0,0.0,0.0,0.0,0.0,0.0,168.0,120.0,0.0,0.0,0.0,0.0,0.0,117.0,0.0,1777.0,0.0,0.0,0.0,0.0,0.0,0.0,138.87968396167258,37.0638313820863,8.725667475550425,2182.0,南魚沼市六日町仲町,南魚沼市六日町仲町,code_in_target_towns
15210101019,十日町市,鷹羽,十日町市,鷹羽,十日町市鷹羽,,,,,,,,,,,,,,,,,,,,,,,,,,,,,,,,,,,,,,,,,,,,,,,,,,,,,,,,,,,,,,,,,,,,,,,,,0.0,0.0,0.0,0.0,0.0,0.0,0.0,0.0,0.0,0.0,0.0,0.0,20.0,0.0,0.0,0.0,0.0,0.0,0.0,0.0,0.0,138.7347779011274,37.02936622202302,8.800099624269142,20.0,十日町市鷹羽,十日町市鷹羽,code_in_target_towns
15226003009,南魚沼市,六日町旭町,南魚沼市,六日町旭町,南魚沼市六日町旭町,15226.0,3009.0,南魚沼市,六日町旭町,新潟県南魚沼市六日町旭町,135.0,h03_15.csv,5.0,3.0,5.0,1.0,4.0,2.0,9.0,8.0,8.0,8.0,9.0,10.0,9.0,8.0,8.0,14.0,7.0,1.0,3.0,0.0,0.0,0.1895,0.0,0.15588,0.0,0.184,0.0,0.02459,0.0,0.09468,0.0,0.05674,0.0,0.2880899999999999,0.0,0.26824,0.0,0.28008,0.0,0.31296,0.0,0.39555,0.0,0.5751,1.0,0.5688000000000001,1.0,0.64808,1.0,0.7516,1.0,1.56758,2.0,0.8407,1.0,0.11483,0.0,0.3006299999999999,0.0,0.0,0.0,0.0,0.0,7.617629999999999,7.0,0.0,0.0,0.0,0.0,0.0,0.0,0.0,0.0,0.0,0.0,0.0,0.0,0.0,0.0,4408.0,0.0,0.0,0.0,0.0,0.0,0.0,138.877476483567,37.06663160771509,8.885186236800132,4408.0,南魚沼市六日町旭町,南魚沼市六日町旭町,code_in_target_towns
15226003020,南魚沼市,六日町学校町,南魚沼市,六日町学校町,南魚沼市六日町学校町,15226.0,3020.0,南魚沼市,六日町学校町,新潟県南魚沼市六日町学校町,304.0,h03_15.csv,18.0,13.0,8.0,8.0,12.0,18.0,18.0,25.0,31.0,21.0,18.0,19.0,20.0,22.0,22.0,5.0,3.0,6.0,4.0,1.0,0.0,0.6822,1.0,0.67548,1.0,0.2944,0.0,0.19672,0.0,0.28404,0.0,0.51066,1.0,0.5761799999999999,1.0,0.8382499999999999,1.0,1.08531,1.0,0.82152,1.0,0.7911,1.0,1.09269,1.0,1.2640000000000002,1.0,1.78222,2.0,2.0669,2.0,0.55985,1.0,0.3603,0.0,0.68898,1.0,0.40084,0.0,0.10021,0.0,0.0,0.0,15.071850000000005,16.0,0.0,0.0,0.0,0.0,0.0,92.0,1296.0,0.0,0.0,0.0,0.0,92.0,134.0,0.0,6103.0,0.0,0.0,0.0,0.0,0.0,0.0,138.87599882629138,37.06870055164828,9.017598665533905,7717.0,南魚沼市六日町学校町,南魚沼市六日町学校町,code_in_target_towns
15226003010,南魚沼市,六日町田中町,南魚沼市,六日町田中町,南魚沼市六日町田中町,15226.0,3010.0,南魚沼市,六日町田中町,新潟県南魚沼市六日町田中町,458.0,h03_15.csv,14.0,17.0,24.0,8.0,10.0,17.0,20.0,24.0,33.0,27.0,17.0,41.0,38.0,33.0,34.0,25.0,25.0,22.0,11.0,3.0,1.0,0.5306000000000001,1.0,0.88332,1.0,0.8832,1.0,0.19672,0.0,0.2367,0.0,0.48229,0.0,0.6401999999999999,1.0,0.8047199999999999,1.0,1.15533,1.0,1.05624,1.0,0.7471500000000001,1.0,2.35791,2.0,2.4016,2.0,2.67333,3.0,3.1943,3.0,2.79925,3.0,3.0025,3.0,2.52626,3.0,1.10231,1.0,0.3006299999999999,0.0,0.10021,0.0,28.074770000000004,28.0,0.0,0.0,0.0,0.0,0.0,865.0,629.0,0.0,0.0,219.0,0.0,48.0,517.0,0.0,18965.0,0.0,0.0,0.0,50.0,0.0,487.0,138.8797127023575,37.06727069486344,9.049399723400906,21780.0,南魚沼市六日町田中町,南魚沼市六日町田中町,code_in_target_towns
15226004012,南魚沼市,坂戸,南魚沼市,坂戸,南魚沼市坂戸,,,,,,,,,,,,,,,,,,,,,,,,,,,,,,,,,,,,,,,,,,,,,,,,,,,,,,,,,,,,,,,,,,,,,,,,,0.0,0.0,0.0,0.0,40.0,47.0,3869.0,46.0,0.0,588.0,0.0,209.0,2355.0,477.0,36006.0,0.0,0.0,0.0,0.0,0.0,451.0,138.8896097315072,37.062965638239234,9.161669940173134,44088.0,南魚沼市坂戸,南魚沼市坂戸,code_in_target_towns
15226008019,南魚沼市,余川飯綱町,南魚沼市,余川飯綱町,南魚沼市余川飯綱町,15226.0,8019.0,南魚沼市,余川飯綱町,新潟県南魚沼市余川飯綱町,440.0,h03_15.csv,18.0,18.0,25.0,26.0,22.0,21.0,19.0,28.0,18.0,36.0,34.0,26.0,32.0,27.0,31.0,24.0,15.0,14.0,3.0,0.0,0.0,0.6822,1.0,0.93528,1.0,0.92,1.0,0.63934,1.0,0.52074,1.0,0.59577,1.0,0.6081899999999999,1.0,0.93884,1.0,0.63018,1.0,1.40832,1.0,1.4943000000000002,1.0,1.49526,1.0,2.0224,2.0,2.18727,2.0,2.91245,3.0,2.68728,3.0,1.8015,2.0,1.60762,2.0,0.3006299999999999,0.0,0.0,0.0,0.0,0.0,24.387570000000004,26.0,0.0,0.0,0.0,0.0,0.0,61.0,485.0,0.0,0.0,0.0,0.0,0.0,0.0,67.0,3980.0,0.0,0.0,0.0,94.0,0.0,1444.0,138.87049135799077,37.072725304542296,9.188274753599872,6131.0,南魚沼市余川飯綱町,南魚沼市余川飯綱町,code_in_target_towns
15226008018,南魚沼市,余川余川本町,南魚沼市,余川余川本町,南魚沼市余川余川本町,15226.0,8018.0,南魚沼市,余川余川本町,新潟県南魚沼市余川余川本町,643.0,h03_15.csv,31.0,32.0,27.0,17.0,18.0,37.0,44.0,36.0,43.0,58.0,39.0,29.0,34.0,48.0,60.0,34.0,21.0,11.0,8.0,1.0,1.0,1.1749,1.0,1.66272,2.0,0.9936,1.0,0.41803,0.0,0.42606,0.0,1.04969,1.0,1.40844,1.0,1.20708,1.0,1.50543,2.0,2.2689600000000003,2.0,1.71405,2.0,1.66779,2.0,2.1488,2.0,3.88848,4.0,5.6370000000000005,6.0,3.80698,4.0,2.5221,3.0,1.26313,1.0,0.80168,1.0,0.10021,0.0,0.10021,0.0,35.76533999999999,36.0,0.0,0.0,0.0,0.0,0.0,35.0,1703.0,0.0,0.0,258.0,0.0,57.0,1364.0,171.0,8016.0,0.0,0.0,41.0,0.0,0.0,2302.0,138.85239589266476,37.07813478069024,9.198602189024585,13947.0,南魚沼市余川余川本町,南魚沼市余川余川本町,code_in_target_towns
15226002010,南魚沼市,八幡田中町,南魚沼市,八幡田中町,南魚沼市八幡田中町,15226.0,2010.0,南魚沼市,八幡田中町,新潟県南魚沼市八幡田中町,,h03_15.csv,0.0,0.0,0.0,0.0,0.0,0.0,0.0,0.0,0.0,0.0,0.0,0.0,0.0,0.0,0.0,0.0,0.0,0.0,0.0,0.0,0.0,0.0,0.0,0.0,0.0,0.0,0.0,0.0,0.0,0.0,0.0,0.0,0.0,0.0,0.0,0.0,0.0,0.0,0.0,0.0,0.0,0.0,0.0,0.0,0.0,0.0,0.0,0.0,0.0,0.0,0.0,0.0,0.0,0.0,0.0,0.0,0.0,0.0,0.0,0.0,0.0,0.0,0.0,0.0,0.0,0.0,0.0,0.0,0.0,0.0,0.0,0.0,0.0,0.0,0.0,0.0,0.0,0.0,0.0,0.0,0.0,0.0,0.0,0.0,0.0,0.0,138.88059860317773,37.06849006733314,9.206047626570335,0.0,南魚沼市八幡田中町,南魚沼市八幡田中町,code_in_target_towns
15210107032,十日町市,西田尻,十日町市,西田尻,十日町市西田尻,,,,,,,,,,,,,,,,,,,,,,,,,,,,,,,,,,,,,,,,,,,,,,,,,,,,,,,,,,,,,,,,,,,,,,,,,0.0,0.0,0.0,0.0,0.0,0.0,0.0,0.0,0.0,0.0,0.0,0.0,0.0,0.0,0.0,0.0,0.0,0.0,0.0,0.0,0.0,138.72219060139668,36.99673582664321,9.208365547420359,0.0,十日町市西田尻,十日町市西田尻,code_in_target_towns
15226008020,南魚沼市,余川学校町,南魚沼市,余川学校町,南魚沼市余川学校町,15226.0,8020.0,南魚沼市,余川学校町,新潟県南魚沼市余川学校町,802.0,h03_15.csv,28.0,26.0,44.0,33.0,53.0,75.0,48.0,53.0,56.0,66.0,52.0,45.0,52.0,48.0,43.0,32.0,19.0,7.0,6.0,1.0,0.0,1.0612,1.0,1.35096,1.0,1.6192,2.0,0.81147,1.0,1.25451,1.0,2.12775,2.0,1.5364799999999998,2.0,1.7770899999999998,2.0,1.96056,2.0,2.58192,3.0,2.2854,2.0,2.58795,3.0,3.2864000000000004,3.0,3.88848,4.0,4.03985,4.0,3.58304,4.0,2.2819,2.0,0.80381,1.0,0.6012599999999999,1.0,0.10021,0.0,0.0,0.0,39.53943999999999,41.0,0.0,0.0,0.0,0.0,0.0,166.0,687.0,45.0,0.0,466.0,0.0,42.0,1512.0,264.0,19094.0,0.0,0.0,0.0,41.0,87.0,804.0,138.87594513791194,37.07091807319336,9.230532791993504,23208.0,南魚沼市余川学校町,南魚沼市余川学校町,code_in_target_towns
15461003000,湯沢町,大字神立,湯沢町,大字神立,湯沢町大字神立,,,,,,,,,,,,,,,,,,,,,,,,,,,,,,,,,,,,,,,,,,,,,,,,,,,,,,,,,,,,,,,,,,,,,,,,,0.0,0.0,51.0,0.0,0.0,139.0,944.0,0.0,0.0,209.0,0.0,0.0,975.0,9842.0,6568.0,0.0,0.0,0.0,0.0,0.0,235.0,138.81116788904427,36.91581516897943,9.24973218969251,18963.0,湯沢町大字神立,湯沢町神立,code_in_target_towns
15210041000,十日町市,南雲,十日町市,南雲,十日町市南雲,,,,,,,,,,,,,,,,,,,,,,,,,,,,,,,,,,,,,,,,,,,,,,,,,,,,,,,,,,,,,,,,,,,,,,,,,2302.0,0.0,0.0,178.0,0.0,0.0,80.0,66.0,0.0,150.0,1427.0,80.0,2015.0,103.0,479.0,0.0,0.0,0.0,0.0,0.0,1694.0,138.74762681265173,37.054001152098024,9.315841940501336,8574.0,十日町市南雲,十日町市南雲,code_in_target_towns
15226130070,南魚沼市,蟹沢新田,南魚沼市,蟹沢新田,南魚沼市蟹沢新田,,,,,,,,,,,,,,,,,,,,,,,,,,,,,,,,,,,,,,,,,,,,,,,,,,,,,,,,,,,,,,,,,,,,,,,,,0.0,0.0,0.0,0.0,0.0,0.0,0.0,0.0,0.0,0.0,0.0,0.0,0.0,0.0,0.0,0.0,0.0,0.0,0.0,0.0,0.0,138.92779831477887,36.97460983526189,9.425100073045048,0.0,南魚沼市蟹沢新田,南魚沼市蟹沢新田,code_in_target_towns
15226002020,南魚沼市,八幡学校町,南魚沼市,八幡学校町,南魚沼市八幡学校町,15226.0,2020.0,南魚沼市,八幡学校町,新潟県南魚沼市八幡学校町,61.0,h03_15.csv,2.0,1.0,0.0,3.0,3.0,5.0,1.0,5.0,4.0,5.0,3.0,5.0,9.0,4.0,2.0,2.0,2.0,2.0,0.0,1.0,0.0,0.0758,0.0,0.05196,0.0,0.0,0.0,0.07377,0.0,0.07101,0.0,0.14185,0.0,0.03201,0.0,0.16765,0.0,0.14004,0.0,0.1956,0.0,0.13185,0.0,0.28755,0.0,0.5688000000000001,1.0,0.32404,0.0,0.1879,0.0,0.22394,0.0,0.2402,0.0,0.22966,0.0,0.0,0.0,0.10021,0.0,0.0,0.0,3.24384,1.0,0.0,0.0,0.0,0.0,0.0,0.0,0.0,0.0,0.0,0.0,0.0,0.0,0.0,0.0,0.0,0.0,0.0,0.0,0.0,0.0,0.0,138.87998592905856,37.07166025047162,9.479561019020164,0.0,南魚沼市八幡学校町,南魚沼市八幡学校町,code_in_target_towns
15226002011,南魚沼市,八幡八幡,南魚沼市,八幡八幡,南魚沼市八幡八幡,15226.0,2011.0,南魚沼市,八幡八幡,新潟県南魚沼市八幡八幡,343.0,h03_15.csv,7.0,7.0,9.0,15.0,10.0,15.0,16.0,15.0,19.0,25.0,24.0,26.0,30.0,20.0,29.0,19.0,20.0,11.0,9.0,5.0,2.0,0.2653,0.0,0.36372,0.0,0.3312,0.0,0.36885,0.0,0.2367,0.0,0.42555,0.0,0.51216,1.0,0.50295,1.0,0.66519,1.0,0.978,1.0,1.0548000000000002,1.0,1.49526,1.0,1.896,2.0,1.6202,2.0,2.72455,3.0,2.12743,2.0,2.402,2.0,1.26313,1.0,0.90189,1.0,0.50105,1.0,0.20042,0.0,20.836350000000003,20.0,0.0,0.0,0.0,108.0,88.0,168.0,544.0,0.0,0.0,131.0,0.0,0.0,1151.0,146.0,11027.0,0.0,0.0,142.0,0.0,0.0,0.0,138.88321631394632,37.07028711110173,9.49881834855499,13505.0,南魚沼市八幡八幡,南魚沼市八幡八幡,code_in_target_towns
15226051046,南魚沼市,中川新田,南魚沼市,中川新田,南魚沼市中川新田,,,,,,,,,,,,,,,,,,,,,,,,,,,,,,,,,,,,,,,,,,,,,,,,,,,,,,,,,,,,,,,,,,,,,,,,,0.0,0.0,0.0,0.0,0.0,0.0,0.0,0.0,0.0,0.0,0.0,0.0,0.0,0.0,0.0,0.0,0.0,0.0,0.0,0.0,0.0,138.92469138677018,37.03259451490736,9.573231977465763,0.0,南魚沼市中川新田,南魚沼市中川新田,code_in_target_towns
15210105020,十日町市,白羽毛,十日町市,白羽毛,十日町市白羽毛,,,,,,,,,,,,,,,,,,,,,,,,,,,,,,,,,,,,,,,,,,,,,,,,,,,,,,,,,,,,,,,,,,,,,,,,,0.0,0.0,0.0,0.0,0.0,0.0,0.0,0.0,0.0,0.0,0.0,0.0,0.0,0.0,0.0,0.0,0.0,0.0,0.0,0.0,0.0,138.72090713557313,37.01860811940044,9.592807899955277,0.0,十日町市白羽毛,十日町市白羽毛,code_in_target_towns
15226001011,南魚沼市,美佐島八幡,南魚沼市,美佐島八幡,南魚沼市美佐島八幡,15226.0,1011.0,南魚沼市,美佐島八幡,新潟県南魚沼市美佐島八幡,280.0,h03_15.csv,5.0,9.0,10.0,14.0,19.0,21.0,14.0,18.0,17.0,25.0,19.0,13.0,11.0,18.0,20.0,16.0,13.0,6.0,2.0,0.0,0.0,0.1895,0.0,0.46764,0.0,0.368,0.0,0.34426,0.0,0.44973,0.0,0.59577,1.0,0.44814,0.0,0.60354,1.0,0.59517,1.0,0.978,1.0,0.8350500000000001,1.0,0.74763,1.0,0.6952,1.0,1.45818,1.0,1.879,2.0,1.79152,2.0,1.5613,2.0,0.68898,1.0,0.20042,0.0,0.0,0.0,0.0,0.0,14.89703,15.0,0.0,0.0,0.0,0.0,0.0,38.0,3610.0,0.0,0.0,121.0,0.0,0.0,1901.0,0.0,1111.0,0.0,0.0,0.0,0.0,235.0,0.0,138.88368781021774,37.07284855956276,9.762369170283414,7016.0,南魚沼市美佐島八幡,南魚沼市美佐島八幡,code_in_target_towns
15226001030,南魚沼市,美佐島北辰,南魚沼市,美佐島北辰,南魚沼市美佐島北辰,15226.0,1030.0,南魚沼市,美佐島北辰,新潟県南魚沼市美佐島北辰,391.0,h03_15.csv,10.0,15.0,24.0,27.0,17.0,25.0,24.0,23.0,19.0,37.0,42.0,28.0,35.0,25.0,15.0,10.0,4.0,3.0,0.0,0.0,0.0,0.379,0.0,0.7794,1.0,0.8832,1.0,0.66393,1.0,0.40239,0.0,0.7092499999999999,1.0,0.7682399999999999,1.0,0.7711899999999999,1.0,0.66519,1.0,1.44744,1.0,1.8459,2.0,1.61028,2.0,2.212,2.0,2.02525,2.0,1.40925,1.0,1.1197,1.0,0.4804,0.0,0.34449,0.0,0.0,0.0,0.0,0.0,0.0,0.0,18.516499999999997,18.0,0.0,0.0,0.0,0.0,71.0,0.0,208.0,0.0,0.0,0.0,0.0,0.0,148.0,0.0,10469.0,0.0,0.0,0.0,0.0,0.0,420.0,138.88080472507315,37.07474640625737,9.812809653149126,11316.0,南魚沼市美佐島北辰,南魚沼市美佐島北辰,code_in_target_towns
15226052048,南魚沼市,山谷,南魚沼市,山谷,南魚沼市山谷,,,,,,,,,,,,,,,,,,,,,,,,,,,,,,,,,,,,,,,,,,,,,,,,,,,,,,,,,,,,,,,,,,,,,,,,,0.0,0.0,0.0,0.0,0.0,203.0,871.0,0.0,0.0,72.0,0.0,0.0,691.0,0.0,6353.0,0.0,0.0,0.0,0.0,0.0,0.0,138.91446360548377,37.05163738447316,9.859806414493148,8190.0,南魚沼市山谷,南魚沼市山谷,code_in_target_towns
15226011017,南魚沼市,君帰,南魚沼市,君帰,南魚沼市君帰,,,,,,,,,,,,,,,,,,,,,,,,,,,,,,,,,,,,,,,,,,,,,,,,,,,,,,,,,,,,,,,,,,,,,,,,,0.0,0.0,0.0,0.0,0.0,0.0,260.0,0.0,0.0,0.0,0.0,0.0,518.0,0.0,514.0,0.0,0.0,0.0,0.0,0.0,781.0,138.84612104555956,37.08588966775388,9.918662893850863,2073.0,南魚沼市君帰,南魚沼市君帰,code_in_target_towns
15210116039,十日町市,清田山,十日町市,清田山,十日町市清田山,,,,,,,,,,,,,,,,,,,,,,,,,,,,,,,,,,,,,,,,,,,,,,,,,,,,,,,,,,,,,,,,,,,,,,,,,13.0,0.0,0.0,0.0,0.0,0.0,0.0,0.0,0.0,0.0,0.0,0.0,0.0,0.0,0.0,0.0,0.0,0.0,0.0,0.0,0.0,138.71397604050418,36.992793480380364,9.954707900892421,13.0,十日町市清田山,十日町市清田山,code_in_target_towns
15210104017,十日町市,宮沢,十日町市,宮沢,十日町市宮沢,,,,,,,,,,,,,,,,,,,,,,,,,,,,,,,,,,,,,,,,,,,,,,,,,,,,,,,,,,,,,,,,,,,,,,,,,0.0,0.0,0.0,0.0,0.0,0.0,0.0,0.0,0.0,0.0,0.0,0.0,0.0,0.0,0.0,0.0,0.0,0.0,0.0,0.0,0.0,138.7152671275004,37.02601853387738,10.296737143021602,0.0,十日町市宮沢,十日町市宮沢,code_in_target_towns
15210043000,十日町市,鍬柄沢,十日町市,鍬柄沢,十日町市鍬柄沢,,,,,,,,,,,,,,,,,,,,,,,,,,,,,,,,,,,,,,,,,,,,,,,,,,,,,,,,,,,,,,,,,,,,,,,,,5254.0,0.0,0.0,0.0,0.0,0.0,189.0,0.0,0.0,0.0,171.0,0.0,534.0,44.0,41.0,0.0,0.0,0.0,345.0,0.0,835.0,138.75852710254387,37.07358777470308,10.298410751694002,7413.0,十日町市鍬柄沢,十日町市鍬柄沢,code_in_target_towns
15210093005,十日町市,豊里,十日町市,豊里,十日町市豊里,15210.0,93005.0,十日町市,豊里,新潟県十日町市豊里,16.0,h03_15.csv,0.0,0.0,0.0,2.0,0.0,0.0,2.0,0.0,0.0,2.0,0.0,1.0,3.0,2.0,0.0,0.0,1.0,2.0,1.0,0.0,0.0,0.0,0.0,0.0,0.0,0.0,0.0,0.04918,0.0,0.0,0.0,0.0,0.0,0.06402,0.0,0.0,0.0,0.0,0.0,0.07824,0.0,0.0,0.0,0.05751,0.0,0.1896,0.0,0.16202,0.0,0.0,0.0,0.0,0.0,0.1201,0.0,0.22966,0.0,0.10021,0.0,0.0,0.0,0.0,0.0,1.05054,0.0,0.0,0.0,0.0,0.0,0.0,0.0,0.0,0.0,0.0,0.0,0.0,0.0,0.0,0.0,0.0,0.0,0.0,0.0,0.0,0.0,0.0,138.72138389184892,37.03992506536759,10.373260139536724,0.0,十日町市豊里,十日町市豊里,code_in_target_towns
15210086038,十日町市,重地,十日町市,重地,十日町市重地,,,,,,,,,,,,,,,,,,,,,,,,,,,,,,,,,,,,,,,,,,,,,,,,,,,,,,,,,,,,,,,,,,,,,,,,,0.0,0.0,0.0,0.0,0.0,0.0,0.0,0.0,0.0,0.0,28.0,0.0,0.0,0.0,0.0,0.0,0.0,0.0,0.0,0.0,0.0,138.70959619188577,37.0097502345456,10.404615318106506,28.0,十日町市重地,十日町市重地,code_in_target_towns
15226053052,南魚沼市,岩崎,南魚沼市,岩崎,南魚沼市岩崎,,,,,,,,,,,,,,,,,,,,,,,,,,,,,,,,,,,,,,,,,,,,,,,,,,,,,,,,,,,,,,,,,,,,,,,,,0.0,0.0,0.0,0.0,0.0,0.0,327.0,7797.0,0.0,0.0,0.0,196.0,302.0,0.0,655.0,0.0,0.0,0.0,0.0,0.0,0.0,138.91094397143212,37.063110365251276,10.449275290345694,9277.0,南魚沼市岩崎,南魚沼市岩崎,code_in_target_towns
15226001013,南魚沼市,美佐島,南魚沼市,美佐島,南魚沼市美佐島,15226.0,1013.0,南魚沼市,美佐島,新潟県南魚沼市美佐島,645.0,h03_15.csv,15.0,23.0,30.0,32.0,16.0,19.0,28.0,28.0,53.0,55.0,40.0,44.0,45.0,44.0,57.0,35.0,44.0,21.0,10.0,4.0,2.0,0.5685,1.0,1.19508,1.0,1.104,1.0,0.78688,1.0,0.37872,0.0,0.53903,1.0,0.89628,1.0,0.93884,1.0,1.85553,2.0,2.1516,2.0,1.758,2.0,2.53044,3.0,2.8440000000000003,3.0,3.56444,4.0,5.35515,5.0,3.91895,4.0,5.2844,5.0,2.41143,2.0,1.0021,1.0,0.40084,0.0,0.20042,0.0,39.684630000000006,40.0,0.0,0.0,0.0,0.0,0.0,0.0,4444.0,0.0,0.0,293.0,0.0,0.0,608.0,612.0,6096.0,0.0,0.0,0.0,0.0,0.0,1600.0,138.8919942065152,37.075968792965476,10.454534836350081,13653.0,南魚沼市美佐島,南魚沼市美佐島,code_in_target_towns
15210100003,十日町市,東田沢,十日町市,東田沢,十日町市東田沢,,,,,,,,,,,,,,,,,,,,,,,,,,,,,,,,,,,,,,,,,,,,,,,,,,,,,,,,,,,,,,,,,,,,,,,,,0.0,0.0,0.0,0.0,0.0,0.0,0.0,0.0,0.0,0.0,0.0,0.0,0.0,0.0,0.0,0.0,0.0,0.0,0.0,0.0,0.0,138.72447177068491,37.046469699286426,10.482102466549515,0.0,十日町市東田沢,十日町市東田沢,code_in_target_towns
15226050043,南魚沼市,京岡新田,南魚沼市,京岡新田,南魚沼市京岡新田,,,,,,,,,,,,,,,,,,,,,,,,,,,,,,,,,,,,,,,,,,,,,,,,,,,,,,,,,,,,,,,,,,,,,,,,,0.0,0.0,0.0,0.0,0.0,0.0,123.0,0.0,0.0,0.0,0.0,36.0,29.0,0.0,391.0,0.0,0.0,0.0,0.0,0.0,0.0,138.93671871014908,37.033865560622665,10.612608327778695,579.0,南魚沼市京岡新田,南魚沼市京岡新田,code_in_target_towns
15210115040,十日町市,中里下山,十日町市,中里下山,十日町市中里下山,,,,,,,,,,,,,,,,,,,,,,,,,,,,,,,,,,,,,,,,,,,,,,,,,,,,,,,,,,,,,,,,,,,,,,,,,0.0,0.0,0.0,0.0,0.0,0.0,0.0,0.0,0.0,0.0,0.0,0.0,0.0,0.0,0.0,0.0,0.0,0.0,0.0,0.0,0.0,138.70559900431155,36.99711601691235,10.681058091387651,0.0,十日町市中里下山,十日町市中里下山,code_in_target_towns
15210103016,十日町市,朴木沢,十日町市,朴木沢,十日町市朴木沢,,,,,,,,,,,,,,,,,,,,,,,,,,,,,,,,,,,,,,,,,,,,,,,,,,,,,,,,,,,,,,,,,,,,,,,,,0.0,0.0,0.0,0.0,0.0,0.0,0.0,0.0,0.0,0.0,0.0,0.0,0.0,0.0,0.0,0.0,0.0,0.0,0.0,0.0,0.0,138.71145683933847,37.0282117785924,10.693400897962988,0.0,十日町市朴木沢,十日町市朴木沢,code_in_target_towns
15226054054,南魚沼市,津久野,南魚沼市,津久野,南魚沼市津久野,15226.0,54054.0,南魚沼市,津久野,新潟県南魚沼市津久野,,h03_15.csv,0.0,0.0,0.0,0.0,0.0,0.0,0.0,0.0,0.0,0.0,0.0,0.0,0.0,0.0,0.0,0.0,0.0,0.0,0.0,0.0,0.0,0.0,0.0,0.0,0.0,0.0,0.0,0.0,0.0,0.0,0.0,0.0,0.0,0.0,0.0,0.0,0.0,0.0,0.0,0.0,0.0,0.0,0.0,0.0,0.0,0.0,0.0,0.0,0.0,0.0,0.0,0.0,0.0,0.0,0.0,0.0,0.0,0.0,0.0,0.0,0.0,0.0,0.0,0.0,0.0,0.0,0.0,0.0,0.0,476.0,0.0,154.0,121.0,0.0,0.0,0.0,173.0,120.0,0.0,1898.0,0.0,0.0,0.0,0.0,0.0,933.0,138.90612144189473,37.07202723989388,10.872065195449336,3875.0,南魚沼市津久野,南魚沼市津久野,code_in_target_towns
15210081015,十日町市,高道山,十日町市,高道山,十日町市高道山,,,,,,,,,,,,,,,,,,,,,,,,,,,,,,,,,,,,,,,,,,,,,,,,,,,,,,,,,,,,,,,,,,,,,,,,,0.0,0.0,0.0,0.0,0.0,0.0,0.0,0.0,0.0,0.0,290.0,0.0,0.0,34.0,0.0,0.0,0.0,0.0,0.0,0.0,0.0,138.7097824830955,37.03293641302765,11.007765391117184,324.0,十日町市高道山,十日町市高道山,code_in_target_towns
15226010016,南魚沼市,欠之上,南魚沼市,欠之上,南魚沼市欠之上,,,,,,,,,,,,,,,,,,,,,,,,,,,,,,,,,,,,,,,,,,,,,,,,,,,,,,,,,,,,,,,,,,,,,,,,,0.0,0.0,0.0,41.0,0.0,94.0,750.0,41.0,0.0,334.0,0.0,45.0,567.0,103.0,5882.0,0.0,0.0,0.0,0.0,0.0,6814.0,138.8499267469374,37.0959783372731,11.083837807126553,14671.0,南魚沼市欠之上,南魚沼市欠之上,code_in_target_towns
15226063045,南魚沼市,中川,南魚沼市,中川,南魚沼市中川,,,,,,,,,,,,,,,,,,,,,,,,,,,,,,,,,,,,,,,,,,,,,,,,,,,,,,,,,,,,,,,,,,,,,,,,,0.0,0.0,0.0,0.0,0.0,0.0,0.0,0.0,0.0,0.0,0.0,0.0,0.0,0.0,514.0,0.0,0.0,0.0,0.0,0.0,0.0,138.92931175517188,37.05433454727737,11.105951404350034,514.0,南魚沼市中川,南魚沼市中川,code_in_target_towns
15226008013,南魚沼市,余川美佐島,南魚沼市,余川美佐島,南魚沼市余川美佐島,15226.0,8013.0,南魚沼市,余川美佐島,新潟県南魚沼市余川美佐島,24.0,h03_15.csv,0.0,0.0,0.0,1.0,1.0,1.0,0.0,0.0,1.0,1.0,3.0,3.0,2.0,2.0,2.0,1.0,3.0,2.0,1.0,0.0,0.0,0.0,0.0,0.0,0.0,0.0,0.0,0.02459,0.0,0.02367,0.0,0.02837,0.0,0.0,0.0,0.0,0.0,0.03501,0.0,0.03912,0.0,0.13185,0.0,0.17253,0.0,0.1264,0.0,0.16202,0.0,0.1879,0.0,0.11197,0.0,0.3603,0.0,0.22966,0.0,0.10021,0.0,0.0,0.0,0.0,0.0,1.7335999999999998,0.0,0.0,0.0,12.0,0.0,0.0,0.0,756.0,0.0,0.0,0.0,0.0,0.0,0.0,0.0,90.0,0.0,0.0,0.0,0.0,0.0,0.0,138.88064879317375,37.088153119073525,11.124887061168689,858.0,南魚沼市余川美佐島,南魚沼市余川美佐島,code_in_target_towns
15226009014,南魚沼市,川窪庄之又,南魚沼市,川窪庄之又,南魚沼市川窪庄之又,15226.0,9014.0,南魚沼市,川窪庄之又,新潟県南魚沼市川窪庄之又,49.0,h03_15.csv,0.0,2.0,2.0,0.0,1.0,1.0,5.0,6.0,3.0,5.0,1.0,2.0,3.0,3.0,7.0,4.0,2.0,1.0,1.0,0.0,0.0,0.0,0.0,0.10392,0.0,0.0736,0.0,0.0,0.0,0.02367,0.0,0.02837,0.0,0.1600499999999999,0.0,0.2011799999999999,0.0,0.10503,0.0,0.1956,0.0,0.04395,0.0,0.11502,0.0,0.1896,0.0,0.24303,0.0,0.6576500000000001,1.0,0.44788,0.0,0.2402,0.0,0.11483,0.0,0.10021,0.0,0.0,0.0,0.0,0.0,3.0437900000000004,1.0,0.0,0.0,0.0,0.0,0.0,0.0,18.0,0.0,0.0,0.0,0.0,0.0,0.0,0.0,46.0,0.0,0.0,0.0,0.0,0.0,35.0,138.88752843366785,37.085311341914235,11.128840183474944,99.0,南魚沼市川窪庄之又,南魚沼市川窪庄之又,code_in_target_towns
15226009015,南魚沼市,川窪,南魚沼市,川窪,南魚沼市川窪,15226.0,9015.0,南魚沼市,川窪,新潟県南魚沼市川窪,159.0,h03_15.csv,1.0,3.0,3.0,3.0,7.0,9.0,7.0,6.0,5.0,4.0,8.0,15.0,23.0,20.0,8.0,7.0,7.0,21.0,2.0,0.0,0.0,0.0379,0.0,0.15588,0.0,0.1104,0.0,0.07377,0.0,0.16569,0.0,0.25533,0.0,0.22407,0.0,0.2011799999999999,0.0,0.1750499999999999,0.0,0.15648,0.0,0.3516,0.0,0.86265,1.0,1.4536000000000002,1.0,1.6202,2.0,0.7516,1.0,0.78379,1.0,0.8407,1.0,2.41143,2.0,0.20042,0.0,0.0,0.0,0.0,0.0,10.831739999999998,9.0,0.0,0.0,0.0,0.0,0.0,0.0,108.0,0.0,0.0,327.0,0.0,0.0,0.0,0.0,3996.0,0.0,0.0,0.0,0.0,0.0,213.0,138.87154642508767,37.09139316019936,11.130969757433105,4644.0,南魚沼市川窪,南魚沼市川窪,code_in_target_towns
15210031000,十日町市,八箇,十日町市,八箇,十日町市八箇,,,,,,,,,,,,,,,,,,,,,,,,,,,,,,,,,,,,,,,,,,,,,,,,,,,,,,,,,,,,,,,,,,,,,,,,,342.0,0.0,0.0,0.0,0.0,0.0,57.0,0.0,0.0,0.0,57.0,0.0,269.0,0.0,0.0,0.0,0.0,0.0,0.0,0.0,679.0,138.79180019754108,37.094623867594784,11.143488038071785,1404.0,十日町市八箇,十日町市八箇,code_in_target_towns
15210085035,十日町市,倉俣,十日町市,倉俣,十日町市倉俣,,,,,,,,,,,,,,,,,,,,,,,,,,,,,,,,,,,,,,,,,,,,,,,,,,,,,,,,,,,,,,,,,,,,,,,,,0.0,0.0,0.0,0.0,0.0,0.0,0.0,0.0,0.0,0.0,0.0,0.0,0.0,0.0,0.0,0.0,0.0,0.0,0.0,0.0,0.0,138.70061567632226,37.01719382025457,11.320959961662332,0.0,十日町市倉俣,十日町市倉俣,code_in_target_towns
15226061051,南魚沼市,宮村下新田,南魚沼市,宮村下新田,南魚沼市宮村下新田,,,,,,,,,,,,,,,,,,,,,,,,,,,,,,,,,,,,,,,,,,,,,,,,,,,,,,,,,,,,,,,,,,,,,,,,,0.0,0.0,0.0,0.0,0.0,0.0,0.0,0.0,0.0,0.0,0.0,0.0,0.0,0.0,0.0,0.0,0.0,0.0,0.0,0.0,0.0,138.92435519032261,37.063969347818464,11.400637555309046,0.0,南魚沼市宮村下新田,南魚沼市宮村下新田,code_in_target_towns
15226012056,南魚沼市,青木新田二日町,南魚沼市,青木新田二日町,南魚沼市青木新田二日町,15226.0,12056.0,南魚沼市,青木新田二日町,新潟県南魚沼市青木新田二日町,74.0,h03_15.csv,3.0,1.0,3.0,0.0,1.0,2.0,1.0,3.0,4.0,9.0,6.0,1.0,2.0,9.0,13.0,6.0,6.0,1.0,2.0,1.0,0.0,0.1137,0.0,0.05196,0.0,0.1104,0.0,0.0,0.0,0.02367,0.0,0.05674,0.0,0.03201,0.0,0.1005899999999999,0.0,0.14004,0.0,0.35208,0.0,0.2637,0.0,0.05751,0.0,0.1264,0.0,0.72909,1.0,1.2213500000000002,1.0,0.67182,1.0,0.7206,1.0,0.11483,0.0,0.20042,0.0,0.10021,0.0,0.0,0.0,5.187120000000001,4.0,0.0,0.0,0.0,0.0,0.0,0.0,0.0,0.0,0.0,0.0,0.0,0.0,0.0,0.0,2211.0,0.0,0.0,0.0,0.0,0.0,0.0,138.89548650100198,37.0845193719358,11.418533115886973,2211.0,南魚沼市青木新田二日町,南魚沼市青木新田二日町,code_in_target_towns
15226055056,南魚沼市,二日町,南魚沼市,二日町,南魚沼市二日町,,,,,,,,,,,,,,,,,,,,,,,,,,,,,,,,,,,,,,,,,,,,,,,,,,,,,,,,,,,,,,,,,,,,,,,,,0.0,0.0,0.0,0.0,0.0,0.0,945.0,90.0,0.0,0.0,0.0,24.0,347.0,0.0,5911.0,0.0,0.0,114.0,40.0,0.0,41.0,138.90023034316502,37.082220654297004,11.44210497546012,7512.0,南魚沼市二日町,南魚沼市二日町,code_in_target_towns
15226060053,南魚沼市,津久野上新田,南魚沼市,津久野上新田,南魚沼市津久野上新田,,,,,,,,,,,,,,,,,,,,,,,,,,,,,,,,,,,,,,,,,,,,,,,,,,,,,,,,,,,,,,,,,,,,,,,,,0.0,0.0,0.0,0.0,0.0,0.0,0.0,0.0,0.0,0.0,0.0,0.0,0.0,0.0,0.0,0.0,0.0,0.0,0.0,0.0,0.0,138.9170494215792,37.071759050965106,11.50975111546024,0.0,南魚沼市津久野上新田,南魚沼市津久野上新田,code_in_target_towns
15226056044,南魚沼市,京岡,南魚沼市,京岡,南魚沼市京岡,,,,,,,,,,,,,,,,,,,,,,,,,,,,,,,,,,,,,,,,,,,,,,,,,,,,,,,,,,,,,,,,,,,,,,,,,0.0,0.0,0.0,0.0,0.0,0.0,1771.0,0.0,0.0,44.0,0.0,0.0,202.0,0.0,11901.0,0.0,0.0,0.0,0.0,0.0,0.0,138.93753531053747,37.05145605969002,11.549527925520788,13918.0,南魚沼市京岡,南魚沼市京岡,code_in_target_towns
15226062049,南魚沼市,宮,南魚沼市,宮,南魚沼市宮,,,,,,,,,,,,,,,,,,,,,,,,,,,,,,,,,,,,,,,,,,,,,,,,,,,,,,,,,,,,,,,,,,,,,,,,,0.0,0.0,0.0,0.0,0.0,0.0,13699.0,0.0,0.0,217.0,0.0,0.0,103.0,0.0,9702.0,0.0,0.0,103.0,392.0,0.0,0.0,138.93317313833765,37.05973665861956,11.730868023610102,24216.0,南魚沼市宮,南魚沼市宮,code_in_target_towns
15226054056,南魚沼市,津久野二日町,南魚沼市,津久野二日町,南魚沼市津久野二日町,15226.0,54056.0,南魚沼市,津久野二日町,新潟県南魚沼市津久野二日町,,h03_15.csv,0.0,0.0,0.0,0.0,0.0,0.0,0.0,0.0,0.0,0.0,0.0,0.0,0.0,0.0,0.0,0.0,0.0,0.0,0.0,0.0,0.0,0.0,0.0,0.0,0.0,0.0,0.0,0.0,0.0,0.0,0.0,0.0,0.0,0.0,0.0,0.0,0.0,0.0,0.0,0.0,0.0,0.0,0.0,0.0,0.0,0.0,0.0,0.0,0.0,0.0,0.0,0.0,0.0,0.0,0.0,0.0,0.0,0.0,0.0,0.0,0.0,0.0,0.0,0.0,0.0,0.0,0.0,0.0,0.0,0.0,0.0,0.0,0.0,0.0,0.0,0.0,0.0,0.0,0.0,0.0,0.0,0.0,0.0,0.0,0.0,0.0,138.90681386008941,37.08226363003361,11.792640760827965,0.0,南魚沼市津久野二日町,南魚沼市津久野二日町,code_in_target_towns
15210077007,十日町市,上山,十日町市,上山,十日町市上山,,,,,,,,,,,,,,,,,,,,,,,,,,,,,,,,,,,,,,,,,,,,,,,,,,,,,,,,,,,,,,,,,,,,,,,,,206.0,0.0,0.0,0.0,0.0,0.0,0.0,0.0,0.0,0.0,140.0,0.0,220.0,0.0,0.0,0.0,0.0,0.0,0.0,0.0,0.0,138.7065335312747,37.045121730404404,11.810803050876684,566.0,十日町市上山,十日町市上山,code_in_target_towns
15210080013,十日町市,桔梗原,十日町市,桔梗原,十日町市桔梗原,,,,,,,,,,,,,,,,,,,,,,,,,,,,,,,,,,,,,,,,,,,,,,,,,,,,,,,,,,,,,,,,,,,,,,,,,0.0,0.0,0.0,0.0,0.0,0.0,0.0,0.0,0.0,0.0,0.0,0.0,0.0,0.0,0.0,0.0,0.0,0.0,0.0,0.0,0.0,138.69962335759206,37.03403895049503,11.896987679907243,0.0,十日町市桔梗原,十日町市桔梗原,code_in_target_towns
15210082034,十日町市,芋川,十日町市,芋川,十日町市芋川,,,,,,,,,,,,,,,,,,,,,,,,,,,,,,,,,,,,,,,,,,,,,,,,,,,,,,,,,,,,,,,,,,,,,,,,,0.0,0.0,0.0,29.0,0.0,0.0,0.0,0.0,0.0,0.0,0.0,0.0,29.0,249.0,0.0,0.0,0.0,0.0,0.0,0.0,0.0,138.6964505563209,37.02883644786803,11.985872458329803,307.0,十日町市芋川,十日町市芋川,code_in_target_towns
15210078014,十日町市,通り山,十日町市,通り山,十日町市通り山,,,,,,,,,,,,,,,,,,,,,,,,,,,,,,,,,,,,,,,,,,,,,,,,,,,,,,,,,,,,,,,,,,,,,,,,,0.0,0.0,0.0,0.0,0.0,0.0,0.0,0.0,0.0,0.0,133.0,0.0,0.0,0.0,0.0,0.0,0.0,0.0,0.0,0.0,0.0,138.70154859198362,37.04105776262335,12.023303479001267,133.0,十日町市通り山,十日町市通り山,code_in_target_towns
15226057033,南魚沼市,原,南魚沼市,原,南魚沼市原,,,,,,,,,,,,,,,,,,,,,,,,,,,,,,,,,,,,,,,,,,,,,,,,,,,,,,,,,,,,,,,,,,,,,,,,,0.0,0.0,0.0,0.0,0.0,0.0,190.0,0.0,0.0,0.0,0.0,0.0,109.0,0.0,1047.0,0.0,0.0,0.0,0.0,0.0,0.0,138.94439811823239,37.050965867050884,12.049905035807564,1346.0,南魚沼市原,南魚沼市原,code_in_target_towns
15226059055,南魚沼市,津久野下新田,南魚沼市,津久野下新田,南魚沼市津久野下新田,,,,,,,,,,,,,,,,,,,,,,,,,,,,,,,,,,,,,,,,,,,,,,,,,,,,,,,,,,,,,,,,,,,,,,,,,0.0,0.0,0.0,0.0,0.0,0.0,245.0,0.0,0.0,0.0,0.0,0.0,0.0,0.0,109.0,0.0,0.0,0.0,0.0,0.0,0.0,138.90893432907322,37.08400509515328,12.06084954585734,354.0,南魚沼市津久野下新田,南魚沼市津久野下新田,code_in_target_towns
15226016087,南魚沼市,四十日四十日新道,南魚沼市,四十日四十日新道,南魚沼市四十日四十日新道,15226.0,16087.0,南魚沼市,四十日四十日新道,新潟県南魚沼市四十日四十日新道,227.0,h03_15.csv,6.0,6.0,12.0,10.0,8.0,3.0,8.0,9.0,16.0,11.0,22.0,16.0,14.0,29.0,15.0,11.0,16.0,14.0,1.0,0.0,0.0,0.2274,0.0,0.31176,0.0,0.4416,0.0,0.2459,0.0,0.18936,0.0,0.0851099999999999,0.0,0.25608,0.0,0.30177,0.0,0.56016,1.0,0.43032,0.0,0.9669,1.0,0.92016,1.0,0.8848,1.0,2.34929,2.0,1.40925,1.0,1.23167,1.0,1.9216,2.0,1.60762,2.0,0.10021,0.0,0.0,0.0,0.0,0.0,14.44096,12.0,0.0,0.0,0.0,0.0,0.0,0.0,63.0,0.0,0.0,96.0,0.0,0.0,123.0,76.0,6850.0,0.0,0.0,0.0,0.0,0.0,87.0,138.89076793351364,37.09425514909689,12.138360090484916,7295.0,南魚沼市四十日四十日新道,南魚沼市四十日四十日新道,code_in_target_towns
15226016084,南魚沼市,四十日北田中,南魚沼市,四十日北田中,南魚沼市四十日北田中,15226.0,16084.0,南魚沼市,四十日北田中,新潟県南魚沼市四十日北田中,68.0,h03_15.csv,2.0,1.0,2.0,2.0,2.0,1.0,5.0,3.0,6.0,2.0,6.0,7.0,3.0,5.0,6.0,3.0,6.0,5.0,1.0,0.0,0.0,0.0758,0.0,0.05196,0.0,0.0736,0.0,0.04918,0.0,0.04734,0.0,0.02837,0.0,0.1600499999999999,0.0,0.1005899999999999,0.0,0.21006,0.0,0.07824,0.0,0.2637,0.0,0.40257,0.0,0.1896,0.0,0.40505,0.0,0.5637000000000001,1.0,0.33591,0.0,0.7206,1.0,0.57415,1.0,0.10021,0.0,0.0,0.0,0.0,0.0,4.430680000000001,3.0,0.0,0.0,0.0,0.0,0.0,0.0,398.0,0.0,0.0,0.0,0.0,96.0,0.0,0.0,200.0,0.0,0.0,0.0,0.0,0.0,290.0,138.8811951468635,37.09843676764531,12.182978470275334,984.0,南魚沼市四十日北田中,南魚沼市四十日北田中,code_in_target_towns
15226066099,南魚沼市,三国川耕地,南魚沼市,三国川耕地,南魚沼市三国川耕地,,,,,,,,,,,,,,,,,,,,,,,,,,,,,,,,,,,,,,,,,,,,,,,,,,,,,,,,,,,,,,,,,,,,,,,,,0.0,0.0,0.0,0.0,0.0,0.0,0.0,0.0,0.0,16.0,0.0,0.0,40.0,0.0,0.0,0.0,0.0,0.0,0.0,0.0,0.0,138.92123807364945,37.07699366660488,12.185698216745553,56.0,南魚沼市三国川耕地,南魚沼市三国川耕地,code_in_target_towns
15210092002,十日町市,田沢本村,十日町市,田沢本村,十日町市田沢本村,,,,,,,,,,,,,,,,,,,,,,,,,,,,,,,,,,,,,,,,,,,,,,,,,,,,,,,,,,,,,,,,,,,,,,,,,675.0,0.0,0.0,0.0,0.0,0.0,0.0,0.0,0.0,0.0,122.0,0.0,0.0,78.0,0.0,0.0,0.0,0.0,0.0,0.0,0.0,138.71096455418405,37.05899294952344,12.238511584101937,875.0,十日町市田沢本村,十日町市田沢本村,code_in_target_towns
15226049042,南魚沼市,永松,南魚沼市,永松,南魚沼市永松,,,,,,,,,,,,,,,,,,,,,,,,,,,,,,,,,,,,,,,,,,,,,,,,,,,,,,,,,,,,,,,,,,,,,,,,,0.0,0.0,0.0,0.0,0.0,0.0,0.0,0.0,0.0,0.0,0.0,0.0,0.0,0.0,0.0,0.0,0.0,0.0,0.0,0.0,0.0,138.9637303301048,37.00415031879557,12.260971625418126,0.0,南魚沼市永松,南魚沼市永松,code_in_target_towns
15210091001,十日町市,芋沢,十日町市,芋沢,十日町市芋沢,,,,,,,,,,,,,,,,,,,,,,,,,,,,,,,,,,,,,,,,,,,,,,,,,,,,,,,,,,,,,,,,,,,,,,,,,0.0,0.0,0.0,0.0,0.0,0.0,0.0,0.0,0.0,0.0,0.0,0.0,0.0,0.0,0.0,0.0,0.0,0.0,0.0,0.0,0.0,138.71642021530775,37.06626375740785,12.317351123721936,0.0,十日町市芋沢,十日町市芋沢,code_in_target_towns
15210093004,十日町市,如来寺,十日町市,如来寺,十日町市如来寺,15210.0,93004.0,十日町市,如来寺,新潟県十日町市如来寺,264.0,h03_15.csv,9.0,4.0,10.0,14.0,10.0,13.0,9.0,8.0,14.0,13.0,21.0,24.0,21.0,20.0,29.0,10.0,17.0,10.0,6.0,2.0,0.0,0.3411,0.0,0.20784,0.0,0.368,0.0,0.34426,0.0,0.2367,0.0,0.3688099999999999,0.0,0.2880899999999999,0.0,0.26824,0.0,0.49014,0.0,0.50856,1.0,0.92295,1.0,1.38024,1.0,1.3272000000000002,1.0,1.6202,2.0,2.72455,3.0,1.1197,1.0,2.0417,2.0,1.1483,1.0,0.6012599999999999,1.0,0.20042,0.0,0.0,0.0,16.508260000000003,14.0,182.0,0.0,0.0,0.0,0.0,0.0,0.0,0.0,0.0,0.0,0.0,0.0,0.0,0.0,0.0,0.0,0.0,0.0,0.0,0.0,0.0,138.70495345084169,37.053765238995545,12.38684340851332,182.0,十日町市如来寺,十日町市如来寺,code_in_target_towns
15226018083,南魚沼市,野田,南魚沼市,野田,南魚沼市野田,,,,,,,,,,,,,,,,,,,,,,,,,,,,,,,,,,,,,,,,,,,,,,,,,,,,,,,,,,,,,,,,,,,,,,,,,0.0,0.0,0.0,0.0,0.0,0.0,1450.0,0.0,0.0,0.0,0.0,0.0,172.0,166.0,10304.0,0.0,0.0,0.0,182.0,115.0,923.0,138.8542561026384,37.107773249178365,12.445410948370272,13312.0,南魚沼市野田,南魚沼市野田,code_in_target_towns
15226048037,南魚沼市,畔地新田日の出町,南魚沼市,畔地新田日の出町,南魚沼市畔地新田日の出町,15226.0,48037.0,南魚沼市,畔地新田日の出町,新潟県南魚沼市畔地新田日の出町,153.0,h03_15.csv,3.0,6.0,7.0,5.0,5.0,3.0,7.0,7.0,13.0,9.0,8.0,11.0,14.0,15.0,10.0,8.0,9.0,9.0,4.0,0.0,0.0,0.1137,0.0,0.31176,0.0,0.2576,0.0,0.12295,0.0,0.11835,0.0,0.0851099999999999,0.0,0.22407,0.0,0.2347099999999999,0.0,0.45513,0.0,0.35208,0.0,0.3516,0.0,0.63261,1.0,0.8848,1.0,1.21515,1.0,0.9395,1.0,0.89576,1.0,1.0809,1.0,1.03347,1.0,0.40084,0.0,0.0,0.0,0.0,0.0,9.71009,7.0,0.0,0.0,0.0,0.0,0.0,0.0,96.0,0.0,0.0,0.0,0.0,0.0,289.0,0.0,836.0,0.0,0.0,0.0,0.0,0.0,0.0,138.9478066181831,37.05411144600824,12.48537469120086,1221.0,南魚沼市畔地新田日の出町,南魚沼市畔地新田日の出町,code_in_target_towns
15210079033,十日町市,芋川新田,十日町市,芋川新田,十日町市芋川新田,,,,,,,,,,,,,,,,,,,,,,,,,,,,,,,,,,,,,,,,,,,,,,,,,,,,,,,,,,,,,,,,,,,,,,,,,0.0,0.0,0.0,0.0,0.0,0.0,0.0,0.0,0.0,0.0,0.0,0.0,0.0,0.0,0.0,0.0,0.0,0.0,0.0,0.0,0.0,138.69447138474723,37.03901025872608,12.518306898379485,0.0,十日町市芋川新田,十日町市芋川新田,code_in_target_towns
15226017088,南魚沼市,宇津野新田,南魚沼市,宇津野新田,南魚沼市宇津野新田,,,,,,,,,,,,,,,,,,,,,,,,,,,,,,,,,,,,,,,,,,,,,,,,,,,,,,,,,,,,,,,,,,,,,,,,,0.0,0.0,0.0,0.0,0.0,0.0,971.0,0.0,0.0,222.0,0.0,0.0,333.0,0.0,3050.0,0.0,0.0,0.0,0.0,0.0,111.0,138.89580977573874,37.09665527371205,12.588408744935938,4687.0,南魚沼市宇津野新田,南魚沼市宇津野新田,code_in_target_towns
15226048034,南魚沼市,畔地新田,南魚沼市,畔地新田,南魚沼市畔地新田,15226.0,48034.0,南魚沼市,畔地新田,新潟県南魚沼市畔地新田,57.0,h03_15.csv,0.0,1.0,2.0,3.0,2.0,2.0,2.0,0.0,1.0,5.0,6.0,5.0,5.0,2.0,9.0,4.0,5.0,0.0,3.0,0.0,0.0,0.0,0.0,0.05196,0.0,0.0736,0.0,0.07377,0.0,0.04734,0.0,0.05674,0.0,0.06402,0.0,0.0,0.0,0.03501,0.0,0.1956,0.0,0.2637,0.0,0.28755,0.0,0.316,0.0,0.16202,0.0,0.84555,1.0,0.44788,0.0,0.6005,1.0,0.0,0.0,0.3006299999999999,0.0,0.0,0.0,0.0,0.0,3.821870000000001,2.0,0.0,0.0,0.0,0.0,0.0,0.0,68.0,0.0,0.0,72.0,0.0,0.0,145.0,0.0,1423.0,0.0,0.0,0.0,0.0,0.0,0.0,138.9526664442801,37.048978142458274,12.595398443917055,1708.0,南魚沼市畔地新田,南魚沼市畔地新田,code_in_target_towns
15226016085,南魚沼市,四十日西,南魚沼市,四十日西,南魚沼市四十日西,15226.0,16085.0,南魚沼市,四十日西,新潟県南魚沼市四十日西,65.0,h03_15.csv,2.0,3.0,6.0,2.0,0.0,1.0,1.0,5.0,5.0,6.0,3.0,1.0,3.0,6.0,11.0,3.0,1.0,3.0,2.0,1.0,0.0,0.0758,0.0,0.15588,0.0,0.2208,0.0,0.04918,0.0,0.0,0.0,0.02837,0.0,0.03201,0.0,0.16765,0.0,0.1750499999999999,0.0,0.23472,0.0,0.13185,0.0,0.05751,0.0,0.1896,0.0,0.48606,0.0,1.03345,1.0,0.33591,0.0,0.1201,0.0,0.34449,0.0,0.20042,0.0,0.10021,0.0,0.0,0.0,4.13906,1.0,0.0,0.0,0.0,0.0,0.0,0.0,0.0,0.0,0.0,0.0,0.0,0.0,0.0,0.0,0.0,0.0,0.0,0.0,0.0,0.0,0.0,138.8798581397311,37.1034498351757,12.649627015425683,0.0,南魚沼市四十日西,南魚沼市四十日西,code_in_target_towns
15226027072,南魚沼市,新堀新田,南魚沼市,新堀新田,南魚沼市新堀新田,,,,,,,,,,,,,,,,,,,,,,,,,,,,,,,,,,,,,,,,,,,,,,,,,,,,,,,,,,,,,,,,,,,,,,,,,0.0,0.0,0.0,0.0,0.0,0.0,637.0,0.0,0.0,203.0,0.0,103.0,272.0,46.0,1044.0,0.0,0.0,32.0,0.0,0.0,0.0,138.9127440598819,37.0897658338626,12.7749187508191,2337.0,南魚沼市新堀新田,南魚沼市新堀新田,code_in_target_towns
15226029070,南魚沼市,田崎,南魚沼市,田崎,南魚沼市田崎,,,,,,,,,,,,,,,,,,,,,,,,,,,,,,,,,,,,,,,,,,,,,,,,,,,,,,,,,,,,,,,,,,,,,,,,,0.0,0.0,0.0,0.0,0.0,0.0,27.0,0.0,0.0,0.0,0.0,0.0,0.0,65.0,526.0,0.0,0.0,48.0,0.0,0.0,68.0,138.92937194423303,37.07913593039167,12.8633660486827,734.0,南魚沼市田崎,南魚沼市田崎,code_in_target_towns
15226041050,南魚沼市,深沢,南魚沼市,深沢,南魚沼市深沢,,,,,,,,,,,,,,,,,,,,,,,,,,,,,,,,,,,,,,,,,,,,,,,,,,,,,,,,,,,,,,,,,,,,,,,,,0.0,0.0,0.0,0.0,0.0,0.0,1225.0,0.0,0.0,98.0,0.0,0.0,211.0,0.0,2065.0,0.0,0.0,0.0,0.0,0.0,0.0,138.9411659230054,37.06837973507948,12.872664682800188,3599.0,南魚沼市深沢,南魚沼市深沢,code_in_target_towns
15210098012,十日町市,山崎,十日町市,山崎,十日町市山崎,,,,,,,,,,,,,,,,,,,,,,,,,,,,,,,,,,,,,,,,,,,,,,,,,,,,,,,,,,,,,,,,,,,,,,,,,0.0,0.0,0.0,0.0,0.0,0.0,0.0,0.0,0.0,0.0,165.0,0.0,522.0,0.0,0.0,0.0,0.0,0.0,0.0,0.0,108.0,138.69531275513353,37.050165403401024,12.952081648469736,795.0,十日町市山崎,十日町市山崎,code_in_target_towns
15226131071,南魚沼市,清水,南魚沼市,清水,南魚沼市清水,,,,,,,,,,,,,,,,,,,,,,,,,,,,,,,,,,,,,,,,,,,,,,,,,,,,,,,,,,,,,,,,,,,,,,,,,0.0,0.0,0.0,0.0,120.0,0.0,0.0,0.0,0.0,0.0,0.0,0.0,0.0,0.0,0.0,0.0,0.0,0.0,0.0,0.0,59.0,138.94529891454394,36.93100024565427,12.976061065402272,179.0,南魚沼市清水,南魚沼市清水,code_in_target_towns
15210094006,十日町市,桂,十日町市,桂,十日町市桂,,,,,,,,,,,,,,,,,,,,,,,,,,,,,,,,,,,,,,,,,,,,,,,,,,,,,,,,,,,,,,,,,,,,,,,,,0.0,0.0,0.0,0.0,0.0,0.0,0.0,0.0,0.0,0.0,0.0,0.0,0.0,0.0,0.0,0.0,0.0,0.0,0.0,0.0,0.0,138.70143150631546,37.06005981481571,13.014517235215727,0.0,十日町市桂,十日町市桂,code_in_target_towns
15210117041,十日町市,田代,十日町市,田代,十日町市田代,,,,,,,,,,,,,,,,,,,,,,,,,,,,,,,,,,,,,,,,,,,,,,,,,,,,,,,,,,,,,,,,,,,,,,,,,0.0,0.0,0.0,0.0,0.0,0.0,0.0,0.0,0.0,0.0,0.0,0.0,0.0,0.0,0.0,0.0,0.0,0.0,0.0,0.0,0.0,138.70867187412543,36.92634469362922,13.122411773603519,0.0,十日町市田代,十日町市田代,code_in_target_towns
15226012089,南魚沼市,青木新田,南魚沼市,青木新田,南魚沼市青木新田,15226.0,12089.0,南魚沼市,青木新田,新潟県南魚沼市青木新田,157.0,h03_15.csv,10.0,7.0,4.0,2.0,10.0,7.0,7.0,13.0,4.0,10.0,12.0,7.0,17.0,19.0,4.0,7.0,9.0,6.0,2.0,0.0,0.0,0.379,0.0,0.36372,0.0,0.1472,0.0,0.04918,0.0,0.2367,0.0,0.19859,0.0,0.22407,0.0,0.4358899999999999,0.0,0.14004,0.0,0.3912,0.0,0.5274000000000001,1.0,0.40257,0.0,1.0744,1.0,1.53919,2.0,0.3758,0.0,0.78379,1.0,1.0809,1.0,0.68898,1.0,0.20042,0.0,0.0,0.0,0.0,0.0,9.23904,7.0,0.0,0.0,0.0,0.0,0.0,0.0,807.0,0.0,0.0,0.0,0.0,0.0,0.0,0.0,2349.0,0.0,0.0,0.0,0.0,0.0,0.0,138.89670194903653,37.10209199233819,13.155266850020313,3156.0,南魚沼市青木新田,南魚沼市青木新田,code_in_target_towns
15226025080,南魚沼市,泉新田,南魚沼市,泉新田,南魚沼市泉新田,,,,,,,,,,,,,,,,,,,,,,,,,,,,,,,,,,,,,,,,,,,,,,,,,,,,,,,,,,,,,,,,,,,,,,,,,0.0,0.0,0.0,0.0,0.0,0.0,0.0,0.0,0.0,390.0,0.0,0.0,980.0,0.0,1462.0,0.0,0.0,0.0,0.0,0.0,0.0,138.90675247542572,37.09794156110606,13.214405197219822,2832.0,南魚沼市泉新田,南魚沼市泉新田,code_in_target_towns
15210099011,十日町市,荒屋,十日町市,荒屋,十日町市荒屋,,,,,,,,,,,,,,,,,,,,,,,,,,,,,,,,,,,,,,,,,,,,,,,,,,,,,,,,,,,,,,,,,,,,,,,,,0.0,0.0,0.0,0.0,0.0,0.0,0.0,0.0,0.0,82.0,0.0,0.0,261.0,0.0,0.0,0.0,0.0,0.0,0.0,0.0,0.0,138.68977749376177,37.04725087412879,13.257124141584605,343.0,十日町市荒屋,十日町市荒屋,code_in_target_towns
15226058035,南魚沼市,畔地,南魚沼市,畔地,南魚沼市畔地,,,,,,,,,,,,,,,,,,,,,,,,,,,,,,,,,,,,,,,,,,,,,,,,,,,,,,,,,,,,,,,,,,,,,,,,,0.0,0.0,0.0,0.0,0.0,72.0,2036.0,0.0,0.0,590.0,0.0,0.0,2134.0,0.0,2220.0,0.0,0.0,0.0,67.0,0.0,33.0,138.9592604810117,37.05210564326797,13.274462081393057,7152.0,南魚沼市畔地,南魚沼市畔地,code_in_target_towns
15226028071,南魚沼市,新堀,南魚沼市,新堀,南魚沼市新堀,,,,,,,,,,,,,,,,,,,,,,,,,,,,,,,,,,,,,,,,,,,,,,,,,,,,,,,,,,,,,,,,,,,,,,,,,0.0,0.0,0.0,0.0,0.0,0.0,2174.0,0.0,0.0,1315.0,0.0,0.0,0.0,0.0,197.0,0.0,0.0,0.0,0.0,0.0,0.0,138.9257116830393,37.08740319464778,13.30383196577248,3686.0,南魚沼市新堀,南魚沼市新堀,code_in_target_towns
15226040069,南魚沼市,法音寺,南魚沼市,法音寺,南魚沼市法音寺,15226.0,40069.0,南魚沼市,法音寺,新潟県南魚沼市法音寺,108.0,h03_15.csv,2.0,8.0,7.0,1.0,2.0,2.0,4.0,6.0,7.0,3.0,6.0,2.0,10.0,14.0,9.0,8.0,7.0,3.0,5.0,1.0,1.0,0.0758,0.0,0.41568,0.0,0.2576,0.0,0.02459,0.0,0.04734,0.0,0.05674,0.0,0.12804,0.0,0.2011799999999999,0.0,0.24507,0.0,0.11736,0.0,0.2637,0.0,0.11502,0.0,0.6320000000000001,1.0,1.13414,1.0,0.84555,1.0,0.89576,1.0,0.8407,1.0,0.34449,0.0,0.50105,1.0,0.10021,0.0,0.10021,0.0,7.34223,6.0,0.0,0.0,0.0,0.0,0.0,0.0,0.0,0.0,0.0,0.0,0.0,0.0,0.0,0.0,0.0,0.0,0.0,0.0,0.0,0.0,0.0,138.9393413716301,37.077658077257595,13.400682830877454,0.0,南魚沼市法音寺,南魚沼市法音寺,code_in_target_towns
15226016086,南魚沼市,四十日,南魚沼市,四十日,南魚沼市四十日,15226.0,16086.0,南魚沼市,四十日,新潟県南魚沼市四十日,241.0,h03_15.csv,12.0,8.0,10.0,7.0,3.0,7.0,13.0,16.0,9.0,11.0,10.0,21.0,24.0,25.0,22.0,16.0,12.0,7.0,7.0,1.0,0.0,0.4548,0.0,0.41568,0.0,0.368,0.0,0.17213,0.0,0.07101,0.0,0.19859,0.0,0.4161299999999999,0.0,0.53648,1.0,0.31509,0.0,0.43032,0.0,0.4395,0.0,1.20771,1.0,1.5168,2.0,2.02525,2.0,2.0669,2.0,1.79152,2.0,1.4412,1.0,0.80381,1.0,0.7014699999999999,1.0,0.10021,0.0,0.0,0.0,15.472600000000002,13.0,0.0,0.0,0.0,0.0,0.0,0.0,196.0,0.0,0.0,149.0,0.0,0.0,107.0,0.0,2653.0,0.0,0.0,0.0,0.0,0.0,153.0,138.8695983750971,37.11394702881617,13.446425564446864,3258.0,南魚沼市四十日,南魚沼市四十日,code_in_target_towns
15461004000,湯沢町,大字土樽,湯沢町,大字土樽,湯沢町大字土樽,,,,,,,,,,,,,,,,,,,,,,,,,,,,,,,,,,,,,,,,,,,,,,,,,,,,,,,,,,,,,,,,,,,,,,,,,0.0,0.0,0.0,0.0,33.0,36.0,10578.0,0.0,0.0,1405.0,0.0,285.0,3681.0,11647.0,9167.0,0.0,0.0,31.0,27.0,227.0,1079.0,138.86837669515106,36.881541185129535,13.5073741417114,38196.0,湯沢町大字土樽,湯沢町土樽,code_in_target_towns
15226024079,南魚沼市,泉,南魚沼市,泉,南魚沼市泉,,,,,,,,,,,,,,,,,,,,,,,,,,,,,,,,,,,,,,,,,,,,,,,,,,,,,,,,,,,,,,,,,,,,,,,,,0.0,78.0,0.0,0.0,0.0,27.0,1867.0,292.0,0.0,1793.0,0.0,25.0,993.0,267.0,3692.0,0.0,0.0,24.0,57.0,0.0,82.0,138.9141586779245,37.09759370457916,13.551122745318596,9197.0,南魚沼市泉,南魚沼市泉,code_in_target_towns
15226015090,南魚沼市,大杉新田,南魚沼市,大杉新田,南魚沼市大杉新田,,,,,,,,,,,,,,,,,,,,,,,,,,,,,,,,,,,,,,,,,,,,,,,,,,,,,,,,,,,,,,,,,,,,,,,,,0.0,0.0,0.0,0.0,0.0,0.0,185.0,0.0,0.0,97.0,0.0,0.0,451.0,0.0,730.0,0.0,0.0,0.0,0.0,0.0,62.0,138.88899856480177,37.109161887557725,13.554231627731111,1525.0,南魚沼市大杉新田,南魚沼市大杉新田,code_in_target_towns
15226047032,南魚沼市,蛭窪,南魚沼市,蛭窪,南魚沼市蛭窪,,,,,,,,,,,,,,,,,,,,,,,,,,,,,,,,,,,,,,,,,,,,,,,,,,,,,,,,,,,,,,,,,,,,,,,,,0.0,0.0,0.0,0.0,0.0,0.0,12.0,0.0,0.0,0.0,0.0,0.0,0.0,0.0,25.0,0.0,0.0,0.0,0.0,0.0,0.0,138.9770043634313,37.01985736183292,13.635302173198895,37.0,南魚沼市蛭窪,南魚沼市蛭窪,code_in_target_towns
15226040082,南魚沼市,法音寺稲穂ケ丘,南魚沼市,法音寺稲穂ケ丘,南魚沼市法音寺稲穂ケ丘,15226.0,40082.0,南魚沼市,法音寺稲穂ケ丘,新潟県南魚沼市法音寺稲穂ケ丘,105.0,h03_15.csv,2.0,2.0,4.0,10.0,5.0,4.0,5.0,6.0,1.0,10.0,17.0,14.0,13.0,7.0,1.0,0.0,4.0,0.0,0.0,0.0,0.0,0.0758,0.0,0.10392,0.0,0.1472,0.0,0.2459,0.0,0.11835,0.0,0.11348,0.0,0.1600499999999999,0.0,0.2011799999999999,0.0,0.03501,0.0,0.3912,0.0,0.7471500000000001,1.0,0.80514,1.0,0.8216000000000001,1.0,0.56707,1.0,0.09395,0.0,0.0,0.0,0.4804,0.0,0.0,0.0,0.0,0.0,0.0,0.0,0.0,0.0,5.107400000000001,4.0,0.0,0.0,0.0,0.0,0.0,0.0,0.0,0.0,0.0,0.0,0.0,0.0,0.0,0.0,0.0,0.0,0.0,0.0,0.0,0.0,0.0,138.93142945367393,37.08785510868015,13.683680534073275,0.0,南魚沼市法音寺稲穂ケ丘,南魚沼市法音寺稲穂ケ丘,code_in_target_towns
15226065098,南魚沼市,魚野川耕地,南魚沼市,魚野川耕地,南魚沼市魚野川耕地,,,,,,,,,,,,,,,,,,,,,,,,,,,,,,,,,,,,,,,,,,,,,,,,,,,,,,,,,,,,,,,,,,,,,,,,,0.0,0.0,0.0,0.0,0.0,0.0,15.0,0.0,0.0,0.0,0.0,0.0,0.0,0.0,15.0,0.0,0.0,0.0,0.0,0.0,48.0,138.9062943705198,37.103598588052606,13.72544769447159,78.0,南魚沼市魚野川耕地,南魚沼市魚野川耕地,code_in_target_towns
15461005000,湯沢町,大字三俣,湯沢町,大字三俣,湯沢町大字三俣,,,,,,,,,,,,,,,,,,,,,,,,,,,,,,,,,,,,,,,,,,,,,,,,,,,,,,,,,,,,,,,,,,,,,,,,,0.0,0.0,0.0,0.0,0.0,0.0,63.0,0.0,0.0,0.0,0.0,53.0,0.0,642.0,0.0,0.0,0.0,0.0,0.0,0.0,0.0,138.75970760628624,36.88661018084298,13.72736826705612,758.0,湯沢町大字三俣,湯沢町三俣,code_in_target_towns
15226026077,南魚沼市,下原,南魚沼市,下原,南魚沼市下原,,,,,,,,,,,,,,,,,,,,,,,,,,,,,,,,,,,,,,,,,,,,,,,,,,,,,,,,,,,,,,,,,,,,,,,,,0.0,0.0,0.0,0.0,0.0,0.0,1211.0,177.0,0.0,68.0,0.0,0.0,365.0,0.0,4989.0,0.0,0.0,239.0,0.0,0.0,537.0,138.9196102127532,37.097311459529635,13.811466564614495,7586.0,南魚沼市下原,南魚沼市下原,code_in_target_towns
15226014091,南魚沼市,奥,南魚沼市,奥,南魚沼市奥,,,,,,,,,,,,,,,,,,,,,,,,,,,,,,,,,,,,,,,,,,,,,,,,,,,,,,,,,,,,,,,,,,,,,,,,,0.0,0.0,0.0,0.0,0.0,0.0,210.0,0.0,0.0,393.0,0.0,0.0,471.0,0.0,1937.0,0.0,0.0,0.0,0.0,0.0,239.0,138.89820075886334,37.1086121724723,13.857476606745395,3250.0,南魚沼市奥,南魚沼市奥,code_in_target_towns
15226039081,南魚沼市,藤原池田原,南魚沼市,藤原池田原,南魚沼市藤原池田原,15226.0,39081.0,南魚沼市,藤原池田原,新潟県南魚沼市藤原池田原,179.0,h03_15.csv,2.0,4.0,20.0,12.0,4.0,7.0,5.0,10.0,24.0,15.0,9.0,14.0,6.0,18.0,14.0,10.0,2.0,3.0,0.0,0.0,0.0,0.0758,0.0,0.20784,0.0,0.736,1.0,0.29508,0.0,0.09468,0.0,0.19859,0.0,0.1600499999999999,0.0,0.3353,0.0,0.84024,1.0,0.5868,1.0,0.39555,0.0,0.80514,1.0,0.3792,0.0,1.45818,1.0,1.3153,1.0,1.1197,1.0,0.2402,0.0,0.34449,0.0,0.0,0.0,0.0,0.0,0.0,0.0,9.58814,7.0,0.0,0.0,0.0,0.0,0.0,0.0,79.0,46.0,0.0,79.0,0.0,0.0,604.0,0.0,2650.0,0.0,0.0,0.0,33.0,0.0,0.0,138.93461896093638,37.08936565106637,14.000156049698083,3491.0,南魚沼市藤原池田原,南魚沼市藤原池田原,code_in_target_towns
15226038076,南魚沼市,上原,南魚沼市,上原,南魚沼市上原,,,,,,,,,,,,,,,,,,,,,,,,,,,,,,,,,,,,,,,,,,,,,,,,,,,,,,,,,,,,,,,,,,,,,,,,,49.0,0.0,0.0,46.0,50.0,0.0,714.0,0.0,0.0,970.0,0.0,162.0,451.0,0.0,2225.0,0.0,0.0,0.0,118.0,0.0,0.0,138.93045155442445,37.093448574101906,14.085821590342851,4785.0,南魚沼市上原,南魚沼市上原,code_in_target_towns
15226039068,南魚沼市,藤原,南魚沼市,藤原,南魚沼市藤原,15226.0,39068.0,南魚沼市,藤原,新潟県南魚沼市藤原,115.0,h03_15.csv,5.0,5.0,2.0,3.0,2.0,4.0,4.0,2.0,7.0,11.0,8.0,6.0,6.0,15.0,12.0,9.0,6.0,3.0,4.0,1.0,0.0,0.1895,0.0,0.2598,0.0,0.0736,0.0,0.07377,0.0,0.04734,0.0,0.11348,0.0,0.12804,0.0,0.06706,0.0,0.24507,0.0,0.43032,0.0,0.3516,0.0,0.34506,0.0,0.3792,0.0,1.21515,1.0,1.1274000000000002,1.0,1.00773,1.0,0.7206,1.0,0.34449,0.0,0.40084,0.0,0.10021,0.0,0.0,0.0,7.620260000000001,4.0,0.0,0.0,0.0,0.0,0.0,0.0,235.0,0.0,0.0,0.0,0.0,0.0,155.0,0.0,209.0,0.0,0.0,0.0,0.0,0.0,0.0,138.9474571638569,37.07975113603574,14.098713790134038,599.0,南魚沼市藤原,南魚沼市藤原,code_in_target_towns
15210087045,十日町市,新屋敷,十日町市,新屋敷,十日町市新屋敷,,,,,,,,,,,,,,,,,,,,,,,,,,,,,,,,,,,,,,,,,,,,,,,,,,,,,,,,,,,,,,,,,,,,,,,,,0.0,0.0,0.0,0.0,0.0,0.0,0.0,0.0,0.0,0.0,0.0,0.0,0.0,0.0,0.0,0.0,0.0,0.0,0.0,0.0,0.0,138.70699278086104,37.082993853521316,14.15224740081893,0.0,十日町市新屋敷,十日町市新屋敷,code_in_target_towns
15226023078,南魚沼市,下原新田,南魚沼市,下原新田,南魚沼市下原新田,,,,,,,,,,,,,,,,,,,,,,,,,,,,,,,,,,,,,,,,,,,,,,,,,,,,,,,,,,,,,,,,,,,,,,,,,0.0,0.0,0.0,0.0,0.0,0.0,1310.0,0.0,0.0,27.0,0.0,0.0,225.0,0.0,527.0,0.0,0.0,0.0,0.0,0.0,436.0,138.92007753739972,37.101827379388524,14.239669994640911,2525.0,南魚沼市下原新田,南魚沼市下原新田,code_in_target_towns
15226013091,南魚沼市,寺尾奥,南魚沼市,寺尾奥,南魚沼市寺尾奥,15226.0,13091.0,南魚沼市,寺尾奥,新潟県南魚沼市寺尾奥,64.0,h03_15.csv,0.0,0.0,2.0,4.0,2.0,3.0,0.0,5.0,2.0,4.0,5.0,4.0,5.0,8.0,6.0,3.0,4.0,4.0,2.0,1.0,0.0,0.0,0.0,0.0,0.0,0.0736,0.0,0.09836,0.0,0.04734,0.0,0.0851099999999999,0.0,0.0,0.0,0.16765,0.0,0.07002,0.0,0.15648,0.0,0.21975,0.0,0.23004,0.0,0.316,0.0,0.64808,1.0,0.5637000000000001,1.0,0.33591,0.0,0.4804,0.0,0.45932,0.0,0.20042,0.0,0.10021,0.0,0.0,0.0,4.252389999999999,2.0,0.0,0.0,0.0,0.0,0.0,0.0,0.0,0.0,0.0,0.0,0.0,0.0,0.0,0.0,43.0,0.0,0.0,0.0,0.0,0.0,0.0,138.89993919733345,37.11229864334019,14.292249688946917,43.0,南魚沼市寺尾奥,南魚沼市寺尾奥,code_in_target_towns
15210185000,十日町市,安養寺,十日町市,安養寺,十日町市安養寺,,,,,,,,,,,,,,,,,,,,,,,,,,,,,,,,,,,,,,,,,,,,,,,,,,,,,,,,,,,,,,,,,,,,,,,,,143.0,0.0,0.0,0.0,0.0,0.0,0.0,0.0,0.0,0.0,0.0,0.0,40.0,0.0,0.0,0.0,0.0,0.0,0.0,0.0,0.0,138.71142873870986,37.08882308418547,14.309892987415438,183.0,十日町市安養寺,十日町市安養寺,code_in_target_towns
15226046036,南魚沼市,舞台,南魚沼市,舞台,南魚沼市舞台,,,,,,,,,,,,,,,,,,,,,,,,,,,,,,,,,,,,,,,,,,,,,,,,,,,,,,,,,,,,,,,,,,,,,,,,,0.0,0.0,0.0,0.0,0.0,0.0,0.0,0.0,0.0,0.0,0.0,0.0,0.0,0.0,69.0,0.0,0.0,0.0,0.0,0.0,0.0,138.97711784587787,37.044235336354845,14.37212502774759,69.0,南魚沼市舞台,南魚沼市舞台,code_in_target_towns
15226042041,南魚沼市,小川,南魚沼市,小川,南魚沼市小川,,,,,,,,,,,,,,,,,,,,,,,,,,,,,,,,,,,,,,,,,,,,,,,,,,,,,,,,,,,,,,,,,,,,,,,,,0.0,0.0,0.0,0.0,21.0,0.0,50.0,0.0,0.0,0.0,0.0,0.0,0.0,0.0,120.0,0.0,0.0,0.0,0.0,0.0,187.0,138.96537131787292,37.064641614420545,14.42195891380042,378.0,南魚沼市小川,南魚沼市小川,code_in_target_towns
15210042000,十日町市,新宮,十日町市,新宮,十日町市新宮,,,,,,,,,,,,,,,,,,,,,,,,,,,,,,,,,,,,,,,,,,,,,,,,,,,,,,,,,,,,,,,,,,,,,,,,,500.0,0.0,0.0,0.0,0.0,0.0,0.0,0.0,0.0,0.0,79.0,0.0,2368.0,70.0,0.0,0.0,0.0,0.0,0.0,0.0,133.0,138.72438498801927,37.099804413479355,14.451102832021377,3150.0,十日町市新宮,十日町市新宮,code_in_target_towns
15226035058,南魚沼市,野際,南魚沼市,野際,南魚沼市野際,,,,,,,,,,,,,,,,,,,,,,,,,,,,,,,,,,,,,,,,,,,,,,,,,,,,,,,,,,,,,,,,,,,,,,,,,0.0,0.0,0.0,0.0,0.0,0.0,19.0,0.0,0.0,80.0,0.0,0.0,60.0,0.0,536.0,0.0,0.0,0.0,0.0,0.0,0.0,138.94151491810177,37.090218550180325,14.495703352574525,695.0,南魚沼市野際,南魚沼市野際,code_in_target_towns
15226013092,南魚沼市,寺尾,南魚沼市,寺尾,南魚沼市寺尾,15226.0,13092.0,南魚沼市,寺尾,新潟県南魚沼市寺尾,366.0,h03_15.csv,9.0,13.0,14.0,17.0,8.0,13.0,15.0,25.0,26.0,16.0,23.0,30.0,29.0,37.0,36.0,22.0,17.0,11.0,1.0,0.0,0.0,0.3411,0.0,0.67548,1.0,0.5152,1.0,0.41803,0.0,0.18936,0.0,0.3688099999999999,0.0,0.4801499999999999,0.0,0.8382499999999999,1.0,0.91026,1.0,0.62592,1.0,1.01085,1.0,1.7253,2.0,1.8328,2.0,2.99737,3.0,3.3822,3.0,2.46334,2.0,2.0417,2.0,1.26313,1.0,0.10021,0.0,0.0,0.0,0.0,0.0,22.17946,21.0,0.0,0.0,486.0,0.0,0.0,0.0,88.0,0.0,0.0,449.0,0.0,0.0,448.0,0.0,3480.0,0.0,0.0,0.0,0.0,0.0,195.0,138.88851709341586,37.11943801513158,14.585858895844318,5146.0,南魚沼市寺尾,南魚沼市寺尾,code_in_target_towns
15226013093,南魚沼市,寺尾押出,南魚沼市,寺尾押出,南魚沼市寺尾押出,15226.0,13093.0,南魚沼市,寺尾押出,新潟県南魚沼市寺尾押出,69.0,h03_15.csv,0.0,4.0,2.0,3.0,2.0,0.0,3.0,3.0,6.0,4.0,4.0,5.0,7.0,4.0,8.0,7.0,2.0,1.0,3.0,1.0,0.0,0.0,0.0,0.20784,0.0,0.0736,0.0,0.07377,0.0,0.04734,0.0,0.0,0.0,0.0960299999999999,0.0,0.1005899999999999,0.0,0.21006,0.0,0.15648,0.0,0.1758,0.0,0.28755,0.0,0.4424,0.0,0.32404,0.0,0.7516,1.0,0.78379,1.0,0.2402,0.0,0.11483,0.0,0.3006299999999999,0.0,0.10021,0.0,0.0,0.0,4.486759999999999,2.0,0.0,0.0,0.0,0.0,0.0,0.0,0.0,0.0,0.0,0.0,0.0,0.0,0.0,0.0,0.0,0.0,0.0,0.0,0.0,0.0,0.0,138.902905932818,37.11446352534858,14.627558001354322,0.0,南魚沼市寺尾押出,南魚沼市寺尾押出,code_in_target_towns
15226037066,南魚沼市,下薬師堂,南魚沼市,下薬師堂,南魚沼市下薬師堂,,,,,,,,,,,,,,,,,,,,,,,,,,,,,,,,,,,,,,,,,,,,,,,,,,,,,,,,,,,,,,,,,,,,,,,,,0.0,0.0,0.0,0.0,0.0,85.0,0.0,49.0,0.0,98.0,0.0,0.0,195.0,0.0,218.0,0.0,0.0,0.0,0.0,0.0,97.0,138.9404738698202,37.09306687672027,14.656647904176063,742.0,南魚沼市下薬師堂,南魚沼市下薬師堂,code_in_target_towns
15210045000,十日町市,姿,十日町市,姿,十日町市姿,,,,,,,,,,,,,,,,,,,,,,,,,,,,,,,,,,,,,,,,,,,,,,,,,,,,,,,,,,,,,,,,,,,,,,,,,90.0,0.0,0.0,0.0,0.0,0.0,0.0,0.0,0.0,0.0,36.0,0.0,0.0,138.0,0.0,0.0,0.0,0.0,0.0,0.0,0.0,138.71440818976552,37.095601151105825,14.670578896299016,264.0,十日町市姿,十日町市姿,code_in_target_towns
15210044000,十日町市,大黒沢,十日町市,大黒沢,十日町市大黒沢,,,,,,,,,,,,,,,,,,,,,,,,,,,,,,,,,,,,,,,,,,,,,,,,,,,,,,,,,,,,,,,,,,,,,,,,,145.0,33.0,0.0,0.0,0.0,0.0,43.0,0.0,0.0,85.0,234.0,0.0,832.0,0.0,0.0,0.0,0.0,0.0,0.0,0.0,46.0,138.73465840527385,37.10884365121445,14.72972597924827,1418.0,十日町市大黒沢,十日町市大黒沢,code_in_target_towns
15226034059,南魚沼市,妙音寺,南魚沼市,妙音寺,南魚沼市妙音寺,,,,,,,,,,,,,,,,,,,,,,,,,,,,,,,,,,,,,,,,,,,,,,,,,,,,,,,,,,,,,,,,,,,,,,,,,0.0,0.0,0.0,0.0,0.0,0.0,78.0,0.0,0.0,0.0,0.0,0.0,162.0,164.0,81.0,0.0,0.0,0.0,0.0,0.0,0.0,138.95440662790335,37.084284288708076,14.894969895350824,485.0,南魚沼市妙音寺,南魚沼市妙音寺,code_in_target_towns
