town_name_show,CITY_NAME_from_master,S_NAME_from_master,TOWN_CODE_11,dist_km,LON,LAT,下田メディカルセンター,公益社団法人地域医療振興協会 伊豆今井浜病院,河井医院,ひがしなかクリニック,医療法人社団健育会西伊豆健育会病院,上の山鎮目クリニック,公益社団法人地域医療振興協会 上河津診療所,菊池医院,佐倉医院,臼井医院,医療法人社団康心会 康心会伊豆東部病院,飯島医院,かわづクリニック,白津医院,公益社団法人地域医療振興協会 いなずさ診療所,佐藤医院,医療法人社団桑寿会 下田温泉病院,公益社団法人地域医療振興協会 伊豆下田診療所,鈴木クリニック,医療法人慈愛会 石田医院,医療法人社団辰五会 ふれあい南伊豆ホスピタル,はらクリニック,中江医院,かとうクリニック,のぞみ記念 下田循環器・腎臓クリニック,小川クリニック,下田メディカルセンター附属みなとクリニック
下田市荒増,下田市,荒増,22219047002,0.8568936243283058,138.9376431678621,34.71778135262826,0.0,0.0,0.0,0.0,0.0,0.0,0.0,0.0,0.0,0.0,0.0,0.0,0.0,0.0,0.0,0.0,0.0,0.0,0.0,0.0,0.0,0.0,0.0,0.0,0.0,0.0,0.0
下田市椎原,下田市,椎原,22219043000,0.9674875477557535,138.92020791504152,34.72450333314504,0.0,76.0,76.0,66.0,0.0,0.0,0.0,0.0,0.0,0.0,0.0,73.0,0.0,0.0,0.0,0.0,0.0,0.0,0.0,0.0,0.0,0.0,0.0,0.0,0.0,0.0,0.0
下田市箕作,下田市,箕作,22219048000,1.0065989926254721,138.93798158856356,34.729598062318836,891.0,549.0,288.0,265.0,0.0,0.0,0.0,0.0,0.0,0.0,0.0,0.0,95.0,0.0,1198.0,0.0,0.0,0.0,0.0,0.0,0.0,0.0,0.0,0.0,0.0,0.0,0.0
下田市宇土金,下田市,宇土金,22219042000,1.2246286924237155,138.92359070503846,34.732257329813315,1255.0,0.0,0.0,0.0,0.0,0.0,145.0,0.0,141.0,0.0,0.0,0.0,0.0,0.0,0.0,0.0,0.0,0.0,0.0,0.0,0.0,0.0,0.0,0.0,0.0,0.0,0.0
下田市相玉,下田市,相玉,22219047001,1.471099396555353,138.918253867565,34.7143927778382,0.0,0.0,205.0,300.0,299.0,0.0,0.0,0.0,0.0,0.0,0.0,0.0,0.0,0.0,95.0,0.0,0.0,0.0,201.0,0.0,0.0,0.0,0.0,0.0,0.0,0.0,0.0
下田市蓮台寺,下田市,蓮台寺,22219032000,2.2854001563030493,138.92733370256897,34.70249799786451,384.0,65.0,154.0,136.0,65.0,0.0,237.0,274.0,234.0,85.0,0.0,0.0,0.0,0.0,77.0,0.0,0.0,606.0,168.0,0.0,0.0,0.0,0.0,164.0,0.0,0.0,0.0
下田市河内,下田市,河内,22219031000,2.3454247804810686,138.9447027596351,34.705248862120285,712.0,792.0,1059.0,1098.0,52.0,388.0,54.0,127.0,125.0,523.0,63.0,104.0,0.0,0.0,187.0,83.0,0.0,417.0,976.0,0.0,0.0,0.0,0.0,0.0,0.0,0.0,0.0
下田市落合,下田市,落合,22219049000,2.401501992309576,138.9566891295311,34.725498505950185,212.0,0.0,104.0,47.0,0.0,0.0,0.0,0.0,19.0,0.0,0.0,0.0,0.0,0.0,36.0,0.0,0.0,0.0,0.0,0.0,0.0,0.0,0.0,0.0,93.0,0.0,0.0
下田市大沢,下田市,大沢,22219034000,2.6385694472541137,138.91487648429867,34.702977590512816,0.0,0.0,0.0,0.0,0.0,0.0,0.0,0.0,0.0,0.0,0.0,0.0,0.0,0.0,0.0,0.0,0.0,0.0,0.0,0.0,0.0,0.0,0.0,0.0,0.0,0.0,0.0
下田市須原一区,下田市,須原一区,22219040001,2.934468738987052,138.93969631057493,34.74818527548922,0.0,0.0,0.0,0.0,0.0,0.0,0.0,0.0,0.0,0.0,0.0,0.0,0.0,0.0,0.0,0.0,0.0,0.0,0.0,0.0,0.0,0.0,0.0,0.0,0.0,0.0,0.0
下田市北湯ケ野,下田市,北湯ケ野,22219044000,3.2284920603324103,138.899585902723,34.73676788160652,383.0,37.0,37.0,0.0,0.0,0.0,0.0,0.0,0.0,0.0,56.0,0.0,0.0,0.0,173.0,0.0,0.0,0.0,0.0,0.0,0.0,0.0,0.0,0.0,0.0,0.0,0.0
下田市立野,下田市,立野,22219035000,3.4727040235079123,138.93466669473153,34.69182231240192,732.0,396.0,54.0,600.0,87.0,36.0,0.0,0.0,233.0,83.0,0.0,0.0,0.0,0.0,78.0,0.0,0.0,43.0,390.0,0.0,0.0,0.0,0.0,0.0,0.0,0.0,0.0
下田市横川,下田市,横川,22219045000,3.5916769145051695,138.89313503798377,34.71314462920315,63.0,101.0,212.0,79.0,0.0,0.0,0.0,0.0,0.0,0.0,0.0,0.0,0.0,0.0,0.0,0.0,0.0,0.0,0.0,0.0,0.0,0.0,0.0,0.0,0.0,0.0,0.0
下田市高馬,下田市,高馬,22219027000,3.7306271426646602,138.938562373166,34.68996753241746,139.0,43.0,122.0,105.0,0.0,95.0,0.0,312.0,0.0,0.0,0.0,0.0,0.0,0.0,0.0,0.0,46.0,156.0,34.0,0.0,0.0,0.0,0.0,0.0,37.0,0.0,0.0
下田市大沢,下田市,大沢,22219033000,3.7551889169257944,138.9094416722458,34.693929999460856,1304.0,935.0,1496.0,761.0,680.0,353.0,157.0,158.0,742.0,680.0,215.0,87.0,620.0,267.0,281.0,115.0,428.0,0.0,204.0,261.0,337.0,90.0,70.0,0.0,0.0,139.0,0.0
下田市白浜,下田市,白浜,22219072000,3.7687922291457947,138.96463841547487,34.70373774374639,254.0,0.0,70.0,0.0,0.0,0.0,0.0,70.0,0.0,0.0,0.0,0.0,108.0,0.0,0.0,0.0,0.0,0.0,0.0,0.0,0.0,0.0,0.0,108.0,0.0,0.0,0.0
下田市西中,下田市,西中,22219037000,3.850928481074818,138.9414637873699,34.68941188691693,368.0,485.0,259.0,798.0,0.0,125.0,97.0,258.0,72.0,83.0,0.0,0.0,0.0,0.0,0.0,0.0,97.0,0.0,46.0,0.0,0.0,0.0,0.0,0.0,71.0,0.0,0.0
下田市中（中）,下田市,中（中）,22219036001,3.8795029653080984,138.94824553360834,34.69114104197857,0.0,0.0,209.0,121.0,0.0,0.0,0.0,62.0,0.0,0.0,0.0,0.0,0.0,0.0,0.0,0.0,0.0,0.0,0.0,0.0,97.0,0.0,0.0,0.0,0.0,0.0,0.0
下田市東中,下田市,東中,22219038000,4.1131457034353005,138.94574869432597,34.68804125746886,356.0,572.0,0.0,1030.0,0.0,0.0,0.0,193.0,0.0,0.0,60.0,198.0,0.0,0.0,0.0,0.0,0.0,0.0,0.0,0.0,0.0,0.0,0.0,0.0,0.0,0.0,0.0
河津町縄地,河津町,縄地,22302009000,4.216027084385343,138.97648406469798,34.72685172171289,0.0,126.0,0.0,0.0,0.0,0.0,0.0,0.0,0.0,0.0,98.0,0.0,0.0,0.0,0.0,0.0,0.0,0.0,0.0,0.0,0.0,0.0,0.0,0.0,0.0,0.0,0.0
下田市須原二区,下田市,須原二区,22219040002,4.237093799476738,138.91358652072233,34.758319642537245,0.0,0.0,0.0,0.0,0.0,0.0,0.0,0.0,0.0,0.0,0.0,0.0,0.0,0.0,0.0,0.0,0.0,0.0,0.0,0.0,0.0,0.0,0.0,0.0,0.0,0.0,0.0
下田市白浜,下田市,白浜,22219073000,4.239591287002171,138.97526407569057,34.71256332776926,480.0,0.0,482.0,0.0,0.0,0.0,0.0,836.0,0.0,0.0,0.0,0.0,0.0,0.0,0.0,0.0,0.0,0.0,0.0,0.0,0.0,0.0,0.0,0.0,0.0,0.0,0.0
河津町逆川,河津町,逆川,22302005000,4.271543447340888,138.95517393492557,34.755556614840756,0.0,0.0,0.0,0.0,0.0,0.0,0.0,0.0,0.0,0.0,0.0,0.0,0.0,0.0,0.0,0.0,0.0,0.0,0.0,0.0,0.0,0.0,0.0,0.0,0.0,0.0,0.0
下田市西本郷三丁目,下田市,西本郷三丁目,22219024003,4.301683195878201,138.93939051007678,34.68486821301736,129.0,0.0,205.0,246.0,50.0,0.0,0.0,0.0,0.0,1314.0,0.0,0.0,81.0,0.0,0.0,0.0,0.0,0.0,0.0,0.0,0.0,0.0,0.0,0.0,0.0,0.0,0.0
下田市西本郷二丁目,下田市,西本郷二丁目,22219024002,4.3370625061837975,138.94319161173854,34.68526730369039,465.0,112.0,205.0,306.0,0.0,0.0,0.0,174.0,0.0,179.0,58.0,0.0,0.0,35.0,61.0,0.0,0.0,74.0,0.0,0.0,0.0,169.0,0.0,0.0,0.0,0.0,0.0
河津町笹原,河津町,笹原,22302002000,4.407658684446837,138.9751722506162,34.73803349001124,0.0,627.0,0.0,0.0,0.0,0.0,129.0,0.0,0.0,68.0,0.0,0.0,206.0,0.0,0.0,1081.0,124.0,0.0,0.0,0.0,0.0,0.0,0.0,84.0,0.0,0.0,0.0
下田市東本郷二丁目,下田市,東本郷二丁目,22219022002,4.492000596655666,138.9456556827099,34.68441780190783,209.0,40.0,253.0,516.0,99.0,122.0,0.0,88.0,0.0,60.0,0.0,0.0,0.0,0.0,0.0,0.0,0.0,0.0,49.0,0.0,0.0,0.0,0.0,0.0,0.0,0.0,0.0
下田市敷根,下田市,敷根,22219021000,4.597825595491554,138.93575574067614,34.68174226463278,267.0,0.0,452.0,0.0,0.0,0.0,0.0,155.0,0.0,0.0,0.0,0.0,0.0,0.0,0.0,0.0,0.0,244.0,0.0,0.0,0.0,0.0,0.0,0.0,0.0,0.0,0.0
下田市六丁目（旧岡方村）,下田市,六丁目（旧岡方村）,22219016001,4.615066374159362,138.92813102629066,34.681419906639086,891.0,832.0,516.0,169.0,255.0,0.0,88.0,178.0,1143.0,123.0,0.0,0.0,0.0,0.0,0.0,0.0,0.0,143.0,144.0,0.0,0.0,0.0,0.0,0.0,0.0,0.0,0.0
下田市西本郷一丁目,下田市,西本郷一丁目,22219024001,4.733406046229575,138.94288754201767,34.681520346515626,667.0,105.0,0.0,0.0,0.0,205.0,0.0,125.0,0.0,102.0,0.0,0.0,0.0,0.0,0.0,0.0,0.0,257.0,0.0,0.0,0.0,0.0,0.0,0.0,0.0,0.0,0.0
下田市中,下田市,中,22219036000,4.80676514742373,138.95095283542167,34.68301326943528,539.0,594.0,189.0,271.0,51.0,216.0,0.0,49.0,220.0,31.0,0.0,0.0,0.0,0.0,181.0,51.0,0.0,0.0,106.0,0.0,0.0,0.0,31.0,0.0,0.0,0.0,0.0
下田市白浜,下田市,白浜,22219071000,4.9164637184244,138.96542917502885,34.68917784571961,629.0,195.0,874.0,505.0,0.0,574.0,0.0,485.0,270.0,883.0,0.0,0.0,0.0,0.0,273.0,0.0,233.0,71.0,0.0,0.0,0.0,0.0,0.0,0.0,0.0,0.0,0.0
下田市東本郷一丁目,下田市,東本郷一丁目,22219022001,4.94774604775538,138.9457357406586,34.68015184674674,396.0,29.0,0.0,28.0,0.0,92.0,0.0,68.0,0.0,110.0,37.0,35.0,0.0,0.0,0.0,0.0,0.0,80.0,0.0,0.0,0.0,38.0,0.0,0.0,0.0,0.0,0.0
河津町谷津,河津町,谷津,22302008000,5.056995809853912,138.9804581933101,34.74261907229504,146.0,450.0,393.0,63.0,0.0,0.0,879.0,0.0,0.0,65.0,345.0,0.0,421.0,0.0,0.0,154.0,0.0,0.0,75.0,0.0,0.0,0.0,0.0,75.0,0.0,0.0,0.0
下田市六丁目（旧岡方村）,下田市,六丁目（旧岡方村）,22219016002,5.133828669069447,138.9279490189307,34.676756369444,295.0,0.0,57.0,0.0,0.0,452.0,0.0,127.0,168.0,59.0,0.0,0.0,0.0,0.0,38.0,0.0,0.0,0.0,0.0,0.0,0.0,0.0,0.0,0.0,57.0,0.0,0.0
下田市一丁目,下田市,一丁目,22219011000,5.263994481359585,138.94397371192036,34.67682724590667,378.0,312.0,780.0,403.0,0.0,1804.0,0.0,1244.0,166.0,417.0,0.0,0.0,0.0,0.0,0.0,0.0,0.0,0.0,0.0,0.0,0.0,0.0,0.0,0.0,0.0,0.0,0.0
下田市大賀茂,下田市,大賀茂,22219052000,5.280568659096435,138.90574728338188,34.680007832962325,1640.0,647.0,633.0,597.0,68.0,377.0,74.0,231.0,895.0,77.0,0.0,499.0,0.0,0.0,65.0,0.0,154.0,150.0,79.0,0.0,355.0,84.0,0.0,0.0,0.0,0.0,0.0
下田市六丁目,下田市,六丁目,22219016000,5.375020915474067,138.93333565453526,34.67458763535051,3810.0,972.0,1814.0,1264.0,85.0,985.0,0.0,90.0,427.0,98.0,0.0,0.0,0.0,0.0,0.0,0.0,0.0,95.0,97.0,0.0,197.0,95.0,0.0,0.0,85.0,0.0,0.0
河津町峰,河津町,峰,22302007000,5.4254364546503435,138.97689190958886,34.7534350833644,0.0,670.0,0.0,263.0,0.0,225.0,66.0,0.0,0.0,0.0,380.0,0.0,64.0,0.0,0.0,168.0,0.0,0.0,0.0,0.0,0.0,0.0,0.0,109.0,0.0,0.0,0.0
下田市四丁目,下田市,四丁目,22219014000,5.437516032301342,138.9409060891876,34.674712215443115,826.0,197.0,508.0,0.0,0.0,0.0,0.0,335.0,203.0,78.0,0.0,0.0,0.0,0.0,0.0,0.0,0.0,133.0,0.0,0.0,0.0,0.0,0.0,0.0,0.0,0.0,0.0
河津町小鍋,河津町,小鍋,22302017000,5.48849480529613,138.93794537448784,34.771863648152596,45.0,0.0,0.0,0.0,0.0,0.0,328.0,0.0,0.0,0.0,133.0,0.0,0.0,0.0,69.0,0.0,0.0,0.0,0.0,0.0,0.0,0.0,0.0,0.0,0.0,0.0,0.0
下田市二丁目,下田市,二丁目,22219012000,5.568698849754709,138.94389102871364,34.67399919602186,689.0,210.0,643.0,335.0,0.0,453.0,50.0,979.0,210.0,509.0,0.0,0.0,0.0,0.0,357.0,0.0,0.0,186.0,0.0,0.0,0.0,55.0,0.0,0.0,51.0,0.0,0.0
下田市武ガ浜,下田市,武ガ浜,22219061000,5.660463841581531,138.94802235029104,34.67402365937963,0.0,0.0,0.0,0.0,0.0,0.0,66.0,0.0,0.0,0.0,0.0,0.0,0.0,0.0,0.0,0.0,0.0,0.0,0.0,0.0,0.0,0.0,0.0,0.0,0.0,0.0,0.0
河津町川津筏場,河津町,川津筏場,22302021000,5.665973891014982,138.9610509486252,34.76726616236452,0.0,0.0,0.0,0.0,0.0,0.0,0.0,0.0,0.0,0.0,0.0,0.0,0.0,0.0,0.0,0.0,0.0,0.0,0.0,0.0,0.0,0.0,0.0,0.0,0.0,0.0,0.0
下田市加増野,下田市,加増野,22219046000,5.684623077380793,138.8684346769966,34.721367694098724,0.0,374.0,278.0,0.0,64.0,0.0,0.0,0.0,0.0,0.0,0.0,0.0,0.0,0.0,726.0,0.0,0.0,0.0,0.0,0.0,0.0,0.0,0.0,0.0,0.0,0.0,0.0
河津町峰,河津町,峰,22302006000,5.870725540556493,138.97377061199163,34.76198248701687,0.0,668.0,0.0,0.0,0.0,0.0,0.0,0.0,0.0,0.0,0.0,0.0,122.0,0.0,0.0,0.0,0.0,0.0,0.0,0.0,0.0,0.0,0.0,0.0,0.0,0.0,0.0
下田市柿崎,下田市,柿崎,22219062000,5.921953572321738,138.95518394151935,34.67359899430392,986.0,369.0,643.0,518.0,320.0,924.0,0.0,208.0,0.0,68.0,0.0,228.0,0.0,0.0,0.0,0.0,437.0,0.0,0.0,79.0,0.0,0.0,0.0,0.0,0.0,0.0,0.0
下田市五丁目,下田市,五丁目,22219015000,6.061925378711036,138.936728600152,34.66859091851725,234.0,144.0,391.0,60.0,0.0,0.0,0.0,0.0,137.0,0.0,0.0,0.0,0.0,0.0,0.0,0.0,0.0,0.0,158.0,0.0,0.0,0.0,0.0,0.0,0.0,119.0,0.0
下田市三丁目,下田市,三丁目,22219013000,6.172077499279336,138.9449211680365,34.66862949391804,1189.0,248.0,970.0,352.0,63.0,70.0,0.0,266.0,62.0,188.0,0.0,0.0,0.0,0.0,60.0,208.0,0.0,121.0,572.0,0.0,0.0,0.0,0.0,0.0,0.0,0.0,0.0
河津町川津筏場,河津町,川津筏場,22302022000,6.2923290065503945,138.9675168235809,34.77064892710479,0.0,185.0,0.0,75.0,0.0,0.0,75.0,75.0,0.0,0.0,0.0,0.0,0.0,0.0,0.0,416.0,0.0,0.0,0.0,0.0,0.0,0.0,0.0,0.0,0.0,0.0,0.0
南伊豆町一條,南伊豆町,一條,22304011000,6.389987902546633,138.87406754355248,34.689080723709175,0.0,0.0,0.0,0.0,0.0,0.0,0.0,0.0,0.0,197.0,0.0,0.0,0.0,118.0,0.0,0.0,0.0,0.0,0.0,0.0,0.0,0.0,0.0,0.0,0.0,0.0,0.0
下田市柿崎,下田市,柿崎,22219064000,6.405484518089349,138.97084254268466,34.675713258562006,208.0,255.0,43.0,218.0,0.0,258.0,0.0,44.0,0.0,63.0,0.0,0.0,0.0,0.0,0.0,0.0,0.0,43.0,0.0,0.0,0.0,0.0,0.0,0.0,0.0,0.0,0.0
河津町川津筏場,河津町,川津筏場,22302023000,6.488350684104089,138.97539833095075,34.76815390048334,0.0,240.0,0.0,0.0,0.0,0.0,0.0,0.0,0.0,0.0,0.0,0.0,0.0,0.0,0.0,190.0,0.0,0.0,0.0,0.0,0.0,0.0,0.0,0.0,0.0,0.0,0.0
河津町大鍋,河津町,大鍋,22302016000,6.57481462042568,138.92301123709606,34.78167258900191,0.0,0.0,0.0,0.0,0.0,0.0,110.0,0.0,0.0,0.0,0.0,0.0,0.0,0.0,0.0,0.0,0.0,0.0,0.0,0.0,0.0,0.0,0.0,0.0,0.0,0.0,0.0
河津町湯ケ野,河津町,湯ケ野,22302018000,6.6011732414745445,138.95555686207206,34.778588089334235,0.0,312.0,56.0,0.0,0.0,0.0,390.0,0.0,0.0,0.0,0.0,0.0,46.0,0.0,0.0,0.0,0.0,0.0,0.0,0.0,56.0,0.0,0.0,0.0,0.0,0.0,0.0
河津町下佐ケ野,河津町,下佐ケ野,22302019000,6.686923386990935,138.96164357089077,34.77733638416524,614.0,440.0,0.0,0.0,0.0,0.0,2733.0,0.0,0.0,0.0,0.0,0.0,535.0,0.0,188.0,0.0,0.0,0.0,0.0,0.0,0.0,0.0,0.0,0.0,0.0,0.0,0.0
河津町浜,河津町,浜,22302001000,6.692483013075746,138.99771152411986,34.746984938544394,390.0,1767.0,143.0,181.0,0.0,0.0,315.0,131.0,52.0,163.0,49.0,0.0,375.0,0.0,0.0,1470.0,0.0,0.0,0.0,0.0,0.0,0.0,0.0,693.0,0.0,0.0,0.0
河津町梨本,河津町,梨本,22302015000,7.015873255196307,138.9482323658616,34.784285041683624,72.0,168.0,0.0,0.0,0.0,0.0,0.0,0.0,0.0,0.0,0.0,0.0,0.0,0.0,0.0,0.0,0.0,0.0,0.0,0.0,0.0,0.0,0.0,0.0,0.0,0.0,0.0
河津町田中,河津町,田中,22302003000,7.049681652330381,138.99252083969478,34.76070328408381,951.0,1034.0,147.0,86.0,0.0,70.0,52.0,0.0,0.0,0.0,113.0,0.0,1197.0,0.0,0.0,588.0,0.0,0.0,0.0,0.0,0.0,0.0,0.0,244.0,0.0,0.0,0.0
松崎町池代,松崎町,池代,22305014000,7.269168561669685,138.8681714468844,34.76339006639227,0.0,0.0,0.0,0.0,0.0,0.0,0.0,0.0,0.0,0.0,0.0,0.0,0.0,0.0,0.0,0.0,0.0,0.0,0.0,0.0,0.0,0.0,0.0,0.0,0.0,0.0,0.0
