TOWN_CODE_11,CITY_NAME,S_NAME,CITY_NAME_from_master,S_NAME_from_master,town_name_show,都道府県名,市区町村名,大字・町名,字・丁目名,町丁目名,市区町村コード,町丁字コード,町丁字コード6桁,地域階層レベル,総数,医療需要者数合計,0～4歳,5～9歳,10～14歳,15～19歳,20～24歳,25～29歳,30～34歳,35～39歳,40～44歳,45～49歳,50～54歳,55～59歳,60～64歳,65～69歳,70～74歳,75～79歳,80～84歳,85～89歳,90～94歳,95～99歳,100歳以上,0～4歳_医療需要者数,5～9歳_医療需要者数,10～14歳_医療需要者数,15～19歳_医療需要者数,20～24歳_医療需要者数,25～29歳_医療需要者数,30～34歳_医療需要者数,35～39歳_医療需要者数,40～44歳_医療需要者数,45～49歳_医療需要者数,50～54歳_医療需要者数,55～59歳_医療需要者数,60～64歳_医療需要者数,65～69歳_医療需要者数,70～74歳_医療需要者数,75～79歳_医療需要者数,80～84歳_医療需要者数,85～89歳_医療需要者数,90～94歳_医療需要者数,95～99歳_医療需要者数,100歳以上_医療需要者数,5,男女,秘匿処理,秘匿先情報,合算地域,年齢「不詳」,（再掲）15歳未満,（再掲）15～64歳,（再掲）65歳以上,（再掲）75歳以上,（再掲）85歳以上,（再掲）20～69歳,-,-.1,中江医院,佐藤医院,医療法人慈愛会 石田医院,医療法人社団健育会 西伊豆健育会病院附属土肥クリニック,医療法人社団健育会西伊豆健育会病院,医療法人社団正仁会 加藤内科,池田医院,西伊豆町安良里診療所,西伊豆町田子診療所,LON,LAT,dist_km,total_patients,town,town_norm,match_type
22306007009,西伊豆町,安良里中島,西伊豆町,安良里中島,西伊豆町安良里中島,静岡県,西伊豆町,安良里,中島,西伊豆町安良里中島,22306.0,7009.0,7009.0,4.0,122,9.665300000000002,0.0,0.0,0.0,1.0,5.0,1.0,0.0,3.0,6.0,9.0,8.0,4.0,7.0,15.0,28.0,13.0,10.0,7.0,4.0,1.0,0.0,0.0,0.0,0.0,0.02459,0.11835,0.02837,0.0,0.1005899999999999,0.21006,0.35208,0.3516,0.23004,0.4424,1.21515,2.6306000000000003,1.45561,1.201,0.80381,0.40084,0.10021,0.0,5104.0,総数,,,,-,-,44,78,35,12,58,7937,65.55738,0.0,0.0,0.0,0.0,0.0,0.0,0.0,0.0,0.0,138.76828023548285,34.82605845632471,0.1381886729283752,0.0,西伊豆町安良里中島,西伊豆町安良里中島,code_in_car30
22306007010,西伊豆町,安良里天坂,西伊豆町,安良里天坂,西伊豆町安良里天坂,静岡県,西伊豆町,安良里,天坂,西伊豆町安良里天坂,22306.0,7010.0,7010.0,4.0,219,18.14391,1.0,3.0,2.0,8.0,4.0,1.0,5.0,3.0,8.0,10.0,3.0,14.0,8.0,30.0,36.0,29.0,24.0,16.0,11.0,3.0,0.0,0.0379,0.15588,0.0736,0.19672,0.09468,0.02837,0.1600499999999999,0.1005899999999999,0.28008,0.3912,0.13185,0.80514,0.5056,2.4303,3.3822,3.24713,2.8824,1.83728,1.10231,0.3006299999999999,0.0,5105.0,総数,,,,-,6,64,149,83,30,86,14314,65.86073,0.0,0.0,0.0,235.0,74.0,0.0,218.0,637.0,76.0,138.770941025094,34.82476194461402,0.2652479628454754,1240.0,西伊豆町安良里天坂,西伊豆町安良里天坂,code_in_car30
22306007007,西伊豆町,安良里浜川東,西伊豆町,安良里浜川東,西伊豆町安良里浜川東,静岡県,西伊豆町,安良里,浜川東,西伊豆町安良里浜川東,22306.0,7007.0,7007.0,4.0,261,19.86681,3.0,4.0,11.0,8.0,1.0,4.0,9.0,9.0,7.0,9.0,16.0,17.0,21.0,26.0,34.0,27.0,28.0,15.0,9.0,3.0,0.0,0.1137,0.20784,0.4048,0.19672,0.02367,0.11348,0.2880899999999999,0.30177,0.24507,0.35208,0.7032,0.97767,1.3272000000000002,2.10626,3.1943,3.02319,3.3628,1.72245,0.90189,0.3006299999999999,0.0,5102.0,総数,,,,-,18,101,142,82,27,119,15875,61.32375,0.0,0.0,0.0,337.0,212.0,0.0,158.0,1815.0,0.0,138.7765408270191,34.82692643225366,0.6450506004723672,2522.0,西伊豆町安良里浜川東,西伊豆町安良里浜川東,code_in_car30
22306007011,西伊豆町,安良里浦上,西伊豆町,安良里浦上,西伊豆町安良里浦上,静岡県,西伊豆町,安良里,浦上,西伊豆町安良里浦上,22306.0,7011.0,7011.0,4.0,143,11.608770000000002,1.0,2.0,0.0,1.0,2.0,1.0,2.0,1.0,8.0,13.0,7.0,7.0,3.0,16.0,27.0,24.0,17.0,8.0,1.0,0.0,0.0,0.0379,0.10392,0.0,0.02459,0.04734,0.02837,0.06402,0.03353,0.28008,0.50856,0.30765,0.40257,0.1896,1.29616,2.5366500000000003,2.68728,2.0417,0.91864,0.10021,0.0,0.0,5106.0,総数,,,,2,3,45,93,50,9,60,9140,65.3227,0.0,0.0,0.0,162.0,35.0,0.0,355.0,70.0,605.0,138.77234346063452,34.820371750755804,0.7634905732603555,1227.0,西伊豆町安良里浦上,西伊豆町安良里浦上,code_in_car30
22306007008,西伊豆町,安良里浜川西,西伊豆町,安良里浜川西,西伊豆町安良里浜川西,静岡県,西伊豆町,安良里,浜川西,西伊豆町安良里浜川西,22306.0,7008.0,7008.0,4.0,211,16.36983,4.0,3.0,6.0,7.0,2.0,6.0,7.0,0.0,7.0,7.0,14.0,11.0,14.0,26.0,21.0,33.0,21.0,12.0,9.0,0.0,0.0,0.1516,0.15588,0.2208,0.17213,0.04734,0.1702199999999999,0.22407,0.0,0.24507,0.27384,0.6153000000000001,0.63261,0.8848,2.10626,1.97295,3.69501,2.5221,1.37796,0.90189,0.0,0.0,5103.0,総数,,,,1,13,75,122,75,21,94,12883,61.84762,0.0,0.0,0.0,66.0,215.0,0.0,487.0,1098.0,0.0,138.78048693946803,34.82922954388789,1.040175885222752,1866.0,西伊豆町安良里浜川西,西伊豆町安良里浜川西,code_in_car30
22306006006,西伊豆町,宇久須芝,西伊豆町,宇久須芝,西伊豆町宇久須芝,静岡県,西伊豆町,宇久須,芝,西伊豆町宇久須芝,22306.0,6006.0,6006.0,4.0,190,14.167460000000002,0.0,1.0,5.0,12.0,4.0,2.0,1.0,3.0,7.0,10.0,17.0,17.0,12.0,13.0,25.0,30.0,19.0,6.0,4.0,1.0,0.0,0.0,0.05196,0.184,0.29508,0.09468,0.05674,0.03201,0.1005899999999999,0.24507,0.3912,0.7471500000000001,0.97767,0.7584000000000001,1.05313,2.3487500000000003,3.3591,2.2819,0.68898,0.40084,0.10021,0.0,5100.0,総数,,,,1,6,85,98,60,11,86,11439,61.02381,0.0,0.0,0.0,76.0,99.0,0.0,211.0,73.0,0.0,138.77290585553607,34.84031461549549,1.532683739683619,459.0,西伊豆町宇久須芝,西伊豆町宇久須芝,code_in_car30
22306001001,西伊豆町,田子大田子,西伊豆町,田子大田子,西伊豆町田子大田子,静岡県,西伊豆町,田子,大田子,西伊豆町田子大田子,22306.0,1001.0,1001.0,4.0,664,50.23106000000001,9.0,19.0,10.0,17.0,16.0,9.0,12.0,27.0,26.0,37.0,33.0,31.0,51.0,77.0,88.0,74.0,73.0,28.0,21.0,5.0,0.0,0.3411,0.98724,0.368,0.41803,0.37872,0.25533,0.3841199999999999,0.90531,0.91026,1.44744,1.45035,1.78281,3.2232000000000003,6.23777,8.2676,8.28578,8.7673,3.21524,2.1044099999999997,0.50105,0.0,5078.0,総数,,,,1,38,259,366,201,54,319,40033,60.8816,0.0,0.0,0.0,982.0,1145.0,0.0,237.0,603.0,789.0,138.75518167134467,34.811161710586816,2.1759223888763866,3756.0,西伊豆町田子大田子,西伊豆町田子大田子,code_in_car30
22306006005,西伊豆町,宇久須浜,西伊豆町,宇久須浜,西伊豆町宇久須浜,静岡県,西伊豆町,宇久須,浜,西伊豆町宇久須浜,22306.0,6005.0,6005.0,4.0,269,19.714889999999997,8.0,5.0,6.0,5.0,8.0,7.0,2.0,8.0,10.0,17.0,19.0,22.0,17.0,23.0,35.0,26.0,21.0,21.0,6.0,3.0,0.0,0.3032,0.2598,0.2208,0.12295,0.18936,0.19859,0.06402,0.26824,0.3500999999999999,0.6650400000000001,0.8350500000000001,1.26522,1.0744,1.86323,3.28825,2.91122,2.5221,2.41143,0.6012599999999999,0.3006299999999999,0.0,5099.0,総数,,,,-,19,115,135,77,30,133,15910,59.64498,0.0,0.0,0.0,202.0,96.0,0.0,351.0,272.0,0.0,138.7751733219106,34.845827342548034,2.1763943450672727,921.0,西伊豆町宇久須浜,西伊豆町宇久須浜,code_in_car30
22306001002,西伊豆町,田子道西,西伊豆町,田子道西,西伊豆町田子道西,静岡県,西伊豆町,田子,道西,西伊豆町田子道西,22306.0,1002.0,1002.0,4.0,242,18.433810000000005,3.0,3.0,4.0,8.0,3.0,5.0,5.0,7.0,10.0,10.0,21.0,16.0,14.0,19.0,36.0,25.0,32.0,12.0,6.0,2.0,0.0,0.1137,0.15588,0.1472,0.19672,0.07101,0.14185,0.1600499999999999,0.2347099999999999,0.3500999999999999,0.3912,0.92295,0.92016,0.8848,1.53919,3.3822,2.79925,3.8432,1.37796,0.6012599999999999,0.20042,0.0,5079.0,総数,,,,1,10,99,132,77,20,110,14781,61.83195,0.0,0.0,0.0,266.0,239.0,0.0,191.0,722.0,346.0,138.76513911523512,34.80572952842054,2.3785029741733665,1764.0,西伊豆町田子道西,西伊豆町田子道西,code_in_car30
22306006004,西伊豆町,宇久須下月原,西伊豆町,宇久須下月原,西伊豆町宇久須下月原,静岡県,西伊豆町,宇久須,下月原,西伊豆町宇久須下月原,22306.0,6004.0,6004.0,4.0,243,17.688280000000002,1.0,4.0,8.0,10.0,7.0,3.0,4.0,9.0,16.0,12.0,19.0,15.0,11.0,18.0,26.0,31.0,20.0,15.0,11.0,2.0,0.0,0.0379,0.20784,0.2944,0.2459,0.16569,0.0851099999999999,0.12804,0.30177,0.56016,0.46944,0.8350500000000001,0.86265,0.6952,1.45818,2.4427000000000003,3.47107,2.402,1.72245,1.10231,0.20042,0.0,5098.0,総数,,,,1,13,106,123,79,28,114,14396,59.9876,0.0,0.0,0.0,128.0,250.0,0.0,1135.0,255.0,0.0,138.77813270779882,34.848270075794396,2.5124469091176196,1768.0,西伊豆町宇久須下月原,西伊豆町宇久須下月原,code_in_car30
22306001006,西伊豆町,田子月西,西伊豆町,田子月西,西伊豆町田子月西,静岡県,西伊豆町,田子,月西,西伊豆町田子月西,22306.0,1006.0,1006.0,4.0,266,20.94105,1.0,5.0,6.0,5.0,6.0,2.0,8.0,8.0,10.0,17.0,8.0,8.0,24.0,33.0,37.0,33.0,36.0,11.0,6.0,2.0,0.0,0.0379,0.2598,0.2208,0.12295,0.14202,0.05674,0.25608,0.26824,0.3500999999999999,0.6650400000000001,0.3516,0.46008,1.5168,2.67333,3.47615,3.69501,4.3236,1.26313,0.6012599999999999,0.20042,0.0,5083.0,総数,,,,-,12,96,158,88,19,124,16587,62.85714,0.0,0.0,0.0,800.0,0.0,0.0,639.0,743.0,228.0,138.75507031463573,34.805380205215585,2.7227850525011394,2410.0,西伊豆町田子月西,西伊豆町田子月西,code_in_car30
22306001003,西伊豆町,田子道東,西伊豆町,田子道東,西伊豆町田子道東,静岡県,西伊豆町,田子,道東,西伊豆町田子道東,22306.0,1003.0,1003.0,4.0,212,16.82188,4.0,5.0,5.0,5.0,1.0,3.0,1.0,8.0,7.0,11.0,4.0,6.0,25.0,26.0,35.0,24.0,22.0,13.0,5.0,1.0,1.0,0.1516,0.2598,0.184,0.12295,0.02367,0.0851099999999999,0.03201,0.26824,0.24507,0.43032,0.1758,0.34506,1.58,2.10626,3.28825,2.68728,2.6422,1.49279,0.50105,0.10021,0.10021,5080.0,総数,,,,-,14,71,127,66,20,92,13233,62.91981,0.0,0.0,0.0,0.0,666.0,0.0,0.0,0.0,170.0,138.77314101933203,34.80016310813938,2.9831257451232354,836.0,西伊豆町田子道東,西伊豆町田子道東,code_in_car30
22306001005,西伊豆町,田子月東,西伊豆町,田子月東,西伊豆町田子月東,静岡県,西伊豆町,田子,月東,西伊豆町田子月東,22306.0,1005.0,1005.0,4.0,207,17.094450000000002,0.0,1.0,3.0,4.0,1.0,2.0,3.0,1.0,6.0,10.0,9.0,10.0,16.0,32.0,41.0,23.0,19.0,16.0,7.0,2.0,0.0,0.0,0.05196,0.1104,0.09836,0.02367,0.05674,0.0960299999999999,0.03353,0.21006,0.3912,0.39555,0.5751,1.0112,2.59232,3.85195,2.57531,2.2819,1.83728,0.7014699999999999,0.20042,0.0,5082.0,総数,,,,1,4,62,140,67,25,90,13710,67.0534,0.0,0.0,0.0,253.0,369.0,0.0,0.0,0.0,177.0,138.7662262368132,34.79880621048934,3.129261503657069,799.0,西伊豆町田子月東,西伊豆町田子月東,code_in_car30
22306001004,西伊豆町,田子川向,西伊豆町,田子川向,西伊豆町田子川向,静岡県,西伊豆町,田子,川向,西伊豆町田子川向,22306.0,1004.0,1004.0,4.0,163,12.95943,2.0,1.0,2.0,2.0,0.0,4.0,0.0,7.0,4.0,8.0,9.0,12.0,14.0,22.0,16.0,20.0,18.0,10.0,7.0,4.0,0.0,0.0758,0.05196,0.0736,0.04918,0.0,0.11348,0.0,0.2347099999999999,0.14004,0.31296,0.39555,0.69012,0.8848,1.78222,1.5032,2.2394,2.1618,1.1483,0.7014699999999999,0.40084,0.0,5081.0,総数,,,,1,5,60,97,59,21,80,10576,65.78395,0.0,0.0,0.0,0.0,0.0,0.0,0.0,0.0,0.0,138.77002702805405,34.7981256656112,3.1912445459500165,0.0,西伊豆町田子川向,西伊豆町田子川向,code_in_car30
22306002007,西伊豆町,仁科浮島,西伊豆町,仁科浮島,西伊豆町仁科浮島,静岡県,西伊豆町,仁科,浮島,西伊豆町仁科浮島,22306.0,2007.0,2007.0,4.0,63,3.679580000000001,1.0,2.0,3.0,3.0,4.0,0.0,0.0,0.0,4.0,7.0,7.0,7.0,3.0,3.0,1.0,9.0,5.0,0.0,0.0,0.0,0.0,0.0379,0.10392,0.1104,0.07377,0.09468,0.0,0.0,0.0,0.14004,0.27384,0.30765,0.40257,0.1896,0.24303,0.09395,1.00773,0.6005,0.0,0.0,0.0,0.0,5085.0,総数,,,,4,6,35,18,14,-,35,3021,51.70339,0.0,0.0,0.0,0.0,0.0,0.0,98.0,0.0,140.0,138.7612947804627,34.79481635185624,3.636343810636767,238.0,西伊豆町仁科浮島,西伊豆町仁科浮島,code_in_car30
22306006003,西伊豆町,宇九須月原,西伊豆町,宇九須月原,西伊豆町宇九須月原,静岡県,西伊豆町,宇九須,月原,西伊豆町宇九須月原,22306.0,6003.0,6003.0,4.0,287,18.13871,2.0,8.0,18.0,14.0,7.0,5.0,7.0,11.0,27.0,25.0,17.0,19.0,19.0,26.0,27.0,22.0,13.0,14.0,4.0,1.0,0.0,0.0758,0.41568,0.6624,0.34426,0.16569,0.14185,0.22407,0.36883,0.94527,0.978,0.7471500000000001,1.09269,1.2008,2.10626,2.5366500000000003,2.46334,1.5613,1.60762,0.40084,0.10021,0.0,5097.0,総数,,,,1,28,151,107,54,19,163,15013,52.99301,0.0,0.0,0.0,0.0,0.0,0.0,0.0,0.0,0.0,138.79068464324715,34.85503756649818,3.68652105602319,0.0,西伊豆町宇九須月原,西伊豆町宇九須月原,code_in_car30
22306006001,西伊豆町,宇久須大久須,西伊豆町,宇久須大久須,西伊豆町宇久須大久須,静岡県,西伊豆町,宇久須,大久須,西伊豆町宇久須大久須,22306.0,6001.0,6001.0,4.0,215,18.44422,1.0,2.0,0.0,2.0,3.0,2.0,2.0,2.0,9.0,8.0,10.0,10.0,14.0,19.0,27.0,20.0,20.0,23.0,27.0,12.0,2.0,0.0379,0.10392,0.0,0.04918,0.07101,0.05674,0.06402,0.06706,0.31509,0.31296,0.4395,0.5751,0.8848,1.53919,2.5366500000000003,2.2394,2.402,2.64109,2.70567,1.2025199999999998,0.20042,5095.0,総数,,,,-,3,62,150,104,64,79,15235,71.36047,0.0,0.0,0.0,571.0,0.0,0.0,1035.0,0.0,0.0,138.81121066580405,34.835574776801614,3.9317156795345323,1606.0,西伊豆町宇久須大久須,西伊豆町宇久須大久須,code_in_car30
22306002014,西伊豆町,仁科野畑,西伊豆町,仁科野畑,西伊豆町仁科野畑,静岡県,西伊豆町,仁科,野畑,西伊豆町仁科野畑,22306.0,2014.0,2014.0,4.0,94,6.453080000000001,1.0,5.0,8.0,3.0,1.0,0.0,2.0,4.0,2.0,9.0,6.0,1.0,6.0,17.0,11.0,6.0,5.0,4.0,3.0,0.0,0.0,0.0379,0.2598,0.2944,0.07377,0.02367,0.0,0.06402,0.13412,0.07002,0.35208,0.2637,0.05751,0.3792,1.37717,1.03345,0.67182,0.6005,0.45932,0.3006299999999999,0.0,0.0,5089.0,総数,,,,-,14,34,46,18,7,48,5092,54.67021,0.0,0.0,0.0,0.0,103.0,0.0,0.0,0.0,0.0,138.78047630782638,34.78589297513565,4.660581339493525,103.0,西伊豆町仁科野畑,西伊豆町仁科野畑,code_in_car30
22222056027,伊豆市,小下田,伊豆市,小下田,伊豆市小下田,静岡県,伊豆市,小下田,,伊豆市小下田,22222.0,56027.0,56027.0,4.0,-,0.0,0.0,0.0,0.0,0.0,0.0,0.0,0.0,0.0,0.0,0.0,0.0,0.0,0.0,0.0,0.0,0.0,0.0,0.0,0.0,0.0,0.0,0.0,0.0,0.0,0.0,0.0,0.0,0.0,0.0,0.0,0.0,0.0,0.0,0.0,0.0,0.0,0.0,0.0,0.0,0.0,0.0,0.0,4576.0,総数,,,,-,-,-,-,-,-,-,-,-,0.0,0.0,0.0,0.0,0.0,0.0,0.0,0.0,0.0,138.76948263842513,34.86929318906801,4.722631804165159,0.0,伊豆市小下田,伊豆市小下田,code_in_car30
22222056031,伊豆市,小下田,伊豆市,小下田,伊豆市小下田,静岡県,伊豆市,小下田,,伊豆市小下田,22222.0,56031.0,56031.0,4.0,71,6.06125,0.0,0.0,0.0,1.0,0.0,1.0,2.0,0.0,0.0,3.0,3.0,9.0,8.0,4.0,9.0,6.0,9.0,10.0,5.0,1.0,0.0,0.0,0.0,0.0,0.02459,0.0,0.02837,0.06402,0.0,0.0,0.11736,0.13185,0.51759,0.5056,0.32404,0.84555,0.67182,1.0809,1.1483,0.50105,0.10021,0.0,4578.0,総数,,,,-,-,27,44,31,16,30,4950,70.21831,0.0,0.0,0.0,0.0,0.0,0.0,0.0,0.0,0.0,138.76573652261627,34.869678029025685,4.77762047978007,0.0,伊豆市小下田,伊豆市小下田,code_in_car30
22306004000,西伊豆町,一色,西伊豆町,一色,西伊豆町一色,,,,,,,,,,,,,,,,,,,,,,,,,,,,,,,,,,,,,,,,,,,,,,,,,,,,,,,,,,,,,,,,,,,,0.0,0.0,0.0,0.0,0.0,0.0,0.0,0.0,0.0,138.80481093592797,34.79487378457497,4.79864317613754,0.0,西伊豆町一色,西伊豆町一色,code_in_car30
22306002011,西伊豆町,仁科沢田,西伊豆町,仁科沢田,西伊豆町仁科沢田,静岡県,西伊豆町,仁科,沢田,西伊豆町仁科沢田,22306.0,2011.0,2011.0,4.0,489,33.86617,6.0,10.0,14.0,8.0,15.0,27.0,18.0,12.0,19.0,29.0,36.0,39.0,37.0,47.0,48.0,48.0,41.0,22.0,11.0,1.0,0.0,0.2274,0.5196,0.5152,0.19672,0.35505,0.76599,0.5761799999999999,0.4023599999999999,0.66519,1.1344800000000002,1.5822,2.24289,2.3384,3.80747,4.509600000000001,5.37456,4.9241,2.52626,1.10231,0.10021,0.0,5086.0,総数,,,,1,30,240,218,123,34,279,27679,57.21926,0.0,0.0,0.0,0.0,473.0,0.0,307.0,367.0,0.0,138.75814966577911,34.78285126943021,4.997433278515778,1147.0,西伊豆町仁科沢田,西伊豆町仁科沢田,code_in_car30
22222056028,伊豆市,小下田,伊豆市,小下田,伊豆市小下田,静岡県,伊豆市,小下田,,伊豆市小下田,22222.0,56028.0,56028.0,4.0,87,6.811070000000001,2.0,4.0,0.0,1.0,1.0,2.0,3.0,4.0,2.0,6.0,1.0,4.0,3.0,10.0,16.0,10.0,5.0,6.0,5.0,2.0,0.0,0.0758,0.20784,0.0,0.02459,0.02367,0.05674,0.0960299999999999,0.13412,0.07002,0.23472,0.04395,0.23004,0.1896,0.8101,1.5032,1.1197,0.6005,0.68898,0.50105,0.20042,0.0,4577.0,総数,,,,-,6,27,54,28,13,36,5374,62.27011,0.0,0.0,0.0,606.0,0.0,0.0,120.0,0.0,0.0,138.76064144615452,34.871572052909144,5.040899997084728,726.0,伊豆市小下田,伊豆市小下田,code_in_car30
22222056026,伊豆市,小下田,伊豆市,小下田,伊豆市小下田,静岡県,伊豆市,小下田,,伊豆市小下田,22222.0,56026.0,56026.0,4.0,81,6.209569999999999,1.0,0.0,0.0,2.0,2.0,2.0,1.0,2.0,3.0,3.0,3.0,11.0,9.0,9.0,4.0,10.0,3.0,12.0,3.0,1.0,0.0,0.0379,0.0,0.0,0.04918,0.04734,0.05674,0.03201,0.06706,0.10503,0.11736,0.13185,0.63261,0.5688000000000001,0.72909,0.3758,1.1197,0.3603,1.37796,0.3006299999999999,0.10021,0.0,4575.0,総数,,,,-,1,38,42,29,16,45,5183,64.48765,0.0,0.0,0.0,576.0,176.0,0.0,118.0,0.0,0.0,138.760948374693,34.877650535677994,5.7052315020717925,870.0,伊豆市小下田,伊豆市小下田,code_in_car30
22306003000,西伊豆町,中,西伊豆町,中,西伊豆町中,,,,,,,,,,,,,,,,,,,,,,,,,,,,,,,,,,,,,,,,,,,,,,,,,,,,,,,,,,,,,,,,,,,,0.0,0.0,0.0,0.0,0.0,0.0,0.0,0.0,0.0,138.78807023569794,34.7758781473305,5.913635893256218,0.0,西伊豆町中,西伊豆町中,code_in_car30
22306002012,西伊豆町,仁科浜,西伊豆町,仁科浜,西伊豆町仁科浜,静岡県,西伊豆町,仁科,浜,西伊豆町仁科浜,22306.0,2012.0,2012.0,4.0,679,47.07335,6.0,11.0,18.0,31.0,8.0,30.0,20.0,18.0,34.0,47.0,54.0,54.0,36.0,53.0,78.0,54.0,41.0,46.0,26.0,13.0,0.0,0.2274,0.57156,0.6624,0.76229,0.18936,0.8511,0.6401999999999999,0.60354,1.19034,1.83864,2.3733,3.10554,2.2752000000000003,4.29353,7.3281,6.04638,4.9241,5.28218,2.60546,1.30273,0.0,5087.0,総数,,,,1,35,332,311,180,85,354,39153,58.24779,0.0,0.0,0.0,576.0,2364.0,0.0,502.0,628.0,538.0,138.7725894645908,34.772931507645914,5.999056662867701,4608.0,西伊豆町仁科浜,西伊豆町仁科浜,code_in_car30
22306006002,西伊豆町,宇久須神田,西伊豆町,宇久須神田,西伊豆町宇久須神田,静岡県,西伊豆町,宇久須,神田,西伊豆町宇久須神田,22306.0,6002.0,6002.0,4.0,128,10.001089999999998,1.0,2.0,3.0,4.0,0.0,0.0,4.0,3.0,8.0,6.0,5.0,9.0,11.0,9.0,19.0,12.0,14.0,9.0,8.0,1.0,0.0,0.0379,0.10392,0.1104,0.09836,0.0,0.0,0.12804,0.1005899999999999,0.28008,0.23472,0.21975,0.51759,0.6952,0.72909,1.78505,1.34364,1.6814,1.03347,0.80168,0.10021,0.0,5096.0,総数,,,,-,6,50,72,44,18,55,8061,63.47656,0.0,0.0,0.0,402.0,269.0,0.0,222.0,36.0,48.0,138.82115319902846,34.86237378568706,6.153795856337705,977.0,西伊豆町宇久須神田,西伊豆町宇久須神田,code_in_car30
22222056025,伊豆市,小下田,伊豆市,小下田,伊豆市小下田,静岡県,伊豆市,小下田,,伊豆市小下田,22222.0,56025.0,56025.0,4.0,162,10.30558,2.0,0.0,3.0,4.0,1.0,3.0,3.0,15.0,15.0,24.0,16.0,5.0,14.0,6.0,12.0,17.0,9.0,5.0,7.0,1.0,0.0,0.0758,0.0,0.1104,0.09836,0.02367,0.0851099999999999,0.0960299999999999,0.50295,0.52515,0.93888,0.7032,0.28755,0.8848,0.48606,1.1274000000000002,1.90349,1.0809,0.57415,0.7014699999999999,0.10021,0.0,4574.0,総数,,,,-,5,100,57,39,13,102,9108,56.72222,0.0,0.0,0.0,1303.0,463.0,306.0,0.0,78.0,0.0,138.7611290885027,34.883787416656475,6.379932650452817,2150.0,伊豆市小下田,伊豆市小下田,code_in_car30
22306002013,西伊豆町,仁科大浜,西伊豆町,仁科大浜,西伊豆町仁科大浜,静岡県,西伊豆町,仁科,大浜,西伊豆町仁科大浜,22306.0,2013.0,2013.0,4.0,403,26.97529,6.0,11.0,23.0,14.0,6.0,13.0,12.0,12.0,21.0,28.0,29.0,25.0,20.0,45.0,52.0,35.0,26.0,14.0,6.0,1.0,0.0,0.2274,0.57156,0.8464,0.34426,0.14202,0.3688099999999999,0.3841199999999999,0.4023599999999999,0.73521,1.09536,1.27455,1.43775,1.2640000000000002,3.64545,4.885400000000001,3.91895,3.1226,1.60762,0.6012599999999999,0.10021,0.0,5088.0,総数,,,,4,40,180,179,82,21,211,21690,54.8609,0.0,0.0,102.0,262.0,1204.0,0.0,161.0,587.0,37.0,138.77513598498433,34.76909992411678,6.439146517343868,2353.0,西伊豆町仁科大浜,西伊豆町仁科大浜,code_in_car30
22222055036,伊豆市,八木沢,伊豆市,八木沢,伊豆市八木沢,静岡県,伊豆市,八木沢,,伊豆市八木沢,22222.0,55036.0,55036.0,4.0,-,0.0,0.0,0.0,0.0,0.0,0.0,0.0,0.0,0.0,0.0,0.0,0.0,0.0,0.0,0.0,0.0,0.0,0.0,0.0,0.0,0.0,0.0,0.0,0.0,0.0,0.0,0.0,0.0,0.0,0.0,0.0,0.0,0.0,0.0,0.0,0.0,0.0,0.0,0.0,0.0,0.0,0.0,0.0,4572.0,総数,,,,-,-,-,-,-,-,-,-,-,0.0,0.0,0.0,0.0,0.0,0.0,0.0,0.0,0.0,138.784986046892,34.88432989269956,6.549391174913637,0.0,伊豆市八木沢,伊豆市八木沢,code_in_car30
22306002015,西伊豆町,仁科築地,西伊豆町,仁科築地,西伊豆町仁科築地,静岡県,西伊豆町,仁科,築地,西伊豆町仁科築地,22306.0,2015.0,2015.0,4.0,513,32.006280000000004,21.0,13.0,23.0,21.0,18.0,16.0,16.0,21.0,29.0,40.0,27.0,30.0,40.0,62.0,54.0,34.0,25.0,10.0,9.0,1.0,0.0,0.7959,0.67548,0.8464,0.51639,0.42606,0.45392,0.51216,0.7041299999999999,1.01529,1.5648,1.18665,1.7253,2.5280000000000005,5.02262,5.073300000000001,3.80698,3.0025,1.1483,0.90189,0.10021,0.0,5090.0,総数,,,,3,57,258,195,79,20,299,26068,51.61373,0.0,0.0,51.0,97.0,2169.0,0.0,191.0,592.0,187.0,138.7827413737224,34.768186497503514,6.631509684665686,3287.0,西伊豆町仁科築地,西伊豆町仁科築地,code_in_car30
22222055022,伊豆市,八木沢,伊豆市,八木沢,伊豆市八木沢,静岡県,伊豆市,八木沢,,伊豆市八木沢,22222.0,55022.0,55022.0,4.0,76,5.61421,2.0,3.0,4.0,1.0,0.0,1.0,2.0,3.0,3.0,4.0,4.0,6.0,8.0,6.0,5.0,7.0,10.0,6.0,1.0,0.0,0.0,0.0758,0.15588,0.1472,0.02459,0.0,0.02837,0.06402,0.1005899999999999,0.10503,0.15648,0.1758,0.34506,0.5056,0.48606,0.46975,0.78379,1.201,0.68898,0.10021,0.0,0.0,4570.0,総数,,,,-,9,32,35,24,7,37,4401,58.40789,0.0,0.0,0.0,96.0,0.0,0.0,0.0,0.0,0.0,138.77597708012692,34.8877652367655,6.802552190633981,96.0,伊豆市八木沢,伊豆市八木沢,code_in_car30
22222055024,伊豆市,八木沢,伊豆市,八木沢,伊豆市八木沢,静岡県,伊豆市,八木沢,,伊豆市八木沢,22222.0,55024.0,55024.0,4.0,82,6.55304,0.0,0.0,0.0,4.0,0.0,0.0,1.0,2.0,3.0,6.0,7.0,4.0,5.0,8.0,14.0,7.0,9.0,9.0,1.0,2.0,0.0,0.0,0.0,0.0,0.09836,0.0,0.0,0.03201,0.06706,0.10503,0.23472,0.30765,0.23004,0.316,0.64808,1.3153,0.78379,1.0809,1.03347,0.10021,0.20042,0.0,4571.0,総数,,,,-,-,32,50,28,12,36,5372,66.0122,0.0,0.0,0.0,61.0,55.0,0.0,0.0,0.0,0.0,138.76445508408258,34.88969686548599,7.0064084156321105,116.0,伊豆市八木沢,伊豆市八木沢,code_in_car30
22222055019,伊豆市,八木沢,伊豆市,八木沢,伊豆市八木沢,静岡県,伊豆市,八木沢,,伊豆市八木沢,22222.0,55019.0,55019.0,4.0,61,4.3390699999999995,0.0,0.0,2.0,2.0,0.0,1.0,0.0,1.0,3.0,9.0,6.0,1.0,6.0,6.0,10.0,8.0,3.0,1.0,0.0,1.0,1.0,0.0,0.0,0.0736,0.04918,0.0,0.02837,0.0,0.03353,0.10503,0.35208,0.2637,0.05751,0.3792,0.48606,0.9395,0.89576,0.3603,0.11483,0.0,0.10021,0.10021,4568.0,総数,,,,-,2,29,30,14,3,33,3678,60.79508,0.0,0.0,0.0,0.0,0.0,0.0,0.0,0.0,0.0,138.77785753345833,34.89246979592156,7.3397141513031885,0.0,伊豆市八木沢,伊豆市八木沢,code_in_car30
22222055020,伊豆市,八木沢,伊豆市,八木沢,伊豆市八木沢,静岡県,伊豆市,八木沢,,伊豆市八木沢,22222.0,55020.0,55020.0,4.0,188,14.3685,6.0,2.0,5.0,3.0,1.0,6.0,7.0,6.0,7.0,9.0,15.0,4.0,13.0,18.0,23.0,26.0,25.0,8.0,2.0,2.0,0.0,0.2274,0.10392,0.184,0.07377,0.02367,0.1702199999999999,0.22407,0.2011799999999999,0.24507,0.35208,0.65925,0.23004,0.8216000000000001,1.45818,2.16085,2.91122,3.0025,0.91864,0.20042,0.20042,0.0,4569.0,総数,,,,-,13,71,104,63,12,86,11279,60.49468,0.0,0.0,0.0,152.0,30.0,0.0,43.0,70.0,0.0,138.7717575096927,34.89318015083894,7.381682511810175,295.0,伊豆市八木沢,伊豆市八木沢,code_in_car30
22305006000,松崎町,門野,松崎町,門野,松崎町門野,,,,,,,,,,,,,,,,,,,,,,,,,,,,,,,,,,,,,,,,,,,,,,,,,,,,,,,,,,,,,,,,,,,,0.0,0.0,0.0,0.0,0.0,0.0,0.0,0.0,0.0,138.83497438999896,34.78710334739186,7.434157001917665,0.0,松崎町門野,松崎町門野,code_in_car30
22305001007,松崎町,江奈,松崎町,江奈,松崎町江奈,静岡県,松崎町,江奈,,松崎町江奈,22305.0,1007.0,1007.0,4.0,432,30.98192,9.0,9.0,11.0,13.0,5.0,10.0,12.0,16.0,32.0,33.0,15.0,21.0,34.0,35.0,40.0,22.0,37.0,33.0,27.0,16.0,1.0,0.3411,0.46764,0.4048,0.31967,0.11835,0.2837,0.3841199999999999,0.53648,1.12032,1.29096,0.65925,1.20771,2.1488,2.83535,3.758,2.46334,4.4437,3.78939,2.70567,1.60336,0.10021,5037.0,総数,,,,1,29,191,211,136,77,213,25727,60.19142,203.0,0.0,325.0,66.0,60.0,0.0,545.0,72.0,0.0,138.78002777890566,34.759994504901286,7.493063843747258,1271.0,松崎町江奈,松崎町江奈,code_in_car30
22305007000,松崎町,櫻田,松崎町,櫻田,松崎町櫻田,,,,,,,,,,,,,,,,,,,,,,,,,,,,,,,,,,,,,,,,,,,,,,,,,,,,,,,,,,,,,,,,,,,,0.0,0.0,0.0,0.0,0.0,0.0,0.0,0.0,0.0,138.79351391054252,34.76158438425429,7.578901120962082,0.0,松崎町櫻田,松崎町櫻田,code_in_car30
22305001006,松崎町,江奈,松崎町,江奈,松崎町江奈,静岡県,松崎町,江奈,,松崎町江奈,22305.0,1006.0,1006.0,4.0,350,24.26327,5.0,10.0,8.0,11.0,7.0,15.0,9.0,6.0,13.0,24.0,28.0,28.0,32.0,35.0,31.0,34.0,27.0,17.0,5.0,3.0,1.0,0.1895,0.5196,0.2944,0.27049,0.16569,0.42555,0.2880899999999999,0.2011799999999999,0.45513,0.93888,1.2306,1.61028,2.0224,2.83535,2.91245,3.80698,3.2427,1.95211,0.50105,0.3006299999999999,0.10021,5036.0,総数,,,,1,23,173,153,87,26,197,19914,57.56017,366.0,0.0,111.0,165.0,1759.0,0.0,0.0,105.0,263.0,138.78562125430355,34.75887200358165,7.69817227022829,2769.0,松崎町江奈,松崎町江奈,code_in_car30
22305010000,松崎町,吉田,松崎町,吉田,松崎町吉田,,,,,,,,,,,,,,,,,,,,,,,,,,,,,,,,,,,,,,,,,,,,,,,,,,,,,,,,,,,,,,,,,,,,0.0,0.0,0.0,0.0,0.0,0.0,0.0,0.0,0.0,138.80631772087233,34.764313952784725,7.721908410860141,0.0,松崎町吉田,松崎町吉田,code_in_car30
22305002009,松崎町,江奈,松崎町,江奈,松崎町江奈,静岡県,松崎町,江奈,,松崎町江奈,22305.0,2009.0,2009.0,4.0,112,8.594660000000001,0.0,1.0,4.0,1.0,1.0,1.0,0.0,0.0,2.0,14.0,7.0,8.0,11.0,16.0,14.0,11.0,8.0,9.0,4.0,0.0,0.0,0.0,0.05196,0.1472,0.02459,0.02367,0.02837,0.0,0.0,0.07002,0.5476800000000001,0.30765,0.46008,0.6952,1.29616,1.3153,1.23167,0.9608,1.03347,0.40084,0.0,0.0,5040.0,総数,,,,-,5,45,62,32,13,60,7127,64.13393,0.0,0.0,0.0,0.0,85.0,0.0,0.0,0.0,0.0,138.77687502318796,34.75756868100158,7.730175217337664,85.0,松崎町江奈,松崎町江奈,code_in_car30
22305011000,松崎町,船田,松崎町,船田,松崎町船田,,,,,,,,,,,,,,,,,,,,,,,,,,,,,,,,,,,,,,,,,,,,,,,,,,,,,,,,,,,,,,,,,,,,0.0,0.0,0.0,0.0,0.0,0.0,0.0,0.0,0.0,138.82363101772884,34.772895735492,7.772205264148537,0.0,松崎町船田,松崎町船田,code_in_car30
22306005000,西伊豆町,大沢里,西伊豆町,大沢里,西伊豆町大沢里,,,,,,,,,,,,,,,,,,,,,,,,,,,,,,,,,,,,,,,,,,,,,,,,,,,,,,,,,,,,,,,,,,,,0.0,0.0,0.0,0.0,0.0,0.0,0.0,0.0,0.0,138.85468368461113,34.82159505936143,7.799600801052661,0.0,西伊豆町大沢里,西伊豆町大沢里,code_in_car30
22305002008,松崎町,江奈,松崎町,江奈,松崎町江奈,静岡県,松崎町,江奈,,松崎町江奈,22305.0,2008.0,2008.0,4.0,221,15.80122,5.0,4.0,8.0,8.0,2.0,1.0,5.0,5.0,12.0,11.0,23.0,17.0,14.0,12.0,33.0,18.0,23.0,9.0,6.0,3.0,0.0,0.1895,0.20784,0.2944,0.19672,0.04734,0.02837,0.1600499999999999,0.16765,0.42012,0.43032,1.01085,0.97767,0.8848,0.97212,3.10035,2.01546,2.7623,1.03347,0.6012599999999999,0.3006299999999999,0.0,5039.0,総数,,,,2,17,98,104,59,18,102,12781,58.86073,224.0,0.0,287.0,181.0,197.0,0.0,0.0,198.0,0.0,138.77887591833914,34.75639721330458,7.877758769845042,1087.0,松崎町江奈,松崎町江奈,code_in_car30
22305003004,松崎町,松崎,松崎町,松崎,松崎町松崎,静岡県,松崎町,松崎,,松崎町松崎,22305.0,3004.0,3004.0,4.0,189,13.63262,3.0,5.0,4.0,10.0,2.0,7.0,2.0,16.0,6.0,6.0,11.0,5.0,9.0,26.0,29.0,16.0,16.0,6.0,7.0,3.0,0.0,0.1137,0.2598,0.1472,0.2459,0.04734,0.19859,0.06402,0.53648,0.21006,0.23472,0.48345,0.28755,0.5688000000000001,2.10626,2.72455,1.79152,1.9216,0.68898,0.7014699999999999,0.3006299999999999,0.0,5045.0,総数,,,,-,12,74,103,48,16,90,10932,58.34127,784.0,0.0,0.0,84.0,0.0,0.0,84.0,0.0,0.0,138.77720641562735,34.75485217205554,8.033728553887778,952.0,松崎町松崎,松崎町松崎,code_in_car30
22305009000,松崎町,建久寺,松崎町,建久寺,松崎町建久寺,,,,,,,,,,,,,,,,,,,,,,,,,,,,,,,,,,,,,,,,,,,,,,,,,,,,,,,,,,,,,,,,,,,,0.0,0.0,0.0,0.0,0.0,0.0,0.0,0.0,0.0,138.80338771534662,34.759999161480685,8.049813538150984,0.0,松崎町建久寺,松崎町建久寺,code_in_car30
22222055018,伊豆市,八木沢,伊豆市,八木沢,伊豆市八木沢,静岡県,伊豆市,八木沢,,伊豆市八木沢,22222.0,55018.0,55018.0,4.0,107,7.66675,2.0,4.0,1.0,3.0,2.0,3.0,4.0,3.0,4.0,5.0,8.0,6.0,12.0,9.0,13.0,10.0,8.0,6.0,3.0,1.0,0.0,0.0758,0.20784,0.0368,0.07377,0.04734,0.0851099999999999,0.12804,0.1005899999999999,0.14004,0.1956,0.3516,0.34506,0.7584000000000001,0.72909,1.2213500000000002,1.1197,0.9608,0.68898,0.3006299999999999,0.10021,0.0,4567.0,総数,,,,-,7,50,50,28,10,56,6233,58.75234,0.0,0.0,0.0,102.0,29.0,188.0,0.0,0.0,0.0,138.78042287028947,34.89987742663763,8.184626543569768,319.0,伊豆市八木沢,伊豆市八木沢,code_in_car30
22305003002,松崎町,松崎,松崎町,松崎,松崎町松崎,静岡県,松崎町,松崎,,松崎町松崎,22305.0,3002.0,3002.0,4.0,136,9.80032,2.0,2.0,3.0,5.0,1.0,5.0,1.0,2.0,6.0,9.0,10.0,12.0,15.0,14.0,11.0,13.0,9.0,12.0,4.0,0.0,0.0,0.0758,0.10392,0.1104,0.12295,0.02367,0.14185,0.03201,0.06706,0.21006,0.35208,0.4395,0.69012,0.948,1.13414,1.03345,1.45561,1.0809,1.37796,0.40084,0.0,0.0,5043.0,総数,,,,-,7,66,63,38,16,75,8124,60.23529,0.0,0.0,0.0,0.0,88.0,0.0,0.0,90.0,0.0,138.77532122521689,34.75325363858781,8.197797019138866,178.0,松崎町松崎,松崎町松崎,code_in_car30
22305003005,松崎町,松崎,松崎町,松崎,松崎町松崎,静岡県,松崎町,松崎,,松崎町松崎,22305.0,3005.0,3005.0,4.0,93,6.295030000000001,1.0,1.0,2.0,4.0,3.0,5.0,1.0,2.0,1.0,7.0,8.0,4.0,8.0,12.0,8.0,11.0,4.0,6.0,2.0,0.0,0.0,0.0379,0.05196,0.0736,0.09836,0.07101,0.14185,0.03201,0.06706,0.03501,0.27384,0.3516,0.23004,0.5056,0.97212,0.7516,1.23167,0.4804,0.68898,0.20042,0.0,0.0,5046.0,総数,,,,3,4,43,43,23,8,51,5215,58.44444,0.0,0.0,0.0,0.0,0.0,0.0,0.0,0.0,0.0,138.7770839422377,34.753350670377124,8.199100506229529,0.0,松崎町松崎,松崎町松崎,code_in_car30
22305008000,松崎町,那賀,松崎町,那賀,松崎町那賀,,,,,,,,,,,,,,,,,,,,,,,,,,,,,,,,,,,,,,,,,,,,,,,,,,,,,,,,,,,,,,,,,,,,0.0,0.0,0.0,0.0,0.0,0.0,0.0,0.0,0.0,138.79950441925857,34.75681444835915,8.2533165050953,0.0,松崎町那賀,松崎町那賀,code_in_car30
22305012000,松崎町,峰輪,松崎町,峰輪,松崎町峰輪,,,,,,,,,,,,,,,,,,,,,,,,,,,,,,,,,,,,,,,,,,,,,,,,,,,,,,,,,,,,,,,,,,,,0.0,0.0,0.0,0.0,0.0,0.0,0.0,0.0,0.0,138.82906026725328,34.76996062621086,8.341293619350044,0.0,松崎町峰輪,松崎町峰輪,code_in_car30
22222053035,伊豆市,土肥,伊豆市,土肥,伊豆市土肥,静岡県,伊豆市,土肥,,伊豆市土肥,22222.0,53035.0,53035.0,4.0,-,0.0,0.0,0.0,0.0,0.0,0.0,0.0,0.0,0.0,0.0,0.0,0.0,0.0,0.0,0.0,0.0,0.0,0.0,0.0,0.0,0.0,0.0,0.0,0.0,0.0,0.0,0.0,0.0,0.0,0.0,0.0,0.0,0.0,0.0,0.0,0.0,0.0,0.0,0.0,0.0,0.0,0.0,0.0,4558.0,総数,,,,-,-,-,-,-,-,-,-,-,0.0,0.0,0.0,0.0,0.0,0.0,0.0,0.0,0.0,138.8184261430275,34.892980289023654,8.606204690408207,0.0,伊豆市土肥,伊豆市土肥,code_in_car30
22305003001,松崎町,松崎,松崎町,松崎,松崎町松崎,静岡県,松崎町,松崎,,松崎町松崎,22305.0,3001.0,3001.0,4.0,182,12.41749,4.0,2.0,9.0,11.0,4.0,3.0,4.0,4.0,10.0,11.0,13.0,16.0,14.0,15.0,18.0,15.0,17.0,9.0,3.0,0.0,0.0,0.1516,0.10392,0.3312,0.27049,0.09468,0.0851099999999999,0.12804,0.13412,0.3500999999999999,0.43032,0.57135,0.92016,0.8848,1.21515,1.6911,1.67955,2.0417,1.03347,0.3006299999999999,0.0,0.0,5042.0,総数,,,,-,15,90,77,44,12,94,10088,55.92857,0.0,0.0,0.0,246.0,246.0,0.0,0.0,0.0,0.0,138.7788380186748,34.74968373262413,8.619862545378258,492.0,松崎町松崎,松崎町松崎,code_in_car30
22305003003,松崎町,松崎,松崎町,松崎,松崎町松崎,静岡県,松崎町,松崎,,松崎町松崎,22305.0,3003.0,3003.0,4.0,160,11.79502,1.0,5.0,10.0,3.0,0.0,2.0,2.0,5.0,7.0,13.0,5.0,10.0,16.0,13.0,28.0,19.0,11.0,5.0,4.0,1.0,0.0,0.0379,0.2598,0.368,0.07377,0.0,0.05674,0.06402,0.16765,0.24507,0.50856,0.21975,0.5751,1.0112,1.05313,2.6306000000000003,2.12743,1.3211,0.57415,0.40084,0.10021,0.0,5044.0,総数,,,,-,16,63,81,40,10,73,9417,59.35625,0.0,0.0,637.0,129.0,743.0,0.0,130.0,147.0,149.0,138.77657064082504,34.74944195472452,8.628600191339748,1935.0,松崎町松崎,松崎町松崎,code_in_car30
22305004000,松崎町,宮内,松崎町,宮内,松崎町宮内,,,,,,,,,,,,,,,,,,,,,,,,,,,,,,,,,,,,,,,,,,,,,,,,,,,,,,,,,,,,,,,,,,,,0.0,0.0,0.0,0.0,0.0,0.0,0.0,0.0,0.0,138.78232386119674,34.74974748164376,8.650212308962143,0.0,松崎町宮内,松崎町宮内,code_in_car30
22222053010,伊豆市,土肥,伊豆市,土肥,伊豆市土肥,静岡県,伊豆市,土肥,,伊豆市土肥,22222.0,53010.0,53010.0,4.0,47,4.14,0.0,0.0,0.0,0.0,1.0,1.0,0.0,0.0,0.0,1.0,3.0,1.0,4.0,9.0,8.0,5.0,6.0,3.0,2.0,2.0,1.0,0.0,0.0,0.0,0.0,0.02367,0.02837,0.0,0.0,0.0,0.03912,0.13185,0.05751,0.2528,0.72909,0.7516,0.55985,0.7206,0.34449,0.20042,0.20042,0.10021,4554.0,総数,,,,-,-,11,36,19,8,20,3363,72.05319,0.0,0.0,0.0,0.0,0.0,61.0,0.0,0.0,0.0,138.80718315424457,34.89822092643545,8.65264512130732,61.0,伊豆市土肥,伊豆市土肥,code_in_car30
22222053009,伊豆市,土肥,伊豆市,土肥,伊豆市土肥,静岡県,伊豆市,土肥,,伊豆市土肥,22222.0,53009.0,53009.0,4.0,60,4.345280000000001,0.0,1.0,3.0,2.0,0.0,1.0,1.0,1.0,7.0,2.0,3.0,4.0,3.0,7.0,13.0,6.0,3.0,3.0,0.0,0.0,0.0,0.0,0.05196,0.1104,0.04918,0.0,0.02837,0.03201,0.03353,0.24507,0.07824,0.13185,0.23004,0.1896,0.56707,1.2213500000000002,0.67182,0.3603,0.34449,0.0,0.0,0.0,4553.0,総数,,,,-,4,24,32,12,3,29,3475,58.41667,0.0,0.0,0.0,0.0,0.0,0.0,0.0,0.0,0.0,138.80305526242515,34.90261653376917,8.967606229393,0.0,伊豆市土肥,伊豆市土肥,code_in_car30
22222053004,伊豆市,土肥,伊豆市,土肥,伊豆市土肥,静岡県,伊豆市,土肥,,伊豆市土肥,22222.0,53004.0,53004.0,4.0,211,16.14269,2.0,2.0,4.0,1.0,6.0,2.0,3.0,5.0,10.0,12.0,18.0,21.0,8.0,21.0,30.0,33.0,14.0,14.0,5.0,0.0,0.0,0.0758,0.10392,0.1472,0.02459,0.14202,0.05674,0.0960299999999999,0.16765,0.3500999999999999,0.46944,0.7911,1.20771,0.5056,1.70121,2.8185,3.69501,1.6814,1.60762,0.50105,0.0,0.0,4549.0,総数,,,,-,8,86,117,66,19,106,13094,62.55687,0.0,0.0,0.0,44.0,0.0,130.0,67.0,100.0,0.0,138.7911580650246,34.906581306174,9.086831481880607,341.0,伊豆市土肥,伊豆市土肥,code_in_car30
22305023000,松崎町,道部,松崎町,道部,松崎町道部,,,,,,,,,,,,,,,,,,,,,,,,,,,,,,,,,,,,,,,,,,,,,,,,,,,,,,,,,,,,,,,,,,,,0.0,0.0,0.0,0.0,0.0,0.0,0.0,0.0,0.0,138.77133351558942,34.74475602426628,9.126866384788766,0.0,松崎町道部,松崎町道部,code_in_car30
22305016000,松崎町,伏倉,松崎町,伏倉,松崎町伏倉,,,,,,,,,,,,,,,,,,,,,,,,,,,,,,,,,,,,,,,,,,,,,,,,,,,,,,,,,,,,,,,,,,,,0.0,0.0,0.0,0.0,0.0,0.0,0.0,0.0,0.0,138.79333786498825,34.74637957988864,9.206390599082264,0.0,松崎町伏倉,松崎町伏倉,code_in_car30
22305015000,松崎町,南郷,松崎町,南郷,松崎町南郷,,,,,,,,,,,,,,,,,,,,,,,,,,,,,,,,,,,,,,,,,,,,,,,,,,,,,,,,,,,,,,,,,,,,0.0,0.0,0.0,0.0,0.0,0.0,0.0,0.0,0.0,138.81074376509696,34.74970099987727,9.367016999951215,0.0,松崎町南郷,松崎町南郷,code_in_car30
22305013000,松崎町,大澤,松崎町,大澤,松崎町大澤,,,,,,,,,,,,,,,,,,,,,,,,,,,,,,,,,,,,,,,,,,,,,,,,,,,,,,,,,,,,,,,,,,,,0.0,0.0,0.0,0.0,0.0,0.0,0.0,0.0,0.0,138.83820097107088,34.76405626371739,9.385719293346982,0.0,松崎町大澤,松崎町大澤,code_in_car30
22222053013,伊豆市,土肥,伊豆市,土肥,伊豆市土肥,静岡県,伊豆市,土肥,,伊豆市土肥,22222.0,53013.0,53013.0,4.0,47,3.85751,0.0,0.0,0.0,0.0,1.0,0.0,1.0,0.0,1.0,0.0,5.0,2.0,7.0,7.0,9.0,6.0,3.0,3.0,2.0,0.0,0.0,0.0,0.0,0.0,0.0,0.02367,0.0,0.03201,0.0,0.03501,0.0,0.21975,0.11502,0.4424,0.56707,0.84555,0.67182,0.3603,0.34449,0.20042,0.0,0.0,4557.0,総数,合算地域あり,,54038,-,-,17,30,14,5,24,3172,67.98936,0.0,0.0,0.0,0.0,0.0,0.0,0.0,0.0,0.0,138.81017799086814,34.90459019820775,9.411124652668299,0.0,伊豆市土肥,伊豆市土肥,code_in_car30
22222053008,伊豆市,土肥,伊豆市,土肥,伊豆市土肥,静岡県,伊豆市,土肥,,伊豆市土肥,22222.0,53008.0,53008.0,4.0,204,14.56746,1.0,3.0,5.0,4.0,3.0,2.0,2.0,7.0,17.0,13.0,17.0,11.0,20.0,22.0,32.0,16.0,18.0,5.0,2.0,3.0,1.0,0.0379,0.15588,0.184,0.09836,0.07101,0.05674,0.06402,0.2347099999999999,0.59517,0.50856,0.7471500000000001,0.63261,1.2640000000000002,1.78222,3.0064,1.79152,2.1618,0.57415,0.20042,0.3006299999999999,0.10021,4552.0,総数,,,,-,9,96,99,45,11,114,12157,60.09314,0.0,0.0,0.0,155.0,71.0,1073.0,0.0,0.0,0.0,138.80593406333648,34.90713798170862,9.530114099555545,1299.0,伊豆市土肥,伊豆市土肥,code_in_car30
22305024000,松崎町,岩地,松崎町,岩地,松崎町岩地,,,,,,,,,,,,,,,,,,,,,,,,,,,,,,,,,,,,,,,,,,,,,,,,,,,,,,,,,,,,,,,,,,,,0.0,0.0,0.0,0.0,0.0,0.0,0.0,0.0,0.0,138.7628370128762,34.74099699687204,9.562509226878488,0.0,松崎町岩地,松崎町岩地,code_in_car30
22305021031,松崎町,岩科北側,松崎町,岩科北側,松崎町岩科北側,静岡県,松崎町,岩科北側,,松崎町岩科北側,22305.0,21031.0,21031.0,4.0,96,6.745060000000001,7.0,6.0,2.0,3.0,1.0,1.0,3.0,3.0,7.0,5.0,6.0,4.0,3.0,6.0,11.0,14.0,5.0,4.0,5.0,0.0,0.0,0.2653,0.31176,0.0736,0.07377,0.02367,0.02837,0.0960299999999999,0.1005899999999999,0.24507,0.1956,0.2637,0.23004,0.1896,0.48606,1.03345,1.56758,0.6005,0.45932,0.50105,0.0,0.0,5066.0,総数,,,,-,15,36,45,28,9,39,5130,53.9375,0.0,0.0,0.0,122.0,0.0,0.0,0.0,119.0,0.0,138.7817221656592,34.740736395824506,9.637373700772846,241.0,松崎町岩科北側,松崎町岩科北側,code_in_car30
22222053007,伊豆市,土肥,伊豆市,土肥,伊豆市土肥,静岡県,伊豆市,土肥,,伊豆市土肥,22222.0,53007.0,53007.0,4.0,96,7.459740000000001,4.0,2.0,0.0,0.0,3.0,3.0,2.0,2.0,2.0,4.0,5.0,9.0,8.0,10.0,9.0,11.0,12.0,8.0,2.0,0.0,0.0,0.1516,0.10392,0.0,0.0,0.07101,0.0851099999999999,0.06402,0.06706,0.07002,0.15648,0.21975,0.51759,0.5056,0.8101,0.84555,1.23167,1.4412,0.91864,0.20042,0.0,0.0,4551.0,総数,,,,-,6,38,52,33,10,48,5875,61.69792,143.0,0.0,0.0,1037.0,1426.0,0.0,594.0,1289.0,528.0,138.80133744238003,34.90997238722095,9.692140975208378,5017.0,伊豆市土肥,伊豆市土肥,code_in_car30
22222053006,伊豆市,土肥,伊豆市,土肥,伊豆市土肥,静岡県,伊豆市,土肥,,伊豆市土肥,22222.0,53006.0,53006.0,4.0,253,17.751649999999998,7.0,5.0,8.0,5.0,5.0,9.0,7.0,7.0,14.0,15.0,14.0,16.0,22.0,31.0,23.0,23.0,15.0,15.0,11.0,1.0,0.0,0.2653,0.2598,0.2944,0.12295,0.11835,0.25533,0.22407,0.2347099999999999,0.49014,0.5868,0.6153000000000001,0.92016,1.3904,2.51131,2.16085,2.57531,1.8015,1.72245,1.10231,0.10021,0.0,4550.0,総数,,,,-,20,114,119,65,27,140,14537,57.9585,0.0,0.0,0.0,0.0,85.0,0.0,0.0,0.0,0.0,138.79821879721737,34.91112934001215,9.734465523071973,85.0,伊豆市土肥,伊豆市土肥,code_in_car30
22222053012,伊豆市,土肥,伊豆市,土肥,伊豆市土肥,静岡県,伊豆市,土肥,,伊豆市土肥,22222.0,53012.0,53012.0,4.0,47,3.3355100000000006,2.0,2.0,2.0,0.0,1.0,0.0,3.0,1.0,0.0,2.0,6.0,3.0,4.0,3.0,7.0,3.0,4.0,3.0,1.0,0.0,0.0,0.0758,0.10392,0.0736,0.0,0.02367,0.0,0.0960299999999999,0.03353,0.0,0.07824,0.2637,0.17253,0.2528,0.24303,0.6576500000000001,0.33591,0.4804,0.34449,0.10021,0.0,0.0,4556.0,総数,,,,-,6,20,21,11,4,23,2635,56.56383,0.0,0.0,0.0,0.0,0.0,0.0,0.0,0.0,0.0,138.81949485776616,34.904637566773516,9.782437463197708,0.0,伊豆市土肥,伊豆市土肥,code_in_car30
22222053003,伊豆市,土肥,伊豆市,土肥,伊豆市土肥,静岡県,伊豆市,土肥,,伊豆市土肥,22222.0,53003.0,53003.0,4.0,123,8.44567,4.0,3.0,4.0,6.0,0.0,1.0,2.0,8.0,5.0,9.0,8.0,13.0,9.0,5.0,15.0,11.0,9.0,4.0,6.0,0.0,1.0,0.1516,0.15588,0.1472,0.14754,0.0,0.02837,0.06402,0.26824,0.1750499999999999,0.35208,0.3516,0.74763,0.5688000000000001,0.40505,1.40925,1.23167,1.0809,0.45932,0.6012599999999999,0.0,0.10021,4548.0,総数,,,,-,11,61,51,31,11,60,6922,56.77642,0.0,0.0,0.0,0.0,0.0,0.0,0.0,0.0,0.0,138.79523647113464,34.9130569086776,9.872756480045327,0.0,伊豆市土肥,伊豆市土肥,code_in_car30
22222053002,伊豆市,土肥,伊豆市,土肥,伊豆市土肥,静岡県,伊豆市,土肥,,伊豆市土肥,22222.0,53002.0,53002.0,4.0,405,29.26449,8.0,7.0,12.0,11.0,7.0,14.0,10.0,14.0,28.0,19.0,19.0,20.0,27.0,50.0,49.0,39.0,31.0,25.0,12.0,3.0,0.0,0.3032,0.36372,0.4416,0.27049,0.16569,0.39718,0.3200999999999999,0.4694199999999999,0.98028,0.74328,0.8350500000000001,1.1502,1.7064,4.0504999999999995,4.60355,4.36683,3.7231,2.87075,1.2025199999999998,0.3006299999999999,0.0,4547.0,総数,,,,-,27,169,209,110,40,208,23637,58.86296,0.0,0.0,0.0,280.0,106.0,78.0,63.0,0.0,0.0,138.7928656931837,34.91355939104088,9.878061116643247,527.0,伊豆市土肥,伊豆市土肥,code_in_car30
22305021030,松崎町,岩科北側,松崎町,岩科北側,松崎町岩科北側,静岡県,松崎町,岩科北側,,松崎町岩科北側,22305.0,21030.0,21030.0,4.0,96,6.74857,1.0,1.0,4.0,5.0,2.0,1.0,5.0,3.0,3.0,8.0,2.0,9.0,6.0,7.0,15.0,14.0,3.0,3.0,2.0,2.0,0.0,0.0379,0.05196,0.1472,0.12295,0.04734,0.02837,0.1600499999999999,0.1005899999999999,0.10503,0.31296,0.0879,0.51759,0.3792,0.56707,1.40925,1.56758,0.3603,0.34449,0.20042,0.20042,0.0,5065.0,総数,,,,-,6,44,46,24,7,46,5498,57.77083,0.0,0.0,131.0,0.0,0.0,0.0,64.0,0.0,0.0,138.78739159393805,34.738364457313715,9.971169630868978,195.0,松崎町岩科北側,松崎町岩科北側,code_in_car30
22222053011,伊豆市,土肥,伊豆市,土肥,伊豆市土肥,静岡県,伊豆市,土肥,,伊豆市土肥,22222.0,53011.0,53011.0,4.0,29,2.5927,0.0,0.0,0.0,0.0,0.0,0.0,0.0,0.0,0.0,1.0,2.0,1.0,3.0,6.0,2.0,2.0,3.0,4.0,4.0,1.0,0.0,0.0,0.0,0.0,0.0,0.0,0.0,0.0,0.0,0.0,0.03912,0.0879,0.05751,0.1896,0.48606,0.1879,0.22394,0.3603,0.45932,0.40084,0.10021,0.0,4555.0,総数,,,,-,-,7,22,14,9,13,2151,74.67241,0.0,0.0,0.0,0.0,0.0,0.0,0.0,0.0,0.0,138.82163827989757,34.90564649843781,9.973612873704296,0.0,伊豆市土肥,伊豆市土肥,code_in_car30
22222053001,伊豆市,土肥,伊豆市,土肥,伊豆市土肥,静岡県,伊豆市,土肥,,伊豆市土肥,22222.0,53001.0,53001.0,4.0,283,20.752920000000003,3.0,5.0,6.0,4.0,6.0,10.0,14.0,7.0,8.0,11.0,15.0,23.0,27.0,37.0,26.0,33.0,21.0,13.0,13.0,1.0,0.0,0.1137,0.2598,0.2208,0.09836,0.14202,0.2837,0.44814,0.2347099999999999,0.28008,0.43032,0.65925,1.32273,1.7064,2.99737,2.4427000000000003,3.69501,2.5221,1.49279,1.30273,0.10021,0.0,4546.0,総数,,,,-,14,125,144,81,27,158,16950,60.39399,0.0,0.0,0.0,0.0,0.0,425.0,120.0,0.0,0.0,138.79053459020764,34.915950188775625,10.095162641953554,545.0,伊豆市土肥,伊豆市土肥,code_in_car30
22305021029,松崎町,岩科北側,松崎町,岩科北側,松崎町岩科北側,静岡県,松崎町,岩科北側,,松崎町岩科北側,22305.0,21029.0,21029.0,4.0,104,7.82701,1.0,6.0,6.0,3.0,0.0,2.0,1.0,0.0,5.0,5.0,7.0,8.0,8.0,4.0,13.0,12.0,7.0,8.0,6.0,2.0,0.0,0.0379,0.31176,0.2208,0.07377,0.0,0.05674,0.03201,0.0,0.1750499999999999,0.1956,0.30765,0.46008,0.5056,0.32404,1.2213500000000002,1.34364,0.8407,0.91864,0.6012599999999999,0.20042,0.0,5064.0,総数,,,,-,13,39,52,35,16,40,6168,59.80769,0.0,0.0,488.0,0.0,0.0,0.0,0.0,0.0,0.0,138.7934304185264,34.73743372966215,10.177419623031394,488.0,松崎町岩科北側,松崎町岩科北側,code_in_car30
22222054038,伊豆市,土肥,伊豆市,土肥,伊豆市土肥,静岡県,伊豆市,土肥,,伊豆市土肥,22222.0,54038.0,54038.0,4.0,X,0.0,0.0,0.0,0.0,0.0,0.0,0.0,0.0,0.0,0.0,0.0,0.0,0.0,0.0,0.0,0.0,0.0,0.0,0.0,0.0,0.0,0.0,0.0,0.0,0.0,0.0,0.0,0.0,0.0,0.0,0.0,0.0,0.0,0.0,0.0,0.0,0.0,0.0,0.0,0.0,0.0,0.0,0.0,4565.0,総数,秘匿地域,53013.0,,X,X,X,X,X,X,X,X,X,0.0,0.0,0.0,0.0,0.0,0.0,0.0,0.0,0.0,138.80800416804453,34.913520342206596,10.261285906381069,0.0,伊豆市土肥,伊豆市土肥,code_in_car30
22305018000,松崎町,明伏,松崎町,明伏,松崎町明伏,,,,,,,,,,,,,,,,,,,,,,,,,,,,,,,,,,,,,,,,,,,,,,,,,,,,,,,,,,,,,,,,,,,,0.0,0.0,0.0,0.0,0.0,0.0,0.0,0.0,0.0,138.82878172780283,34.74711474275301,10.386824023897296,0.0,松崎町明伏,松崎町明伏,code_in_car30
22222054014,伊豆市,小土肥,伊豆市,小土肥,伊豆市小土肥,静岡県,伊豆市,小土肥,,伊豆市小土肥,22222.0,54014.0,54014.0,4.0,83,5.6925300000000005,3.0,3.0,4.0,1.0,1.0,4.0,1.0,4.0,2.0,6.0,4.0,8.0,6.0,11.0,5.0,6.0,6.0,5.0,2.0,1.0,0.0,0.1137,0.15588,0.1472,0.02459,0.02367,0.11348,0.03201,0.13412,0.07002,0.23472,0.1758,0.46008,0.3792,0.89111,0.46975,0.67182,0.7206,0.57415,0.20042,0.10021,0.0,4560.0,総数,,,,-,10,37,36,20,8,47,4567,55.5241,0.0,0.0,0.0,0.0,0.0,0.0,0.0,0.0,0.0,138.78702139800896,34.92022560320896,10.508688949745135,0.0,伊豆市小土肥,伊豆市小土肥,code_in_car30
22305022025,松崎町,岩科南側,松崎町,岩科南側,松崎町岩科南側,静岡県,松崎町,岩科南側,,松崎町岩科南側,22305.0,22025.0,22025.0,4.0,57,4.06308,0.0,3.0,5.0,3.0,1.0,0.0,0.0,1.0,3.0,4.0,3.0,3.0,4.0,4.0,8.0,9.0,3.0,2.0,1.0,0.0,0.0,0.0,0.15588,0.184,0.07377,0.02367,0.0,0.0,0.03353,0.10503,0.15648,0.13185,0.17253,0.2528,0.32404,0.7516,1.00773,0.3603,0.22966,0.10021,0.0,0.0,5069.0,総数,,,,-,8,22,27,15,3,23,3131,55.42982,0.0,0.0,0.0,69.0,0.0,0.0,69.0,0.0,0.0,138.783314714489,34.73290631290673,10.519133042108983,138.0,松崎町岩科南側,松崎町岩科南側,code_in_car30
22305022024,松崎町,岩科南側,松崎町,岩科南側,松崎町岩科南側,静岡県,松崎町,岩科南側,,松崎町岩科南側,22305.0,22024.0,22024.0,4.0,124,9.717630000000002,2.0,1.0,2.0,5.0,3.0,1.0,1.0,1.0,3.0,6.0,10.0,12.0,6.0,13.0,15.0,11.0,16.0,11.0,4.0,1.0,0.0,0.0758,0.05196,0.0736,0.12295,0.07101,0.02837,0.03201,0.03353,0.10503,0.23472,0.4395,0.69012,0.3792,1.05313,1.40925,1.23167,1.9216,1.26313,0.40084,0.10021,0.0,5068.0,総数,,,,-,5,48,71,43,16,56,7801,63.41129,36.0,0.0,143.0,0.0,149.0,0.0,0.0,0.0,0.0,138.77788065366437,34.73202870383845,10.568422591927538,328.0,松崎町岩科南側,松崎町岩科南側,code_in_car30
22222054016,伊豆市,小土肥,伊豆市,小土肥,伊豆市小土肥,静岡県,伊豆市,小土肥,,伊豆市小土肥,22222.0,54016.0,54016.0,4.0,97,8.94494,0.0,1.0,1.0,2.0,0.0,0.0,0.0,3.0,3.0,2.0,1.0,3.0,4.0,7.0,7.0,10.0,9.0,15.0,21.0,7.0,1.0,0.0,0.05196,0.0368,0.04918,0.0,0.0,0.0,0.1005899999999999,0.10503,0.07824,0.04395,0.17253,0.2528,0.56707,0.6576500000000001,1.1197,1.0809,1.72245,2.1044099999999997,0.7014699999999999,0.10021,4562.0,総数,,,,-,2,18,77,63,44,23,7370,76.47938,0.0,0.0,0.0,0.0,0.0,0.0,0.0,0.0,0.0,138.79142838842586,34.92174289565053,10.74310006082179,0.0,伊豆市小土肥,伊豆市小土肥,code_in_car30
22305021027,松崎町,岩科北側,松崎町,岩科北側,松崎町岩科北側,静岡県,松崎町,岩科北側,,松崎町岩科北側,22305.0,21027.0,21027.0,4.0,109,8.286850000000001,0.0,0.0,4.0,3.0,1.0,0.0,2.0,2.0,5.0,10.0,3.0,11.0,11.0,10.0,12.0,8.0,13.0,6.0,5.0,3.0,0.0,0.0,0.0,0.1472,0.07377,0.02367,0.0,0.06402,0.06706,0.1750499999999999,0.3912,0.13185,0.63261,0.6952,0.8101,1.1274000000000002,0.89576,1.5613,0.68898,0.50105,0.3006299999999999,0.0,5062.0,総数,,,,-,4,48,57,35,14,55,6895,63.75688,0.0,0.0,0.0,0.0,0.0,0.0,0.0,0.0,0.0,138.79747594524437,34.73289380705607,10.752834747861774,0.0,松崎町岩科北側,松崎町岩科北側,code_in_car30
22222062000,伊豆市,湯ケ島,伊豆市,湯ケ島,伊豆市湯ケ島,,,,,,,,,,,,,,,,,,,,,,,,,,,,,,,,,,,,,,,,,,,,,,,,,,,,,,,,,,,,,,,,,,,,0.0,0.0,0.0,0.0,0.0,0.0,0.0,0.0,0.0,138.8738687448197,34.87322539154874,10.83383697039507,0.0,伊豆市湯ケ島,伊豆市湯ケ島,code_in_car30
22222054015,伊豆市,小土肥,伊豆市,小土肥,伊豆市小土肥,静岡県,伊豆市,小土肥,,伊豆市小土肥,22222.0,54015.0,54015.0,4.0,85,6.02515,1.0,2.0,4.0,3.0,1.0,1.0,0.0,3.0,11.0,5.0,3.0,1.0,8.0,11.0,8.0,8.0,6.0,5.0,3.0,1.0,0.0,0.0379,0.10392,0.1472,0.07377,0.02367,0.02837,0.0,0.1005899999999999,0.38511,0.1956,0.13185,0.05751,0.5056,0.89111,0.7516,0.89576,0.7206,0.57415,0.3006299999999999,0.10021,0.0,4561.0,総数,,,,-,7,36,42,23,9,44,4915,58.32353,0.0,0.0,0.0,95.0,0.0,0.0,0.0,0.0,0.0,138.7861614162529,34.923862240339986,10.897280123943652,95.0,伊豆市小土肥,伊豆市小土肥,code_in_car30
22305022026,松崎町,岩科南側,松崎町,岩科南側,松崎町岩科南側,静岡県,松崎町,岩科南側,,松崎町岩科南側,22305.0,22026.0,22026.0,4.0,60,4.463100000000001,2.0,1.0,0.0,0.0,0.0,0.0,1.0,3.0,2.0,4.0,5.0,3.0,6.0,9.0,12.0,2.0,1.0,7.0,2.0,0.0,0.0,0.0758,0.05196,0.0,0.0,0.0,0.0,0.03201,0.1005899999999999,0.07002,0.15648,0.21975,0.17253,0.3792,0.72909,1.1274000000000002,0.22394,0.1201,0.80381,0.20042,0.0,0.0,5070.0,総数,,,,-,3,24,33,12,9,33,3725,62.58333,107.0,0.0,26.0,0.0,0.0,0.0,0.0,0.0,0.0,138.7902273281115,34.73005785476201,10.925310601801058,133.0,松崎町岩科南側,松崎町岩科南側,code_in_car30
22222063000,伊豆市,持越,伊豆市,持越,伊豆市持越,,,,,,,,,,,,,,,,,,,,,,,,,,,,,,,,,,,,,,,,,,,,,,,,,,,,,,,,,,,,,,,,,,,,0.0,0.0,0.0,0.0,0.0,0.0,0.0,0.0,0.0,138.86691569846596,34.88722659077762,11.14284791102099,0.0,伊豆市持越,伊豆市持越,code_in_car30
22305025000,松崎町,石部,松崎町,石部,松崎町石部,,,,,,,,,,,,,,,,,,,,,,,,,,,,,,,,,,,,,,,,,,,,,,,,,,,,,,,,,,,,,,,,,,,,0.0,0.0,0.0,0.0,0.0,0.0,0.0,0.0,0.0,138.76221171114128,34.72519332354798,11.320019857714275,0.0,松崎町石部,松崎町石部,code_in_car30
22222054017,伊豆市,小土肥,伊豆市,小土肥,伊豆市小土肥,静岡県,伊豆市,小土肥,,伊豆市小土肥,22222.0,54017.0,54017.0,4.0,71,5.606860000000001,0.0,1.0,1.0,0.0,1.0,2.0,2.0,3.0,3.0,3.0,3.0,4.0,4.0,10.0,12.0,4.0,8.0,6.0,2.0,2.0,0.0,0.0,0.05196,0.0368,0.0,0.02367,0.05674,0.06402,0.1005899999999999,0.10503,0.11736,0.13185,0.23004,0.2528,0.8101,1.1274000000000002,0.44788,0.9608,0.68898,0.20042,0.20042,0.0,4563.0,総数,,,,-,2,25,44,22,10,35,4566,64.80986,0.0,0.0,0.0,146.0,0.0,93.0,98.0,0.0,0.0,138.8018297237598,34.92600923419198,11.417268224429353,337.0,伊豆市小土肥,伊豆市小土肥,code_in_car30
22305014000,松崎町,池代,松崎町,池代,松崎町池代,,,,,,,,,,,,,,,,,,,,,,,,,,,,,,,,,,,,,,,,,,,,,,,,,,,,,,,,,,,,,,,,,,,,0.0,0.0,0.0,0.0,0.0,0.0,0.0,0.0,0.0,138.8681714468844,34.76339006639227,11.444203015869135,0.0,松崎町池代,松崎町池代,code_in_car30
22305021028,松崎町,岩科北側,松崎町,岩科北側,松崎町岩科北側,静岡県,松崎町,岩科北側,,松崎町岩科北側,22305.0,21028.0,21028.0,4.0,50,3.90814,0.0,0.0,1.0,1.0,0.0,0.0,1.0,2.0,3.0,4.0,1.0,5.0,3.0,4.0,10.0,11.0,2.0,2.0,0.0,0.0,0.0,0.0,0.0,0.0368,0.02459,0.0,0.0,0.03201,0.06706,0.10503,0.15648,0.04395,0.28755,0.1896,0.32404,0.9395,1.23167,0.2402,0.22966,0.0,0.0,0.0,5063.0,総数,,,,-,1,20,29,15,2,23,3148,63.46,0.0,0.0,38.0,0.0,0.0,0.0,0.0,0.0,0.0,138.8196036113911,34.72836381738787,11.866784810174934,38.0,松崎町岩科北側,松崎町岩科北側,code_in_car30
22305020000,松崎町,小杉原,松崎町,小杉原,松崎町小杉原,,,,,,,,,,,,,,,,,,,,,,,,,,,,,,,,,,,,,,,,,,,,,,,,,,,,,,,,,,,,,,,,,,,,0.0,0.0,0.0,0.0,0.0,0.0,0.0,0.0,0.0,138.84425765272533,34.735003772281715,12.283485948342667,0.0,松崎町小杉原,松崎町小杉原,code_in_car30
22222054034,伊豆市,小土肥,伊豆市,小土肥,伊豆市小土肥,静岡県,伊豆市,小土肥,,伊豆市小土肥,22222.0,54034.0,54034.0,4.0,-,0.0,0.0,0.0,0.0,0.0,0.0,0.0,0.0,0.0,0.0,0.0,0.0,0.0,0.0,0.0,0.0,0.0,0.0,0.0,0.0,0.0,0.0,0.0,0.0,0.0,0.0,0.0,0.0,0.0,0.0,0.0,0.0,0.0,0.0,0.0,0.0,0.0,0.0,0.0,0.0,0.0,0.0,0.0,4564.0,総数,,,,-,-,-,-,-,-,-,-,-,0.0,0.0,0.0,0.0,0.0,0.0,0.0,0.0,0.0,138.8071928603792,34.934134033063934,12.418724785797366,0.0,伊豆市小土肥,伊豆市小土肥,code_in_car30
22305026000,松崎町,雲見,松崎町,雲見,松崎町雲見,,,,,,,,,,,,,,,,,,,,,,,,,,,,,,,,,,,,,,,,,,,,,,,,,,,,,,,,,,,,,,,,,,,,0.0,0.0,0.0,0.0,0.0,0.0,0.0,0.0,0.0,138.75091071364614,34.71590807525903,12.449060092806128,0.0,松崎町雲見,松崎町雲見,code_in_car30
22305022028,松崎町,岩科南側,松崎町,岩科南側,松崎町岩科南側,静岡県,松崎町,岩科南側,,松崎町岩科南側,22305.0,22028.0,22028.0,4.0,117,8.800210000000002,4.0,4.0,5.0,1.0,0.0,2.0,0.0,5.0,4.0,4.0,7.0,9.0,7.0,21.0,12.0,10.0,8.0,9.0,4.0,1.0,0.0,0.1516,0.20784,0.184,0.02459,0.0,0.05674,0.0,0.16765,0.14004,0.15648,0.30765,0.51759,0.4424,1.70121,1.1274000000000002,1.1197,0.9608,1.03347,0.40084,0.10021,0.0,5071.0,総数,,,,-,13,39,65,32,14,59,6973,60.09829,32.0,0.0,141.0,0.0,119.0,0.0,0.0,31.0,141.0,138.80774206291534,34.71545490436713,12.867259628419148,464.0,松崎町岩科南側,松崎町岩科南側,code_in_car30
22304051000,南伊豆町,天神原,南伊豆町,天神原,南伊豆町天神原,,,,,,,,,,,,,,,,,,,,,,,,,,,,,,,,,,,,,,,,,,,,,,,,,,,,,,,,,,,,,,,,,,,,0.0,0.0,0.0,0.0,25.0,0.0,0.0,0.0,0.0,138.7709758881361,34.704431125697205,13.609909074509503,25.0,南伊豆町天神原,南伊豆町天神原,code_in_car30
22203177017,沼津市,戸田舟山,沼津市,戸田舟山,沼津市戸田舟山,静岡県,沼津市,戸田,舟山,沼津市戸田舟山,22203.0,177017.0,177017.0,4.0,47,3.96835,0.0,0.0,0.0,0.0,0.0,1.0,0.0,0.0,1.0,0.0,3.0,10.0,3.0,6.0,5.0,4.0,5.0,7.0,2.0,0.0,0.0,0.0,0.0,0.0,0.0,0.0,0.02837,0.0,0.0,0.03501,0.0,0.13185,0.5751,0.1896,0.48606,0.46975,0.44788,0.6005,0.80381,0.20042,0.0,0.0,2135.0,総数,,,,-,-,18,29,18,9,24,3255,69.75532,0.0,0.0,0.0,0.0,0.0,0.0,0.0,0.0,0.0,138.7828652414072,34.94896406656017,13.636443831672704,0.0,沼津市戸田舟山,沼津市戸田舟山,code_in_car30
22222070000,伊豆市,上船原,伊豆市,上船原,伊豆市上船原,,,,,,,,,,,,,,,,,,,,,,,,,,,,,,,,,,,,,,,,,,,,,,,,,,,,,,,,,,,,,,,,,,,,0.0,0.0,0.0,0.0,0.0,0.0,0.0,0.0,0.0,138.86605176948453,34.922825103433645,13.841151683782074,0.0,伊豆市上船原,伊豆市上船原,code_in_car30
22304061000,南伊豆町,蛇石,南伊豆町,蛇石,南伊豆町蛇石,,,,,,,,,,,,,,,,,,,,,,,,,,,,,,,,,,,,,,,,,,,,,,,,,,,,,,,,,,,,,,,,,,,,0.0,0.0,0.0,0.0,0.0,0.0,0.0,0.0,0.0,138.79284858399225,34.70158864459657,14.088021008928045,0.0,南伊豆町蛇石,南伊豆町蛇石,code_in_car30
22222059000,伊豆市,湯ケ島,伊豆市,湯ケ島,伊豆市湯ケ島,,,,,,,,,,,,,,,,,,,,,,,,,,,,,,,,,,,,,,,,,,,,,,,,,,,,,,,,,,,,,,,,,,,,0.0,0.0,0.0,0.0,0.0,0.0,0.0,0.0,0.0,138.92718381064944,34.855774818546884,14.748485592748043,0.0,伊豆市湯ケ島,伊豆市湯ケ島,code_in_car30
22304053000,南伊豆町,伊浜,南伊豆町,伊浜,南伊豆町伊浜,,,,,,,,,,,,,,,,,,,,,,,,,,,,,,,,,,,,,,,,,,,,,,,,,,,,,,,,,,,,,,,,,,,,0.0,0.0,0.0,0.0,140.0,0.0,182.0,0.0,0.0,138.7577534288677,34.69424483961053,14.780721320000358,322.0,南伊豆町伊浜,南伊豆町伊浜,code_in_car30
22219046000,下田市,加増野,下田市,加増野,下田市加増野,,,,,,,,,,,,,,,,,,,,,,,,,,,,,,,,,,,,,,,,,,,,,,,,,,,,,,,,,,,,,,,,,,,,0.0,0.0,0.0,0.0,64.0,0.0,0.0,0.0,0.0,138.8684346769966,34.721367694098724,14.805219739439032,64.0,下田市加増野,下田市加増野,code_in_car30
22222061000,伊豆市,湯ケ島,伊豆市,湯ケ島,伊豆市湯ケ島,,,,,,,,,,,,,,,,,,,,,,,,,,,,,,,,,,,,,,,,,,,,,,,,,,,,,,,,,,,,,,,,,,,,0.0,0.0,0.0,0.0,0.0,0.0,0.0,0.0,0.0,138.91996922820798,34.889109228920205,15.379454728397375,0.0,伊豆市湯ケ島,伊豆市湯ケ島,code_in_car30
22222071000,伊豆市,上船原,伊豆市,上船原,伊豆市上船原,,,,,,,,,,,,,,,,,,,,,,,,,,,,,,,,,,,,,,,,,,,,,,,,,,,,,,,,,,,,,,,,,,,,0.0,0.0,0.0,0.0,0.0,0.0,0.0,0.0,0.0,138.90304067257432,34.91661042942812,15.752928741524684,0.0,伊豆市上船原,伊豆市上船原,code_in_car30
22222058000,伊豆市,湯ケ島,伊豆市,湯ケ島,伊豆市湯ケ島,,,,,,,,,,,,,,,,,,,,,,,,,,,,,,,,,,,,,,,,,,,,,,,,,,,,,,,,,,,,,,,,,,,,0.0,0.0,0.0,0.0,0.0,0.0,0.0,0.0,0.0,138.93260960673425,34.884830995887235,16.22284545218209,0.0,伊豆市湯ケ島,伊豆市湯ケ島,code_in_car30
22222057000,伊豆市,湯ケ島,伊豆市,湯ケ島,伊豆市湯ケ島,,,,,,,,,,,,,,,,,,,,,,,,,,,,,,,,,,,,,,,,,,,,,,,,,,,,,,,,,,,,,,,,,,,,0.0,0.0,0.0,0.0,116.0,0.0,0.0,116.0,0.0,138.9304846655912,34.89010527728123,16.289323229383008,232.0,伊豆市湯ケ島,伊豆市湯ケ島,code_in_car30
22222060000,伊豆市,湯ケ島,伊豆市,湯ケ島,伊豆市湯ケ島,,,,,,,,,,,,,,,,,,,,,,,,,,,,,,,,,,,,,,,,,,,,,,,,,,,,,,,,,,,,,,,,,,,,0.0,0.0,0.0,0.0,0.0,0.0,0.0,0.0,0.0,138.94972224249233,34.8894024330429,17.857927482920715,0.0,伊豆市湯ケ島,伊豆市湯ケ島,code_in_car30
