town_name_show,CITY_NAME_from_master,S_NAME_from_master,TOWN_CODE_11,dist_km,LON,LAT,社会医療法人社団さつき会 かずさアカデミアクリニック,医療法人社団 雄成会 中村医院,サン・ラポール南房総診療所,医療法人社団周晴会 鈴木病院,医療法人社団 慈永会 永峯医院,まえだクリニック,平岡医院,榎本医院,君津サンクリニック,医療法人社団芙蓉会 千葉芙蓉病院,鴨川市立国保病院,君津市国保笹診療所,君津市国保松丘診療所,君津市国保小櫃診療所
君津市広岡,君津市,広岡,12225125000,0.37348876859284297,140.0630235898345,35.2592207999675,0.0,0.0,0.0,0.0,0.0,1306.0,0.0,0.0,0.0,657.0,0.0,108.0,0.0,0.0
君津市大戸見,君津市,大戸見,12225126000,1.4851952495754377,140.06447896770499,35.244873210563114,93.0,0.0,0.0,0.0,47.0,217.0,0.0,77.0,0.0,0.0,0.0,0.0,54.0,0.0
君津市平山,君津市,平山,12225122000,1.8473223948862194,140.07057586434146,35.27148066781767,0.0,0.0,54.0,0.0,54.0,360.0,0.0,0.0,0.0,112.0,0.0,0.0,0.0,0.0
君津市大戸見旧名殿,君津市,大戸見旧名殿,12225127000,1.9001696386698221,140.07624554876608,35.24740190508654,0.0,0.0,0.0,0.0,0.0,0.0,0.0,0.0,0.0,0.0,0.0,0.0,0.0,0.0
君津市山滝野,君津市,山滝野,12225123000,2.3453952804848752,140.0416156569052,35.27285026055187,180.0,0.0,0.0,0.0,58.0,115.0,0.0,0.0,0.0,72.0,0.0,64.0,0.0,0.0
君津市利根,君津市,利根,12225130000,2.386899988979418,140.07864554553686,35.24292725876909,0.0,0.0,0.0,0.0,71.0,0.0,0.0,0.0,0.0,0.0,0.0,0.0,0.0,0.0
君津市大坂,君津市,大坂,12225124000,2.4620440480539503,140.03798473913469,35.24403618534805,37.0,0.0,0.0,0.0,309.0,122.0,0.0,49.0,0.0,219.0,0.0,0.0,0.0,37.0
君津市芋窪,君津市,芋窪,12225118000,2.569099305691314,140.0570181616932,35.280598910695815,0.0,0.0,0.0,0.0,0.0,0.0,0.0,0.0,0.0,0.0,0.0,0.0,0.0,0.0
君津市大中,君津市,大中,12225131000,2.6062319201401256,140.07334759944234,35.23707854301382,0.0,0.0,0.0,0.0,0.0,0.0,0.0,0.0,0.0,0.0,0.0,0.0,0.0,0.0
君津市浦田,君津市,浦田,12225111000,2.88519106382711,140.08260272550294,35.27533966943553,0.0,0.0,0.0,0.0,452.0,875.0,0.0,109.0,0.0,0.0,0.0,0.0,0.0,0.0
君津市栗坪,君津市,栗坪,12225119000,2.9248411734019477,140.0652627094003,35.28344870795093,0.0,0.0,0.0,0.0,0.0,232.0,0.0,0.0,0.0,0.0,0.0,0.0,0.0,0.0
君津市柳城,君津市,柳城,12225128000,3.1334071055499564,140.0914591719195,35.24708227229745,0.0,0.0,0.0,0.0,0.0,0.0,0.0,0.0,0.0,0.0,0.0,0.0,0.0,0.0
君津市高水,君津市,高水,12225129000,3.258532866126941,140.08607439533955,35.23794558678816,0.0,0.0,0.0,0.0,0.0,46.0,0.0,0.0,0.0,0.0,0.0,0.0,0.0,0.0
君津市豊田旧野中,君津市,豊田旧野中,12225142100,3.361725748143219,140.08059288162508,35.23277085284882,0.0,0.0,0.0,0.0,0.0,0.0,0.0,0.0,0.0,0.0,0.0,0.0,0.0,0.0
君津市向郷,君津市,向郷,12225117000,3.488125324234216,140.0535063492552,35.288572645038215,0.0,0.0,0.0,0.0,0.0,0.0,0.0,0.0,0.0,65.0,0.0,0.0,0.0,0.0
君津市加名盛,君津市,加名盛,12225132000,3.5871567303941405,140.0580336679705,35.22533918047285,0.0,0.0,0.0,0.0,0.0,0.0,0.0,0.0,0.0,0.0,0.0,0.0,46.0,0.0
君津市藤林,君津市,藤林,12225140000,3.872487232168188,140.08944118749253,35.2328336537023,0.0,0.0,0.0,63.0,0.0,0.0,0.0,1469.0,0.0,0.0,0.0,0.0,0.0,0.0
君津市豊田旧菅間田,君津市,豊田旧菅間田,12225142200,3.892132930881057,140.08259406891847,35.22812650619871,0.0,0.0,0.0,0.0,0.0,0.0,0.0,0.0,0.0,0.0,0.0,0.0,0.0,0.0
君津市愛宕,君津市,愛宕,12225121000,3.913549870610147,140.05174165506907,35.29220928499854,40.0,0.0,0.0,0.0,216.0,137.0,0.0,59.0,0.0,138.0,0.0,0.0,0.0,0.0
君津市東猪原,君津市,東猪原,12225077000,3.9394114694930304,140.01621457509873,35.25449039053629,0.0,0.0,0.0,85.0,0.0,0.0,0.0,0.0,0.0,0.0,0.0,0.0,0.0,0.0
君津市久留里大和田,君津市,久留里大和田,12225116000,4.148818281014755,140.07124851836286,35.29362208359765,0.0,0.0,0.0,0.0,0.0,0.0,0.0,0.0,0.0,0.0,0.0,0.0,0.0,0.0
君津市怒田,君津市,怒田,12225112000,4.292044875687821,140.1044338091163,35.269408881960885,0.0,0.0,0.0,0.0,274.0,148.0,0.0,0.0,0.0,0.0,0.0,0.0,0.0,0.0
君津市富田,君津市,富田,12225120000,4.3480899334972545,140.06208256821682,35.296622382727996,0.0,0.0,0.0,0.0,15.0,0.0,0.0,0.0,0.0,170.0,0.0,0.0,0.0,0.0
君津市川俣旧押込,君津市,川俣旧押込,12225141300,4.364845453743355,140.08395105440474,35.22381575658287,0.0,0.0,0.0,0.0,0.0,0.0,0.0,0.0,0.0,0.0,0.0,0.0,0.0,0.0
君津市大野台,君津市,大野台,12225063000,4.545391843746536,140.01279310007655,35.27243439374136,0.0,0.0,0.0,704.0,0.0,0.0,0.0,0.0,0.0,0.0,0.0,0.0,0.0,0.0
君津市久留里,君津市,久留里,12225110000,4.5748601998632585,140.08878505805617,35.291024050985705,49.0,0.0,0.0,0.0,287.0,1049.0,0.0,0.0,37.0,0.0,0.0,0.0,0.0,0.0
君津市坂畑,君津市,坂畑,12225138000,4.5862641040721,140.10615984626557,35.241920888482,72.0,0.0,0.0,0.0,0.0,0.0,0.0,180.0,0.0,0.0,0.0,0.0,0.0,0.0
君津市久留里市場,君津市,久留里市場,12225108000,4.61208220624902,140.07929684147246,35.29575561365407,4902.0,76.0,0.0,0.0,1783.0,284.0,0.0,0.0,0.0,37.0,0.0,0.0,0.0,0.0
君津市東粟倉,君津市,東粟倉,12225079000,4.786987941918234,140.0102955244029,35.24199190228319,68.0,0.0,0.0,123.0,0.0,0.0,0.0,0.0,0.0,0.0,0.0,0.0,0.0,0.0
君津市川俣旧川俣,君津市,川俣旧川俣,12225141100,4.856993568082301,140.08532682364884,35.219359405869184,0.0,0.0,0.0,0.0,91.0,47.0,0.0,389.0,0.0,0.0,0.0,0.0,0.0,0.0
君津市寺沢,君津市,寺沢,12225099000,4.955315566240125,140.05091612188832,35.30159708599017,2188.0,0.0,0.0,0.0,180.0,325.0,0.0,0.0,0.0,0.0,0.0,0.0,0.0,0.0
君津市川俣旧月毛,君津市,川俣旧月毛,12225141200,5.057900114074736,140.07930033424572,35.215084487919675,0.0,0.0,0.0,0.0,0.0,67.0,0.0,0.0,0.0,0.0,0.0,0.0,91.0,0.0
君津市正木,君津市,正木,12225088000,5.060549839321714,140.03185336488215,35.21803512803741,0.0,0.0,63.0,39.0,0.0,0.0,0.0,0.0,69.0,0.0,0.0,0.0,0.0,0.0
君津市大岩,君津市,大岩,12225087000,5.112039678478449,140.02355789657216,35.22215379465438,0.0,0.0,0.0,98.0,0.0,0.0,0.0,0.0,88.0,0.0,0.0,0.0,0.0,0.0
君津市辻森,君津市,辻森,12225086000,5.115010020015164,140.018759366087,35.2257606433505,0.0,0.0,0.0,0.0,0.0,0.0,0.0,0.0,0.0,0.0,0.0,0.0,0.0,0.0
君津市青柳,君津市,青柳,12225100000,5.195852483631796,140.06873528311934,35.30368537436364,0.0,0.0,0.0,0.0,233.0,62.0,0.0,0.0,0.0,0.0,0.0,0.0,0.0,0.0
君津市草川原,君津市,草川原,12225139000,5.284634703439813,140.09355582263763,35.21908145756318,0.0,0.0,0.0,0.0,0.0,0.0,0.0,578.0,0.0,0.0,0.0,0.0,0.0,0.0
君津市小市部,君津市,小市部,12225109000,5.361419778491134,140.0837659147333,35.301514126287366,19.0,19.0,0.0,0.0,204.0,91.0,0.0,0.0,0.0,0.0,0.0,0.0,0.0,0.0
君津市西猪原,君津市,西猪原,12225078000,5.395183431373634,140.0000229156009,35.25682636268009,0.0,0.0,0.0,18.0,0.0,0.0,0.0,0.0,0.0,0.0,0.0,0.0,0.0,0.0
君津市日渡根,君津市,日渡根,12225076000,5.432194845611085,140.0009511812065,35.26788717031101,131.0,0.0,0.0,0.0,0.0,0.0,0.0,0.0,0.0,0.0,0.0,0.0,0.0,0.0
君津市糸川,君津市,糸川,12225062000,5.670940503771014,140.00524202650473,35.282943242363274,177.0,0.0,0.0,76.0,0.0,0.0,0.0,0.0,0.0,0.0,0.0,0.0,0.0,0.0
君津市岩出,君津市,岩出,12225098000,5.6952109381960305,140.04512350901913,35.30744689089961,145.0,93.0,0.0,0.0,90.0,0.0,0.0,0.0,130.0,0.0,0.0,0.0,0.0,0.0
君津市東日笠,君津市,東日笠,12225084000,5.760046309208575,140.0023593256235,35.23498159227117,56.0,0.0,0.0,0.0,0.0,0.0,0.0,0.0,0.0,0.0,0.0,0.0,0.0,0.0
君津市川谷,君津市,川谷,12225113000,5.854981185890675,140.1081719617005,35.29206715716208,0.0,0.0,0.0,0.0,386.0,0.0,0.0,0.0,0.0,0.0,0.0,0.0,0.0,0.0
君津市二入,君津市,二入,12225085000,5.889955817087963,140.0111299718702,35.22223423228526,0.0,0.0,0.0,0.0,0.0,0.0,0.0,0.0,0.0,0.0,33.0,0.0,0.0,0.0
市原市石塚,市原市,石塚,12219268000,5.894412135318247,140.12345557978077,35.266379231063794,0.0,0.0,0.0,0.0,0.0,0.0,0.0,0.0,0.0,0.0,0.0,0.0,0.0,0.0
君津市西粟倉,君津市,西粟倉,12225073000,6.058485884974237,139.9930453354085,35.25214334713854,0.0,0.0,0.0,257.0,0.0,0.0,0.0,0.0,0.0,0.0,0.0,0.0,0.0,0.0
君津市箕輪,君津市,箕輪,12225101000,6.082168569934522,140.0748008127993,35.310819528579515,41.0,0.0,0.0,237.0,868.0,153.0,0.0,44.0,0.0,0.0,0.0,0.0,43.0,52.0
君津市清和市場,君津市,清和市場,12225074000,6.096183349709462,139.9923408595913,35.25962213519908,0.0,0.0,0.0,0.0,0.0,0.0,0.0,0.0,0.0,0.0,0.0,0.0,0.0,0.0
君津市宿原,君津市,宿原,12225090000,6.165289804233434,140.02683526479996,35.208945755338725,0.0,0.0,60.0,0.0,0.0,0.0,0.0,0.0,0.0,0.0,0.0,0.0,0.0,0.0
君津市滝原,君津市,滝原,12225136000,6.1982134055942515,140.11430130092893,35.224425876749265,0.0,0.0,0.0,0.0,0.0,90.0,0.0,31.0,0.0,0.0,0.0,0.0,0.0,0.0
君津市法木,君津市,法木,12225072000,6.2225606148141095,140.0120173211567,35.29799100298995,16.0,0.0,0.0,0.0,0.0,0.0,0.0,0.0,0.0,0.0,0.0,0.0,0.0,0.0
君津市釜生,君津市,釜生,12225135000,6.327039636117084,140.1181577973643,35.22696040466147,0.0,0.0,0.0,0.0,204.0,440.0,0.0,258.0,0.0,0.0,0.0,0.0,0.0,0.0
君津市植畑,君津市,植畑,12225081000,6.454476800753201,139.99298837168496,35.23697067061697,0.0,0.0,0.0,0.0,0.0,0.0,0.0,0.0,0.0,0.0,0.0,0.0,0.0,0.0
君津市上新田,君津市,上新田,12225102000,6.566080501678743,140.06640658708628,35.316354159889464,0.0,0.0,0.0,0.0,80.0,0.0,0.0,0.0,0.0,0.0,0.0,0.0,0.0,0.0
君津市市宿,君津市,市宿,12225075000,6.643707076264042,139.98729853899303,35.26760749582956,0.0,0.0,0.0,128.0,0.0,0.0,0.0,0.0,0.0,0.0,0.0,0.0,0.0,0.0
君津市俵田,君津市,俵田,12225103000,6.646615894900724,140.05636632493326,35.317300760805104,274.0,0.0,319.0,0.0,143.0,1027.0,38.0,0.0,0.0,0.0,0.0,0.0,0.0,80.0
市原市菅野,市原市,菅野,12219267000,6.681064958473797,140.1204209600272,35.2912122811262,0.0,0.0,0.0,0.0,0.0,0.0,0.0,0.0,0.0,0.0,0.0,0.0,0.0,0.0
君津市西日笠,君津市,西日笠,12225082000,6.71574688354312,139.99899954083904,35.22277573254678,0.0,0.0,0.0,0.0,0.0,0.0,0.0,0.0,0.0,0.0,0.0,0.0,0.0,0.0
君津市戸崎,君津市,戸崎,12225097000,6.758910776101746,140.0316629329004,35.313977503460144,1250.0,0.0,0.0,86.0,366.0,195.0,0.0,27.0,0.0,0.0,0.0,24.0,0.0,0.0
